timestamp,steering_input,acceleration_input,raycasts,speed,steering,position_x,position_y,position_z
1743592068.351062,0.0,-0.0,"[174.0, 185.0, 227.0, 295.0, 259.0, 259.0, 295.0, 227.0, 185.0, 174.0]",0.0,0.0,0.0,0.10000038146972656,-27.93000030517578
1743592068.5559103,0.0,-0.0,"[174.0, 185.0, 178.0, 155.0, 154.0, 154.0, 156.0, 179.0, 185.0, 174.0]",0.1431841105222702,0.0,0.0,0.097137451171875,-27.93000030517578
1743592068.5979345,0.0,-0.0,"[174.0, 185.0, 178.0, 155.0, 154.0, 154.0, 156.0, 179.0, 185.0, 174.0]",0.2360968291759491,0.0,0.0,0.09241485595703125,-27.93000030517578
1743592068.6006246,0.0,-0.0,"[174.0, 185.0, 178.0, 155.0, 154.0, 154.0, 156.0, 179.0, 185.0, 174.0]",0.30777978897094727,0.0,0.0,0.08625984191894531,-27.93000030517578
1743592068.6337502,0.0,-0.0,"[174.0, 185.0, 179.0, 155.0, 154.0, 154.0, 156.0, 179.0, 185.0, 174.0]",0.36006540060043335,0.0,0.0,0.07905769348144531,-27.93000030517578
1743592068.664858,0.0,-0.0,"[174.0, 185.0, 179.0, 155.0, 154.0, 154.0, 156.0, 179.0, 185.0, 174.0]",0.3949472904205322,0.0,0.0,0.07115936279296875,-27.93000030517578
1743592068.6676517,0.0,-0.0,"[174.0, 185.0, 179.0, 155.0, 154.0, 154.0, 156.0, 179.0, 185.0, 174.0]",0.41450235247612,0.0,0.0,0.06286811828613281,-27.93000030517578
1743592068.69741,0.0,-0.0,"[174.0, 185.0, 179.0, 155.0, 154.0, 154.0, 156.0, 180.0, 185.0, 174.0]",0.42082807421684265,0.0,0.0,0.05445289611816406,-27.93000030517578
1743592068.7000535,0.0,-0.0,"[174.0, 185.0, 179.0, 155.0, 154.0, 154.0, 156.0, 180.0, 185.0, 174.0]",0.41598936915397644,0.0,0.0,0.04613304138183594,-27.93000030517578
1743592068.7322044,0.0,-0.0,"[174.0, 185.0, 179.0, 155.0, 154.0, 154.0, 156.0, 181.0, 185.0, 174.0]",0.4019714593887329,0.0,0.0,0.03809356689453125,-27.93000030517578
1743592068.7655337,0.0,-0.0,"[174.0, 185.0, 179.0, 156.0, 154.0, 154.0, 156.0, 181.0, 185.0, 174.0]",0.3806484043598175,0.0,0.0,0.03047943115234375,-27.93000030517578
1743592068.7699118,0.0,-0.0,"[174.0, 185.0, 179.0, 156.0, 154.0, 154.0, 156.0, 181.0, 185.0, 174.0]",0.3537571132183075,0.0,0.0,0.023405075073242188,-27.93000030517578
1743592068.7993631,0.0,-0.0,"[174.0, 185.0, 180.0, 156.0, 154.0, 154.0, 156.0, 181.0, 185.0, 174.0]",0.3228750228881836,0.0,0.0,0.016946792602539062,-27.92999267578125
1743592068.801819,0.0,-0.0,"[174.0, 185.0, 180.0, 156.0, 154.0, 154.0, 156.0, 181.0, 185.0, 174.0]",0.28941938281059265,0.0,0.0,0.011159896850585938,-27.930038452148438
1743592068.8333774,0.0,-0.0,"[174.0, 185.0, 180.0, 156.0, 154.0, 154.0, 156.0, 181.0, 185.0, 174.0]",0.2562173306941986,0.0,0.0,0.0060672760009765625,-27.929466247558594
1743592068.8630888,0.0,-0.0,"[174.0, 185.0, 181.0, 156.0, 154.0, 154.0, 156.0, 181.0, 185.0, 174.0]",0.34839218854904175,0.0,0.0,0.0016765594482421875,-27.93487548828125
1743592068.86568,0.0,-0.0,"[174.0, 185.0, 181.0, 156.0, 154.0, 154.0, 156.0, 181.0, 185.0, 174.0]",0.255353718996048,0.0,0.0,-0.0020236968994140625,-27.931358337402344
1743592068.8937433,0.0,-0.0,"[174.0, 185.0, 181.0, 156.0, 154.0, 154.0, 156.0, 181.0, 185.0, 174.0]",0.2815416157245636,0.0,0.0,-0.0050601959228515625,-27.926612854003906
1743592068.9259424,0.0,-0.0,"[174.0, 185.0, 181.0, 156.0, 154.0, 154.0, 156.0, 181.0, 185.0, 174.0]",0.15634490549564362,0.0,0.0,-0.007472991943359375,-27.928604125976562
1743592068.928461,0.0,-0.0,"[174.0, 185.0, 181.0, 156.0, 154.0, 154.0, 156.0, 181.0, 185.0, 174.0]",0.27455902099609375,0.0,0.0,-0.009307861328125,-27.923431396484375
1743592068.9603581,0.0,-0.0,"[174.0, 185.0, 181.0, 156.0, 154.0, 154.0, 156.0, 181.0, 185.0, 174.0]",0.2245660424232483,0.0,0.0,-0.010616302490234375,-27.92772674560547
1743592068.9646997,0.0,-0.0,"[174.0, 185.0, 181.0, 156.0, 154.0, 154.0, 156.0, 181.0, 185.0, 174.0]",0.08891011029481888,0.0,0.0,-0.011455535888671875,-27.929290771484375
1743592068.993943,0.0,-0.0,"[174.0, 185.0, 181.0, 156.0, 154.0, 154.0, 156.0, 181.0, 185.0, 174.0]",0.1896505206823349,0.0,0.0,-0.011884689331054688,-27.925521850585938
1743592069.0264387,0.0,-0.0,"[174.0, 185.0, 181.0, 156.0, 154.0, 154.0, 156.0, 181.0, 185.0, 174.0]",0.2066076397895813,0.0,0.0,-0.011960983276367188,-27.92139434814453
1743592069.0291746,0.0,-0.0,"[174.0, 185.0, 181.0, 156.0, 154.0, 154.0, 156.0, 181.0, 185.0, 174.0]",0.12101753056049347,0.0,0.0,-0.011743545532226562,-27.918983459472656
1743592069.0622919,0.0,-0.0,"[174.0, 185.0, 181.0, 156.0, 154.0, 154.0, 156.0, 181.0, 185.0, 174.0]",0.19259010255336761,0.0,0.0,-0.011285781860351562,-27.922805786132812
1743592069.065141,0.0,-0.0,"[174.0, 185.0, 181.0, 156.0, 154.0, 154.0, 156.0, 181.0, 185.0, 174.0]",0.17800575494766235,0.0,0.0,-0.010637283325195312,-27.926307678222656
1743592069.0954187,0.0,-0.0,"[174.0, 185.0, 181.0, 156.0, 154.0, 154.0, 156.0, 181.0, 185.0, 174.0]",0.16013549268245697,0.0,0.0,-0.009847640991210938,-27.929412841796875
1743592069.0980859,0.0,-0.0,"[174.0, 185.0, 181.0, 156.0, 154.0, 154.0, 156.0, 181.0, 185.0, 174.0]",0.07219173014163971,0.0,0.0,-0.0089569091796875,-27.9305419921875
1743592069.1314523,0.0,-0.0,"[174.0, 185.0, 181.0, 156.0, 154.0, 154.0, 156.0, 181.0, 185.0, 174.0]",0.1852148175239563,0.0,0.0,-0.008007049560546875,-27.926963806152344
1743592069.1668842,0.0,-0.0,"[174.0, 185.0, 181.0, 156.0, 154.0, 154.0, 156.0, 181.0, 185.0, 174.0]",0.15632963180541992,0.0,0.0,-0.00702667236328125,-27.923995971679688
1743592069.1720347,0.0,-0.0,"[174.0, 185.0, 181.0, 156.0, 154.0, 154.0, 156.0, 181.0, 185.0, 174.0]",0.051327187567949295,0.0,0.0,-0.0060482025146484375,-27.923690795898438
1743592069.2071843,0.0,-0.0,"[174.0, 185.0, 181.0, 156.0, 154.0, 154.0, 156.0, 181.0, 185.0, 174.0]",0.15988554060459137,0.0,0.0,-0.0050907135009765625,-27.926742553710938
1743592069.2105134,0.0,-0.0,"[174.0, 185.0, 181.0, 156.0, 154.0, 154.0, 156.0, 181.0, 185.0, 174.0]",0.05791441351175308,0.0,0.0,-0.004177093505859375,-27.927452087402344
1743592069.2460856,0.0,-0.0,"[174.0, 185.0, 181.0, 156.0, 154.0, 154.0, 156.0, 181.0, 185.0, 174.0]",0.19991730153560638,0.0,0.0,-0.0033206939697265625,-27.923545837402344
1743592069.2491474,0.0,-0.0,"[174.0, 185.0, 181.0, 156.0, 154.0, 154.0, 156.0, 181.0, 185.0, 174.0]",0.12208718806505203,0.0,0.0,-0.0025310516357421875,-27.921234130859375
1743592069.2797503,0.0,-0.0,"[174.0, 185.0, 181.0, 156.0, 154.0, 154.0, 156.0, 181.0, 185.0, 174.0]",0.18460233509540558,0.0,0.0,-0.0018177032470703125,-27.92485809326172
1743592069.28302,0.0,-0.0,"[174.0, 185.0, 181.0, 156.0, 154.0, 154.0, 156.0, 181.0, 185.0, 174.0]",0.13353228569030762,0.0,0.0,-0.0011844635009765625,-27.927452087402344
1743592069.3136575,0.0,-0.0,"[174.0, 185.0, 181.0, 156.0, 154.0, 154.0, 156.0, 181.0, 185.0, 174.0]",0.11446059495210648,0.0,3.0517578125e-05,-0.00063323974609375,-27.92523193359375
1743592069.3440857,0.0,-0.0,"[174.0, 185.0, 181.0, 156.0, 154.0, 154.0, 156.0, 181.0, 185.0, 174.0]",0.18039268255233765,0.0,3.0517578125e-05,-0.0001621246337890625,-27.928802490234375
1743592069.346795,0.0,-0.0,"[174.0, 185.0, 181.0, 156.0, 154.0, 154.0, 156.0, 181.0, 185.0, 174.0]",0.12967412173748016,0.0,3.0517578125e-05,0.0002288818359375,-27.931365966796875
1743592069.3783941,0.0,-0.0,"[174.0, 185.0, 181.0, 156.0, 154.0, 154.0, 156.0, 181.0, 185.0, 174.0]",0.1237604022026062,0.0,3.0517578125e-05,0.000545501708984375,-27.928909301757812
1743592069.382608,0.0,-0.0,"[174.0, 185.0, 181.0, 156.0, 154.0, 154.0, 156.0, 181.0, 185.0, 174.0]",0.1935333013534546,0.0,3.0517578125e-05,0.0007915496826171875,-27.932777404785156
1743592069.413354,0.0,-0.0,"[174.0, 185.0, 181.0, 156.0, 154.0, 154.0, 156.0, 181.0, 185.0, 174.0]",0.12180628627538681,0.0,6.103515625e-05,0.000972747802734375,-27.935203552246094
1743592069.444682,0.0,-0.0,"[174.0, 185.0, 181.0, 156.0, 154.0, 154.0, 156.0, 181.0, 185.0, 174.0]",0.16159525513648987,0.0,6.103515625e-05,0.0010967254638671875,-27.931976318359375
1743592069.447702,0.0,-0.0,"[174.0, 185.0, 181.0, 156.0, 154.0, 154.0, 156.0, 181.0, 185.0, 174.0]",0.0772232785820961,0.0,6.103515625e-05,0.0011692047119140625,-27.930435180664062
1743592069.4764667,0.0,-0.0,"[174.0, 185.0, 181.0, 156.0, 154.0, 154.0, 156.0, 181.0, 185.0, 174.0]",0.184142604470253,0.0,6.103515625e-05,0.00119781494140625,-27.934112548828125
1743592069.4793406,0.0,-0.0,"[174.0, 185.0, 181.0, 156.0, 154.0, 154.0, 156.0, 181.0, 185.0, 174.0]",0.1367751508951187,0.0,6.103515625e-05,0.0011882781982421875,-27.936851501464844
1743592069.507652,0.0,-0.0,"[174.0, 185.0, 181.0, 156.0, 154.0, 154.0, 156.0, 181.0, 185.0, 174.0]",0.06419677287340164,0.0,6.103515625e-05,0.001148223876953125,-27.935569763183594
1743592069.5410304,0.0,-0.0,"[174.0, 185.0, 181.0, 156.0, 154.0, 154.0, 156.0, 181.0, 185.0, 174.0]",0.1747168004512787,0.0,6.103515625e-05,0.0010833740234375,-27.939064025878906
1743592069.5457451,0.0,-0.0,"[174.0, 185.0, 181.0, 156.0, 154.0, 154.0, 156.0, 181.0, 185.0, 174.0]",0.1311485320329666,0.0,9.1552734375e-05,0.00099945068359375,-27.941680908203125
1743592069.5801704,0.0,-0.0,"[174.0, 185.0, 181.0, 156.0, 154.0, 154.0, 156.0, 181.0, 185.0, 174.0]",0.11074256151914597,0.0,9.1552734375e-05,0.0009002685546875,-27.939468383789062
1743592069.5841677,0.0,-0.0,"[174.0, 185.0, 181.0, 156.0, 154.0, 154.0, 156.0, 181.0, 185.0, 174.0]",0.1801898330450058,0.0,9.1552734375e-05,0.00079345703125,-27.943069458007812
1743592069.6176076,0.0,-0.0,"[174.0, 185.0, 181.0, 156.0, 154.0, 154.0, 156.0, 181.0, 185.0, 174.0]",0.14138393104076385,0.0,9.1552734375e-05,0.00067901611328125,-27.945899963378906
1743592069.6517084,0.0,-0.0,"[174.0, 185.0, 181.0, 156.0, 154.0, 154.0, 156.0, 181.0, 185.0, 174.0]",0.0333004854619503,0.0,9.1552734375e-05,0.0005645751953125,-27.94524383544922
1743592069.6545277,0.0,-0.0,"[174.0, 185.0, 181.0, 156.0, 154.0, 154.0, 156.0, 181.0, 185.0, 174.0]",0.19635771214962006,0.0,9.1552734375e-05,0.0004520416259765625,-27.94916534423828
1743592069.6863499,0.0,-0.0,"[174.0, 185.0, 181.0, 156.0, 154.0, 154.0, 156.0, 181.0, 185.0, 174.0]",0.12271545082330704,0.0,0.0001220703125,0.00034332275390625,-27.951614379882812
1743592069.6893458,0.0,-0.0,"[174.0, 185.0, 181.0, 156.0, 154.0, 154.0, 156.0, 181.0, 185.0, 174.0]",0.15798240900039673,0.0,0.0001220703125,0.0002384185791015625,-27.948455810546875
1743592069.7203028,0.0,-0.0,"[174.0, 185.0, 181.0, 156.0, 154.0, 154.0, 156.0, 181.0, 185.0, 174.0]",0.0622306689620018,0.0,0.0001220703125,0.0001430511474609375,-27.947219848632812
1743592069.724253,0.0,-0.0,"[174.0, 185.0, 181.0, 156.0, 154.0, 154.0, 156.0, 181.0, 185.0, 174.0]",0.17492303252220154,0.0,0.0001220703125,5.53131103515625e-05,-27.950714111328125
1743592069.7565768,0.0,-0.0,"[174.0, 185.0, 181.0, 156.0, 154.0, 154.0, 156.0, 181.0, 185.0, 174.0]",0.13653863966464996,0.0,0.0001220703125,-2.288818359375e-05,-27.953445434570312
1743592069.7875516,0.0,-0.0,"[174.0, 185.0, 181.0, 156.0, 154.0, 154.0, 156.0, 181.0, 185.0, 174.0]",0.0718504786491394,0.0,0.0001220703125,-9.34600830078125e-05,-27.952011108398438
1743592069.7903235,0.0,-0.0,"[174.0, 185.0, 181.0, 156.0, 154.0, 154.0, 156.0, 181.0, 185.0, 174.0]",0.17569200694561005,0.0,0.0001220703125,-0.000152587890625,-27.955520629882812
1743592069.821101,0.0,-0.0,"[174.0, 185.0, 181.0, 156.0, 154.0, 154.0, 156.0, 181.0, 185.0, 174.0]",0.13826613128185272,0.0,0.000152587890625,-0.000202178955078125,-27.958290100097656
1743592069.8252797,0.0,-0.0,"[174.0, 185.0, 181.0, 156.0, 154.0, 154.0, 156.0, 181.0, 185.0, 174.0]",0.05745533108711243,0.0,0.000152587890625,-0.000244140625,-27.957138061523438
1743592069.8546174,0.0,-0.0,"[174.0, 185.0, 181.0, 156.0, 154.0, 154.0, 156.0, 181.0, 185.0, 174.0]",0.1775936484336853,0.0,0.000152587890625,-0.000278472900390625,-27.960693359375
1743592069.8839674,0.0,-0.0,"[174.0, 185.0, 181.0, 156.0, 154.0, 154.0, 156.0, 181.0, 185.0, 174.0]",0.14114311337471008,0.0,0.000152587890625,-0.0003032684326171875,-27.963516235351562
1743592069.8865454,0.0,-0.0,"[174.0, 185.0, 181.0, 156.0, 154.0, 154.0, 156.0, 181.0, 185.0, 174.0]",0.034520473331213,0.0,0.000152587890625,-0.0003204345703125,-27.96282196044922
1743592069.9166121,0.0,-0.0,"[174.0, 185.0, 181.0, 156.0, 154.0, 154.0, 156.0, 181.0, 185.0, 174.0]",0.20195074379444122,0.0,0.00018310546875,-0.000331878662109375,-27.96686553955078
1743592069.9194715,0.0,-0.0,"[174.0, 185.0, 181.0, 156.0, 154.0, 154.0, 156.0, 181.0, 185.0, 174.0]",0.09901262819766998,0.0,0.00018310546875,-0.000339508056640625,-27.968841552734375
1743592069.9518456,0.0,-0.0,"[174.0, 185.0, 181.0, 156.0, 154.0, 154.0, 156.0, 181.0, 185.0, 174.0]",0.20315459370613098,0.0,0.00018310546875,-0.000339508056640625,-27.96478271484375
1743592069.9860215,0.0,-0.0,"[174.0, 185.0, 181.0, 156.0, 154.0, 154.0, 156.0, 181.0, 185.0, 174.0]",0.09250973165035248,0.0,0.000152587890625,-0.0003376007080078125,-27.962928771972656
1743592069.9892561,0.0,-0.0,"[174.0, 185.0, 181.0, 156.0, 154.0, 154.0, 156.0, 181.0, 185.0, 174.0]",0.21048150956630707,0.0,0.00018310546875,-0.000331878662109375,-27.967140197753906
1743592070.0246236,0.0,-0.0,"[174.0, 185.0, 181.0, 156.0, 154.0, 154.0, 156.0, 181.0, 185.0, 174.0]",0.054807256907224655,0.0,0.00018310546875,-0.0003223419189453125,-27.968238830566406
1743592070.0278401,0.0,-0.0,"[174.0, 185.0, 181.0, 156.0, 154.0, 154.0, 156.0, 181.0, 185.0, 174.0]",0.18342110514640808,0.0,0.00018310546875,-0.00031280517578125,-27.964569091796875
1743592070.0567393,0.0,-0.0,"[174.0, 185.0, 181.0, 156.0, 154.0, 154.0, 156.0, 181.0, 185.0, 174.0]",0.14437030255794525,0.0,0.000152587890625,-0.0002994537353515625,-27.961685180664062
1743592070.0597196,0.0,-0.0,"[174.0, 185.0, 181.0, 156.0, 154.0, 154.0, 156.0, 181.0, 185.0, 174.0]",0.010325106792151928,0.0,0.000152587890625,-0.0002880096435546875,-27.961883544921875
1743592070.0888784,0.0,-0.0,"[174.0, 185.0, 181.0, 156.0, 154.0, 154.0, 156.0, 181.0, 185.0, 174.0]",0.08798801898956299,0.0,0.000152587890625,-0.000274658203125,-27.960128784179688
1743592070.1196039,0.0,-0.0,"[174.0, 185.0, 181.0, 156.0, 154.0, 154.0, 156.0, 181.0, 185.0, 174.0]",0.2099931389093399,0.0,0.00018310546875,-0.0002613067626953125,-27.964324951171875
1743592070.1234007,0.0,-0.0,"[174.0, 185.0, 181.0, 156.0, 154.0, 154.0, 156.0, 181.0, 185.0, 174.0]",0.05686913803219795,0.0,0.00018310546875,-0.000247955322265625,-27.96546173095703
1743592070.155446,0.0,-0.0,"[174.0, 185.0, 181.0, 156.0, 154.0, 154.0, 156.0, 181.0, 185.0, 174.0]",0.17966091632843018,0.0,0.00018310546875,-0.0002346038818359375,-27.961868286132812
1743592070.1861374,0.0,-0.0,"[174.0, 185.0, 181.0, 156.0, 154.0, 154.0, 156.0, 181.0, 185.0, 174.0]",0.14235873520374298,0.0,0.000152587890625,-0.0002231597900390625,-27.959022521972656
1743592070.1886675,0.0,-0.0,"[174.0, 185.0, 181.0, 156.0, 154.0, 154.0, 156.0, 181.0, 185.0, 174.0]",0.024575751274824142,0.0,0.000152587890625,-0.000213623046875,-27.959518432617188
1743592070.2244575,0.0,-0.0,"[174.0, 185.0, 181.0, 156.0, 154.0, 154.0, 156.0, 181.0, 185.0, 174.0]",0.1880163848400116,0.0,0.000152587890625,-0.0002040863037109375,-27.95575714111328
1743592070.2297118,0.0,-0.0,"[174.0, 185.0, 181.0, 156.0, 154.0, 154.0, 156.0, 181.0, 185.0, 174.0]",0.14146263897418976,0.0,0.000152587890625,-0.000194549560546875,-27.952926635742188
1743592070.2698185,0.0,-0.0,"[174.0, 185.0, 181.0, 156.0, 154.0, 154.0, 156.0, 181.0, 185.0, 174.0]",0.031307123601436615,0.0,0.000152587890625,-0.000186920166015625,-27.95355224609375
1743592070.2742918,0.0,-0.0,"[174.0, 185.0, 181.0, 156.0, 154.0, 154.0, 156.0, 181.0, 185.0, 174.0]",0.19213135540485382,0.0,0.000152587890625,-0.0001811981201171875,-27.94970703125
1743592070.3101227,0.0,-0.0,"[174.0, 185.0, 181.0, 156.0, 154.0, 154.0, 156.0, 181.0, 185.0, 174.0]",0.1337447315454483,0.0,0.0001220703125,-0.00017547607421875,-27.947036743164062
1743592070.3141434,0.0,-0.0,"[174.0, 185.0, 181.0, 156.0, 154.0, 154.0, 156.0, 181.0, 185.0, 174.0]",0.09263762831687927,0.0,0.0001220703125,-0.000171661376953125,-27.948883056640625
1743592070.36909,0.0,-0.0,"[174.0, 185.0, 181.0, 156.0, 154.0, 154.0, 156.0, 181.0, 185.0, 174.0]",0.2106226533651352,0.0,0.0001220703125,-0.0001678466796875,-27.944671630859375
1743592070.3815541,0.0,-0.0,"[174.0, 185.0, 181.0, 156.0, 154.0, 154.0, 156.0, 181.0, 185.0, 174.0]",0.053793199360370636,0.0,0.0001220703125,-0.000164031982421875,-27.94359588623047
1743592070.460052,0.0,-0.0,"[174.0, 185.0, 181.0, 156.0, 154.0, 154.0, 156.0, 181.0, 185.0, 174.0]",0.18583746254444122,0.0,0.0001220703125,-0.0001621246337890625,-27.947311401367188
1743592070.4666727,0.0,-0.0,"[174.0, 185.0, 181.0, 156.0, 154.0, 154.0, 156.0, 181.0, 185.0, 174.0]",0.1430375576019287,0.0,0.0001220703125,-0.0001621246337890625,-27.950180053710938
1743592070.4708512,0.0,-0.0,"[174.0, 185.0, 181.0, 156.0, 154.0, 154.0, 156.0, 181.0, 185.0, 174.0]",0.019723525270819664,0.0,0.0001220703125,-0.0001621246337890625,-27.949783325195312
1743592070.4747984,0.0,-0.0,"[174.0, 185.0, 181.0, 156.0, 154.0, 154.0, 156.0, 181.0, 185.0, 174.0]",0.18836303055286407,0.0,0.0001220703125,-0.0001621246337890625,-27.95355224609375
1743592070.5245895,0.0,-0.0,"[174.0, 185.0, 181.0, 156.0, 154.0, 154.0, 156.0, 181.0, 185.0, 174.0]",0.14051376283168793,0.0,0.0001220703125,-0.0001621246337890625,-27.95635986328125
1743592070.5298848,0.0,-0.0,"[174.0, 185.0, 181.0, 156.0, 154.0, 154.0, 156.0, 181.0, 185.0, 174.0]",0.038770899176597595,0.0,0.000152587890625,-0.0001621246337890625,-27.955581665039062
1743592070.535327,0.0,-0.0,"[174.0, 185.0, 181.0, 156.0, 154.0, 154.0, 156.0, 181.0, 185.0, 174.0]",0.20928703248500824,0.0,0.000152587890625,-0.000164031982421875,-27.95977020263672
1743592070.5386574,0.0,-0.0,"[174.0, 185.0, 181.0, 156.0, 154.0, 154.0, 156.0, 181.0, 185.0, 174.0]",0.0603407584130764,0.0,0.000152587890625,-0.000164031982421875,-27.960975646972656
1743592070.5787337,0.0,-0.0,"[174.0, 185.0, 181.0, 156.0, 154.0, 154.0, 156.0, 181.0, 185.0, 174.0]",0.176280215382576,0.0,0.000152587890625,-0.0001659393310546875,-27.95745086669922
1743592070.5844731,0.0,-0.0,"[174.0, 185.0, 181.0, 156.0, 154.0, 154.0, 156.0, 181.0, 185.0, 174.0]",0.13787387311458588,0.0,0.000152587890625,-0.0001678466796875,-27.954696655273438
1743592070.587641,0.0,-0.0,"[174.0, 185.0, 181.0, 156.0, 154.0, 154.0, 156.0, 181.0, 185.0, 174.0]",0.059169523417949677,0.0,0.0001220703125,-0.0001697540283203125,-27.95587158203125
1743592070.6234736,0.0,-0.0,"[174.0, 185.0, 181.0, 156.0, 154.0, 154.0, 156.0, 181.0, 185.0, 174.0]",0.17614339292049408,0.0,0.0001220703125,-0.000171661376953125,-27.952354431152344
1743592070.6263154,0.0,-0.0,"[174.0, 185.0, 181.0, 156.0, 154.0, 154.0, 156.0, 181.0, 185.0, 174.0]",0.13753186166286469,0.0,0.0001220703125,-0.000171661376953125,-27.949600219726562
1743592070.6299996,0.0,-0.0,"[174.0, 185.0, 181.0, 156.0, 154.0, 154.0, 156.0, 181.0, 185.0, 174.0]",0.06201857328414917,0.0,0.0001220703125,-0.0001735687255859375,-27.950843811035156
1743592070.664073,0.0,-0.0,"[174.0, 185.0, 181.0, 156.0, 154.0, 154.0, 156.0, 181.0, 185.0, 174.0]",0.17492681741714478,0.0,0.0001220703125,-0.00017547607421875,-27.947341918945312
1743592070.6680727,0.0,-0.0,"[174.0, 185.0, 181.0, 156.0, 154.0, 154.0, 156.0, 181.0, 185.0, 174.0]",0.13515165448188782,0.0,9.1552734375e-05,-0.00017547607421875,-27.94464111328125
1743592070.6983614,0.0,-0.0,"[174.0, 185.0, 181.0, 156.0, 154.0, 154.0, 156.0, 181.0, 185.0, 174.0]",0.08116552978754044,0.0,9.1552734375e-05,-0.0001773834228515625,-27.946266174316406
1743592070.703517,0.0,-0.0,"[174.0, 185.0, 181.0, 156.0, 154.0, 154.0, 156.0, 181.0, 185.0, 174.0]",0.19521167874336243,0.0,9.1552734375e-05,-0.0001773834228515625,-27.942359924316406
1743592070.735474,0.0,-0.0,"[174.0, 185.0, 181.0, 156.0, 154.0, 154.0, 156.0, 181.0, 185.0, 174.0]",0.1258745640516281,0.0,9.1552734375e-05,-0.000179290771484375,-27.939842224121094
1743592070.7676187,0.0,-0.0,"[174.0, 185.0, 181.0, 156.0, 154.0, 154.0, 156.0, 181.0, 185.0, 174.0]",0.14341174066066742,0.0,9.1552734375e-05,-0.000179290771484375,-27.942710876464844
1743592070.7715487,0.0,-0.0,"[174.0, 185.0, 181.0, 156.0, 154.0, 154.0, 156.0, 181.0, 185.0, 174.0]",0.007905163802206516,0.0,9.1552734375e-05,-0.0001811981201171875,-27.942550659179688
1743592070.8030531,0.0,-0.0,"[174.0, 185.0, 181.0, 156.0, 154.0, 154.0, 156.0, 181.0, 185.0, 174.0]",0.05470709130167961,0.0,9.1552734375e-05,-0.0001811981201171875,-27.943649291992188
1743592070.8060615,0.0,-0.0,"[174.0, 185.0, 181.0, 156.0, 154.0, 154.0, 156.0, 181.0, 185.0, 174.0]",0.17918594181537628,0.0,9.1552734375e-05,-0.0001811981201171875,-27.9400634765625
1743592070.839173,0.0,-0.0,"[174.0, 185.0, 181.0, 156.0, 154.0, 154.0, 156.0, 181.0, 185.0, 174.0]",0.14194144308567047,0.0,6.103515625e-05,-0.0001811981201171875,-27.937225341796875
1743592070.84255,0.0,-0.0,"[174.0, 185.0, 181.0, 156.0, 154.0, 154.0, 156.0, 181.0, 185.0, 174.0]",0.02775217778980732,0.0,6.103515625e-05,-0.0001811981201171875,-27.937782287597656
1743592070.8719196,0.0,-0.0,"[174.0, 185.0, 181.0, 156.0, 154.0, 154.0, 156.0, 181.0, 185.0, 174.0]",0.18445590138435364,0.0,6.103515625e-05,-0.0001811981201171875,-27.93408966064453
1743592070.9046466,0.0,-0.0,"[174.0, 185.0, 181.0, 156.0, 154.0, 154.0, 156.0, 181.0, 185.0, 174.0]",0.14395101368427277,0.0,6.103515625e-05,-0.0001811981201171875,-27.93121337890625
1743592070.9078496,0.0,-0.0,"[174.0, 185.0, 181.0, 156.0, 154.0, 154.0, 156.0, 181.0, 185.0, 174.0]",0.013245252892374992,0.0,6.103515625e-05,-0.0001811981201171875,-27.931480407714844
1743592070.9431837,0.0,-0.0,"[174.0, 185.0, 181.0, 156.0, 154.0, 154.0, 156.0, 181.0, 185.0, 174.0]",0.13011495769023895,0.0,6.103515625e-05,-0.0001811981201171875,-27.928878784179688
1743592070.9465106,0.0,-0.0,"[174.0, 185.0, 181.0, 156.0, 154.0, 154.0, 156.0, 181.0, 185.0, 174.0]",0.14088380336761475,0.0,6.103515625e-05,-0.0001811981201171875,-27.93169403076172
1743592070.9780426,0.0,-0.0,"[174.0, 185.0, 181.0, 156.0, 154.0, 154.0, 156.0, 181.0, 185.0, 174.0]",0.024702437222003937,0.0,6.103515625e-05,-0.0001811981201171875,-27.931198120117188
1743592070.982555,0.0,-0.0,"[174.0, 185.0, 181.0, 156.0, 154.0, 154.0, 156.0, 181.0, 185.0, 174.0]",0.1831579953432083,0.0,6.103515625e-05,-0.0001811981201171875,-27.934860229492188
1743592071.0124462,0.0,-0.0,"[174.0, 185.0, 181.0, 156.0, 154.0, 154.0, 156.0, 181.0, 185.0, 174.0]",0.14374779164791107,0.0,6.103515625e-05,-0.0001811981201171875,-27.93773651123047
1743592071.0442379,0.0,-0.0,"[174.0, 185.0, 181.0, 156.0, 154.0, 154.0, 156.0, 181.0, 185.0, 174.0]",0.014733509160578251,0.0,6.103515625e-05,-0.0001811981201171875,-27.93744659423828
1743592071.0479047,0.0,-0.0,"[174.0, 185.0, 181.0, 156.0, 154.0, 154.0, 156.0, 181.0, 185.0, 174.0]",0.15011316537857056,0.0,6.103515625e-05,-0.0001811981201171875,-27.940444946289062
1743592071.0766258,0.0,-0.0,"[174.0, 185.0, 181.0, 156.0, 154.0, 154.0, 156.0, 181.0, 185.0, 174.0]",0.017039312049746513,0.0,6.103515625e-05,-0.0001811981201171875,-27.94078826904297
1743592071.0802155,0.0,-0.0,"[174.0, 185.0, 181.0, 156.0, 154.0, 154.0, 156.0, 181.0, 185.0, 174.0]",0.1960044503211975,0.0,6.103515625e-05,-0.0001811981201171875,-27.936866760253906
1743592071.1094563,0.0,-0.0,"[174.0, 185.0, 181.0, 156.0, 154.0, 154.0, 156.0, 181.0, 185.0, 174.0]",0.1244548112154007,0.0,6.103515625e-05,-0.0001811981201171875,-27.93437957763672
1743592071.1428406,0.0,-0.0,"[174.0, 185.0, 181.0, 156.0, 154.0, 154.0, 156.0, 181.0, 185.0, 174.0]",0.15166708827018738,0.0,6.103515625e-05,-0.000179290771484375,-27.937408447265625
1743592071.146174,0.0,-0.0,"[174.0, 185.0, 181.0, 156.0, 154.0, 154.0, 156.0, 181.0, 185.0, 174.0]",0.024429697543382645,0.0,6.103515625e-05,-0.000179290771484375,-27.937896728515625
1743592071.1792853,0.0,-0.0,"[174.0, 185.0, 181.0, 156.0, 154.0, 154.0, 156.0, 181.0, 185.0, 174.0]",0.18264131247997284,0.0,6.103515625e-05,-0.000179290771484375,-27.934249877929688
1743592071.1828144,0.0,-0.0,"[174.0, 185.0, 181.0, 156.0, 154.0, 154.0, 156.0, 181.0, 185.0, 174.0]",0.14400862157344818,0.0,6.103515625e-05,-0.000179290771484375,-27.931365966796875
1743592071.2145076,0.0,-0.0,"[174.0, 185.0, 181.0, 156.0, 154.0, 154.0, 156.0, 181.0, 185.0, 174.0]",0.012792165391147137,0.0,3.0517578125e-05,-0.000179290771484375,-27.931625366210938
1743592071.250799,0.0,-0.0,"[174.0, 185.0, 181.0, 156.0, 154.0, 154.0, 156.0, 181.0, 185.0, 174.0]",0.12370611727237701,0.0,6.103515625e-05,-0.000179290771484375,-27.929153442382812
1743592071.2554135,0.0,-0.0,"[174.0, 185.0, 181.0, 156.0, 154.0, 154.0, 156.0, 181.0, 185.0, 174.0]",0.20664112269878387,0.0,6.103515625e-05,-0.000179290771484375,-27.93328094482422
1743592071.2934382,0.0,-0.0,"[174.0, 185.0, 181.0, 156.0, 154.0, 154.0, 156.0, 181.0, 185.0, 174.0]",0.07386399805545807,0.0,6.103515625e-05,-0.000179290771484375,-27.93476104736328
1743592071.2986617,0.0,-0.0,"[174.0, 185.0, 181.0, 156.0, 154.0, 154.0, 156.0, 181.0, 185.0, 174.0]",0.17904315888881683,0.0,6.103515625e-05,-0.000179290771484375,-27.931182861328125
1743592071.3353984,0.0,-0.0,"[174.0, 185.0, 181.0, 156.0, 154.0, 154.0, 156.0, 181.0, 185.0, 174.0]",0.1415465772151947,0.0,6.103515625e-05,-0.000179290771484375,-27.92835235595703
1743592071.3390083,0.0,-0.0,"[174.0, 185.0, 181.0, 156.0, 154.0, 154.0, 156.0, 181.0, 185.0, 174.0]",0.030746741220355034,0.0,3.0517578125e-05,-0.000179290771484375,-27.92896270751953
1743592071.371723,0.0,-0.0,"[174.0, 185.0, 181.0, 156.0, 154.0, 154.0, 156.0, 181.0, 185.0, 174.0]",0.19082938134670258,0.0,3.0517578125e-05,-0.000179290771484375,-27.925148010253906
1743592071.3747616,0.0,-0.0,"[174.0, 185.0, 181.0, 156.0, 154.0, 154.0, 156.0, 181.0, 185.0, 174.0]",0.13662977516651154,0.0,3.0517578125e-05,-0.000179290771484375,-27.92241668701172
1743592071.4050639,0.0,-0.0,"[174.0, 185.0, 181.0, 156.0, 154.0, 154.0, 156.0, 181.0, 185.0, 174.0]",0.06969776004552841,0.0,3.0517578125e-05,-0.000179290771484375,-27.923812866210938
1743592071.40803,0.0,-0.0,"[174.0, 185.0, 181.0, 156.0, 154.0, 154.0, 156.0, 181.0, 185.0, 174.0]",0.17465703189373016,0.0,3.0517578125e-05,-0.000179290771484375,-27.920318603515625
1743592071.4419475,0.0,-0.0,"[174.0, 185.0, 180.0, 156.0, 154.0, 154.0, 156.0, 181.0, 185.0, 174.0]",0.13456955552101135,0.0,3.0517578125e-05,-0.000179290771484375,-27.917625427246094
1743592071.4460156,0.0,-0.0,"[174.0, 185.0, 180.0, 156.0, 154.0, 154.0, 156.0, 181.0, 185.0, 174.0]",0.08586595952510834,0.0,0.0,-0.000179290771484375,-27.919342041015625
1743592071.4782898,0.0,-0.0,"[174.0, 185.0, 180.0, 156.0, 154.0, 154.0, 156.0, 181.0, 185.0, 174.0]",0.20599845051765442,0.0,0.0,-0.000179290771484375,-27.91522216796875
1743592071.4826007,0.0,-0.0,"[174.0, 185.0, 180.0, 156.0, 154.0, 154.0, 156.0, 181.0, 185.0, 174.0]",0.07721193134784698,0.0,0.0,-0.000179290771484375,-27.913681030273438
1743592071.5132968,0.0,-0.0,"[174.0, 185.0, 180.0, 156.0, 154.0, 154.0, 156.0, 181.0, 185.0, 174.0]",0.18560084700584412,0.0,0.0,-0.000179290771484375,-27.917388916015625
1743592071.5458238,0.0,-0.0,"[174.0, 185.0, 180.0, 156.0, 154.0, 154.0, 156.0, 181.0, 185.0, 174.0]",0.1434808373451233,0.0,0.0,-0.000179290771484375,-27.920257568359375
1743592071.5498815,0.0,-0.0,"[174.0, 185.0, 180.0, 156.0, 154.0, 154.0, 156.0, 181.0, 185.0, 174.0]",0.016560178250074387,0.0,0.0,-0.000179290771484375,-27.91992950439453
1743592071.5821335,0.0,-0.0,"[174.0, 185.0, 180.0, 156.0, 154.0, 154.0, 156.0, 181.0, 185.0, 174.0]",0.17030370235443115,0.0,0.0,-0.000179290771484375,-27.92333221435547
1743592071.585126,0.0,-0.0,"[174.0, 185.0, 180.0, 156.0, 154.0, 154.0, 156.0, 181.0, 185.0, 174.0]",0.12422386556863785,0.0,0.0,-0.000179290771484375,-27.925819396972656
1743592071.6169126,0.0,-0.0,"[174.0, 185.0, 180.0, 156.0, 154.0, 154.0, 156.0, 181.0, 185.0, 174.0]",0.16053979098796844,0.0,3.0517578125e-05,-0.000179290771484375,-27.922607421875
1743592071.65448,0.0,-0.0,"[174.0, 185.0, 180.0, 156.0, 154.0, 154.0, 156.0, 181.0, 185.0, 174.0]",0.0767679214477539,0.0,0.0,-0.000179290771484375,-27.92107391357422
1743592071.658106,0.0,-0.0,"[174.0, 185.0, 180.0, 156.0, 154.0, 154.0, 156.0, 181.0, 185.0, 174.0]",0.18297992646694183,0.0,3.0517578125e-05,-0.000179290771484375,-27.92473602294922
1743592071.688526,0.0,-0.0,"[174.0, 185.0, 181.0, 156.0, 154.0, 154.0, 156.0, 181.0, 185.0, 174.0]",0.14384323358535767,0.0,3.0517578125e-05,-0.000179290771484375,-27.9276123046875
1743592071.6917338,0.0,-0.0,"[174.0, 185.0, 181.0, 156.0, 154.0, 154.0, 156.0, 181.0, 185.0, 174.0]",0.014026904478669167,0.0,3.0517578125e-05,-0.000179290771484375,-27.927330017089844
1743592071.7237859,0.0,-0.0,"[174.0, 185.0, 181.0, 156.0, 154.0, 154.0, 156.0, 181.0, 185.0, 174.0]",0.14092013239860535,0.0,3.0517578125e-05,-0.000179290771484375,-27.930145263671875
1743592071.7278984,0.0,-0.0,"[174.0, 185.0, 181.0, 156.0, 154.0, 154.0, 156.0, 181.0, 185.0, 174.0]",0.020095907151699066,0.0,3.0517578125e-05,-0.000179290771484375,-27.92974853515625
1743592071.764711,0.0,-0.0,"[174.0, 185.0, 181.0, 156.0, 154.0, 154.0, 156.0, 181.0, 185.0, 174.0]",0.2090282142162323,0.0,3.0517578125e-05,-0.000179290771484375,-27.933929443359375
1743592071.7674935,0.0,-0.0,"[174.0, 185.0, 181.0, 156.0, 154.0, 154.0, 156.0, 181.0, 185.0, 174.0]",0.06167265400290489,0.0,3.0517578125e-05,-0.000179290771484375,-27.935165405273438
1743592071.7986372,0.0,-0.0,"[174.0, 185.0, 181.0, 156.0, 154.0, 154.0, 156.0, 181.0, 185.0, 174.0]",0.17556063830852509,0.0,3.0517578125e-05,-0.000179290771484375,-27.93164825439453
1743592071.8020108,0.0,-0.0,"[174.0, 185.0, 181.0, 156.0, 154.0, 154.0, 156.0, 181.0, 185.0, 174.0]",0.1365300714969635,0.0,3.0517578125e-05,-0.000179290771484375,-27.928916931152344
1743592071.834928,0.0,-0.0,"[174.0, 185.0, 181.0, 156.0, 154.0, 154.0, 156.0, 181.0, 185.0, 174.0]",0.06997218728065491,0.0,0.0,-0.000179290771484375,-27.930320739746094
1743592071.8671544,0.0,-0.0,"[174.0, 185.0, 181.0, 156.0, 154.0, 154.0, 156.0, 181.0, 185.0, 174.0]",0.17474128305912018,0.0,0.0,-0.000179290771484375,-27.92682647705078
1743592071.8701992,0.0,-0.0,"[174.0, 185.0, 181.0, 156.0, 154.0, 154.0, 156.0, 181.0, 185.0, 174.0]",0.13476093113422394,0.0,0.0,-0.000179290771484375,-27.92413330078125
1743592071.9008038,0.0,-0.0,"[174.0, 185.0, 181.0, 156.0, 154.0, 154.0, 156.0, 181.0, 185.0, 174.0]",0.08431100100278854,0.0,0.0,-0.000179290771484375,-27.925811767578125
1743592071.9043195,0.0,-0.0,"[174.0, 185.0, 181.0, 156.0, 154.0, 154.0, 156.0, 181.0, 185.0, 174.0]",0.20318099856376648,0.0,0.0,-0.000179290771484375,-27.9217529296875
1743592071.9472003,0.0,-0.0,"[174.0, 185.0, 180.0, 156.0, 154.0, 154.0, 156.0, 181.0, 185.0, 174.0]",0.09192772209644318,0.0,0.0,-0.000179290771484375,-27.91991424560547
1743592071.9517303,0.0,-0.0,"[174.0, 185.0, 180.0, 156.0, 154.0, 154.0, 156.0, 181.0, 185.0, 174.0]",0.21027913689613342,0.0,0.0,-0.000179290771484375,-27.924118041992188
1743592071.984731,0.0,-0.0,"[174.0, 185.0, 181.0, 156.0, 154.0, 154.0, 156.0, 181.0, 185.0, 174.0]",0.05561499670147896,0.0,0.0,-0.000179290771484375,-27.92523193359375
1743592071.987817,0.0,-0.0,"[174.0, 185.0, 181.0, 156.0, 154.0, 154.0, 156.0, 181.0, 185.0, 174.0]",0.18181699514389038,0.0,0.0,-0.000179290771484375,-27.921592712402344
1743592072.0208235,0.0,-0.0,"[174.0, 185.0, 180.0, 156.0, 154.0, 154.0, 156.0, 181.0, 185.0, 174.0]",0.1437644213438034,0.0,0.0,-0.000179290771484375,-27.918716430664062
1743592072.024728,0.0,-0.0,"[174.0, 185.0, 180.0, 156.0, 154.0, 154.0, 156.0, 181.0, 185.0, 174.0]",0.014495091512799263,0.0,-3.0517578125e-05,-0.000179290771484375,-27.91900634765625
1743592072.0621386,0.0,-0.0,"[174.0, 185.0, 180.0, 156.0, 154.0, 154.0, 156.0, 181.0, 185.0, 174.0]",0.14724399149417877,0.0,0.0,-0.000179290771484375,-27.916061401367188
1743592072.0687091,0.0,-0.0,"[174.0, 185.0, 180.0, 156.0, 154.0, 154.0, 156.0, 181.0, 185.0, 174.0]",0.00547351548448205,0.0,0.0,-0.000179290771484375,-27.91595458984375
1743592072.0989976,0.0,-0.0,"[174.0, 185.0, 180.0, 156.0, 154.0, 154.0, 156.0, 181.0, 185.0, 174.0]",0.028875602409243584,0.0,0.0,-0.000179290771484375,-27.916534423828125
1743592072.102128,0.0,-0.0,"[174.0, 185.0, 180.0, 156.0, 154.0, 154.0, 156.0, 181.0, 185.0, 174.0]",0.17943133413791656,0.0,0.0,-0.000179290771484375,-27.912948608398438
1743592072.1345923,0.0,-0.0,"[174.0, 185.0, 180.0, 156.0, 154.0, 154.0, 156.0, 181.0, 185.0, 174.0]",0.14199844002723694,0.0,-3.0517578125e-05,-0.000179290771484375,-27.910110473632812
1743592072.168238,0.0,-0.0,"[174.0, 185.0, 180.0, 156.0, 154.0, 154.0, 156.0, 181.0, 185.0, 174.0]",0.027397073805332184,0.0,-3.0517578125e-05,-0.000179290771484375,-27.91065216064453
1743592072.171301,0.0,-0.0,"[174.0, 185.0, 180.0, 156.0, 154.0, 154.0, 156.0, 181.0, 185.0, 174.0]",0.1843552142381668,0.0,-3.0517578125e-05,-0.000179290771484375,-27.906967163085938
1743592072.2025023,0.0,-0.0,"[174.0, 185.0, 180.0, 156.0, 154.0, 154.0, 156.0, 181.0, 185.0, 174.0]",0.14393474161624908,0.0,-3.0517578125e-05,-0.000179290771484375,-27.904090881347656
1743592072.2056828,0.0,-0.0,"[174.0, 185.0, 180.0, 156.0, 154.0, 154.0, 156.0, 181.0, 185.0, 174.0]",0.013359985314309597,0.0,-3.0517578125e-05,-0.000179290771484375,-27.90435791015625
1743592072.2392952,0.0,-0.0,"[174.0, 185.0, 180.0, 156.0, 154.0, 154.0, 156.0, 181.0, 185.0, 174.0]",0.131731316447258,0.0,-3.0517578125e-05,-0.000179290771484375,-27.901718139648438
1743592072.2738278,0.0,-0.0,"[174.0, 185.0, 180.0, 156.0, 154.0, 154.0, 156.0, 181.0, 185.0, 174.0]",0.11773700267076492,0.0,-3.0517578125e-05,-0.000179290771484375,-27.904075622558594
1743592072.2771122,0.0,-0.0,"[174.0, 185.0, 180.0, 156.0, 154.0, 154.0, 156.0, 181.0, 185.0, 174.0]",0.19435150921344757,0.0,-3.0517578125e-05,-0.000179290771484375,-27.900192260742188
1743592072.3082175,0.0,-0.0,"[174.0, 185.0, 180.0, 156.0, 154.0, 154.0, 156.0, 181.0, 185.0, 174.0]",0.12966327369213104,0.0,-3.0517578125e-05,-0.000179290771484375,-27.897598266601562
1743592072.31107,0.0,-0.0,"[174.0, 185.0, 180.0, 156.0, 154.0, 154.0, 156.0, 181.0, 185.0, 174.0]",0.1228010430932045,0.0,-6.103515625e-05,-0.000179290771484375,-27.900054931640625
1743592072.3965743,0.0,-0.0,"[174.0, 185.0, 180.0, 156.0, 154.0, 154.0, 156.0, 181.0, 185.0, 174.0]",0.20046159625053406,0.0,-6.103515625e-05,-0.000179290771484375,-27.896041870117188
1743592072.400078,0.0,-0.0,"[174.0, 185.0, 180.0, 156.0, 154.0, 154.0, 156.0, 181.0, 185.0, 174.0]",0.10632103681564331,0.0,-6.103515625e-05,-0.000179290771484375,-27.8939208984375
1743592072.4031644,0.0,-0.0,"[174.0, 185.0, 180.0, 156.0, 154.0, 154.0, 156.0, 181.0, 185.0, 174.0]",0.19288887083530426,0.0,-6.103515625e-05,-0.000179290771484375,-27.89777374267578
1743592072.4070823,0.0,-0.0,"[174.0, 185.0, 180.0, 156.0, 154.0, 154.0, 156.0, 181.0, 185.0, 174.0]",0.13201972842216492,0.0,-6.103515625e-05,-0.000179290771484375,-27.900413513183594
1743592072.4105892,0.0,-0.0,"[174.0, 185.0, 180.0, 156.0, 154.0, 154.0, 156.0, 181.0, 185.0, 174.0]",0.10589899867773056,0.0,-3.0517578125e-05,-0.000179290771484375,-27.898300170898438
1743592072.444759,0.0,-0.0,"[174.0, 185.0, 180.0, 156.0, 154.0, 154.0, 156.0, 181.0, 185.0, 174.0]",0.1903151124715805,0.0,-3.0517578125e-05,-0.000179290771484375,-27.90210723876953
1743592072.4497073,0.0,-0.0,"[174.0, 185.0, 180.0, 156.0, 154.0, 154.0, 156.0, 181.0, 185.0, 174.0]",0.13858768343925476,0.0,-3.0517578125e-05,-0.000179290771484375,-27.904876708984375
1743592072.4796429,0.0,-0.0,"[174.0, 185.0, 180.0, 156.0, 154.0, 154.0, 156.0, 181.0, 185.0, 174.0]",0.05363059416413307,0.0,-3.0517578125e-05,-0.000179290771484375,-27.90380859375
1743592072.482807,0.0,-0.0,"[174.0, 185.0, 180.0, 156.0, 154.0, 154.0, 156.0, 181.0, 185.0, 174.0]",0.18464604020118713,0.0,-3.0517578125e-05,-0.000179290771484375,-27.907501220703125
1743592072.512052,0.0,-0.0,"[174.0, 185.0, 180.0, 156.0, 154.0, 154.0, 156.0, 181.0, 185.0, 174.0]",0.1436898410320282,0.0,-3.0517578125e-05,-0.000179290771484375,-27.910369873046875
1743592072.5476725,0.0,-0.0,"[174.0, 185.0, 180.0, 156.0, 154.0, 154.0, 156.0, 181.0, 185.0, 174.0]",0.015141986310482025,0.0,0.0,-0.000179290771484375,-27.910064697265625
1743592072.5512037,0.0,-0.0,"[174.0, 185.0, 180.0, 156.0, 154.0, 154.0, 156.0, 181.0, 185.0, 174.0]",0.15516433119773865,0.0,-3.0517578125e-05,-0.000179290771484375,-27.913169860839844
1743592072.583563,0.0,-0.0,"[174.0, 185.0, 180.0, 156.0, 154.0, 154.0, 156.0, 181.0, 185.0, 174.0]",0.04399123787879944,0.0,-3.0517578125e-05,-0.000179290771484375,-27.914047241210938
1743592072.586819,0.0,-0.0,"[174.0, 185.0, 180.0, 156.0, 154.0, 154.0, 156.0, 181.0, 185.0, 174.0]",0.20951826870441437,0.0,-3.0517578125e-05,-0.000179290771484375,-27.90985870361328
1743592072.6177263,0.0,-0.0,"[174.0, 185.0, 180.0, 156.0, 154.0, 154.0, 156.0, 181.0, 185.0, 174.0]",0.0593106746673584,0.0,-3.0517578125e-05,-0.000179290771484375,-27.908676147460938
1743592072.6210296,0.0,-0.0,"[174.0, 185.0, 180.0, 156.0, 154.0, 154.0, 156.0, 181.0, 185.0, 174.0]",0.17699338495731354,0.0,-3.0517578125e-05,-0.000179290771484375,-27.912216186523438
1743592072.654573,0.0,-0.0,"[174.0, 185.0, 180.0, 156.0, 154.0, 154.0, 156.0, 181.0, 185.0, 174.0]",0.13908328115940094,0.0,-3.0517578125e-05,-0.000179290771484375,-27.914993286132812
1743592072.6852748,0.0,-0.0,"[174.0, 185.0, 180.0, 156.0, 154.0, 154.0, 156.0, 181.0, 185.0, 174.0]",0.049643032252788544,0.0,0.0,-0.000179290771484375,-27.91400146484375
1743592072.6883008,0.0,-0.0,"[174.0, 185.0, 180.0, 156.0, 154.0, 154.0, 156.0, 181.0, 185.0, 174.0]",0.19558149576187134,0.0,0.0,-0.000179290771484375,-27.91791534423828
1743592072.7189777,0.0,-0.0,"[174.0, 185.0, 181.0, 156.0, 154.0, 154.0, 156.0, 181.0, 185.0, 174.0]",0.1257869452238083,0.0,0.0,-0.000179290771484375,-27.920425415039062
1743592072.721603,0.0,-0.0,"[174.0, 185.0, 181.0, 156.0, 154.0, 154.0, 156.0, 181.0, 185.0, 174.0]",0.14523577690124512,0.0,0.0,-0.000179290771484375,-27.917526245117188
1743592072.755174,0.0,-0.0,"[174.0, 185.0, 181.0, 156.0, 154.0, 154.0, 156.0, 181.0, 185.0, 174.0]",0.0013888112735003233,0.0,0.0,-0.000179290771484375,-27.917556762695312
1743592072.788041,0.0,-0.0,"[174.0, 185.0, 181.0, 156.0, 154.0, 154.0, 156.0, 181.0, 185.0, 174.0]",0.004666541703045368,0.0,0.0,-0.000179290771484375,-27.917457580566406
1743592072.7907462,0.0,-0.0,"[174.0, 185.0, 181.0, 156.0, 154.0, 154.0, 156.0, 181.0, 185.0, 174.0]",0.02259548380970955,0.0,0.0,-0.000179290771484375,-27.91790771484375
1743592072.8215892,0.0,-0.0,"[174.0, 185.0, 180.0, 156.0, 154.0, 154.0, 156.0, 181.0, 185.0, 174.0]",0.1923217624425888,0.0,0.0,-0.000179290771484375,-27.9140625
1743592072.8245988,0.0,-0.0,"[174.0, 185.0, 180.0, 156.0, 154.0, 154.0, 156.0, 181.0, 185.0, 174.0]",0.13406527042388916,0.0,0.0,-0.000179290771484375,-27.91138458251953
1743592072.8556116,0.0,-0.0,"[174.0, 185.0, 180.0, 156.0, 154.0, 154.0, 156.0, 181.0, 185.0, 174.0]",0.09012311697006226,0.0,0.0,-0.000179290771484375,-27.913185119628906
1743592072.8847911,0.0,-0.0,"[174.0, 185.0, 180.0, 156.0, 154.0, 154.0, 156.0, 181.0, 185.0, 174.0]",0.21017353236675262,0.0,0.0,-0.000179290771484375,-27.908981323242188
1743592072.8874695,0.0,-0.0,"[174.0, 185.0, 180.0, 156.0, 154.0, 154.0, 156.0, 181.0, 185.0, 174.0]",0.056039195507764816,0.0,-3.0517578125e-05,-0.000179290771484375,-27.907859802246094
1743592072.9178407,0.0,-0.0,"[174.0, 185.0, 180.0, 156.0, 154.0, 154.0, 156.0, 181.0, 185.0, 174.0]",0.180997833609581,0.0,-3.0517578125e-05,-0.000179290771484375,-27.911483764648438
1743592072.9215844,0.0,-0.0,"[174.0, 185.0, 180.0, 156.0, 154.0, 154.0, 156.0, 181.0, 185.0, 174.0]",0.14347624778747559,0.0,0.0,-0.000179290771484375,-27.914352416992188
1743592072.961197,0.0,-0.0,"[174.0, 185.0, 180.0, 156.0, 154.0, 154.0, 156.0, 181.0, 185.0, 174.0]",0.016534436494112015,0.0,0.0,-0.000179290771484375,-27.914016723632812
1743592073.0002542,0.0,-0.0,"[174.0, 185.0, 180.0, 156.0, 154.0, 154.0, 156.0, 181.0, 185.0, 174.0]",0.1701955944299698,0.0,0.0,-0.000179290771484375,-27.91741943359375
1743592073.0038054,0.0,-0.0,"[174.0, 185.0, 180.0, 156.0, 154.0, 154.0, 156.0, 181.0, 185.0, 174.0]",0.12394185364246368,0.0,0.0,-0.000179290771484375,-27.919906616210938
1743592073.0428975,0.0,-0.0,"[174.0, 185.0, 180.0, 156.0, 154.0, 154.0, 156.0, 181.0, 185.0, 174.0]",0.1619773507118225,0.0,0.0,-0.000179290771484375,-27.916664123535156
1743592073.046524,0.0,-0.0,"[174.0, 185.0, 180.0, 156.0, 154.0, 154.0, 156.0, 181.0, 185.0, 174.0]",0.08525466173887253,0.0,0.0,-0.000179290771484375,-27.914962768554688
1743592073.0827694,0.0,-0.0,"[174.0, 185.0, 180.0, 156.0, 154.0, 154.0, 156.0, 181.0, 185.0, 174.0]",0.2046239674091339,0.0,0.0,-0.000179290771484375,-27.919052124023438
1743592073.0860784,0.0,-0.0,"[174.0, 185.0, 180.0, 156.0, 154.0, 154.0, 156.0, 181.0, 185.0, 174.0]",0.08448854088783264,0.0,0.0,-0.000179290771484375,-27.920745849609375
1743592073.0896957,0.0,-0.0,"[174.0, 185.0, 180.0, 156.0, 154.0, 154.0, 156.0, 181.0, 185.0, 174.0]",0.2013329416513443,0.0,0.0,-0.000179290771484375,-27.916717529296875
1743592073.1367707,0.0,-0.0,"[174.0, 185.0, 180.0, 156.0, 154.0, 154.0, 156.0, 181.0, 185.0, 174.0]",0.10193154215812683,0.0,0.0,-0.000179290771484375,-27.9146728515625
1743592073.1400342,0.0,-0.0,"[174.0, 185.0, 180.0, 156.0, 154.0, 154.0, 156.0, 181.0, 185.0, 174.0]",0.19718611240386963,0.0,0.0,-0.000179290771484375,-27.918624877929688
1743592073.1753638,0.0,-0.0,"[174.0, 185.0, 180.0, 156.0, 154.0, 154.0, 156.0, 181.0, 185.0, 174.0]",0.11873674392700195,0.0,0.0,-0.000179290771484375,-27.920997619628906
1743592073.1786387,0.0,-0.0,"[174.0, 185.0, 180.0, 156.0, 154.0, 154.0, 156.0, 181.0, 185.0, 174.0]",0.17540068924427032,0.0,0.0,-0.000179290771484375,-27.91748809814453
1743592073.2091367,0.0,-0.0,"[174.0, 185.0, 180.0, 156.0, 154.0, 154.0, 156.0, 181.0, 185.0, 174.0]",0.13632160425186157,0.0,0.0,-0.000179290771484375,-27.914764404296875
1743592073.2119198,0.0,-0.0,"[174.0, 185.0, 180.0, 156.0, 154.0, 154.0, 156.0, 181.0, 185.0, 174.0]",0.07158220559358597,0.0,0.0,-0.000179290771484375,-27.91619873046875
1743592073.2398927,0.0,-0.0,"[174.0, 185.0, 180.0, 156.0, 154.0, 154.0, 156.0, 181.0, 185.0, 174.0]",0.17554514110088348,0.0,0.0,-0.000179290771484375,-27.912681579589844
1743592073.2433872,0.0,-0.0,"[174.0, 185.0, 180.0, 156.0, 154.0, 154.0, 156.0, 181.0, 185.0, 174.0]",0.13640186190605164,0.0,-3.0517578125e-05,-0.000179290771484375,-27.909957885742188
1743592073.268287,0.0,-0.0,"[174.0, 185.0, 180.0, 156.0, 154.0, 154.0, 156.0, 181.0, 185.0, 174.0]",0.07109430432319641,0.0,-3.0517578125e-05,-0.000179290771484375,-27.911376953125
1743592073.2932673,0.0,-0.0,"[174.0, 185.0, 180.0, 156.0, 154.0, 154.0, 156.0, 181.0, 185.0, 174.0]",0.17525263130664825,0.0,-3.0517578125e-05,-0.000179290771484375,-27.907867431640625
1743592073.2966487,0.0,-0.0,"[174.0, 185.0, 180.0, 156.0, 154.0, 154.0, 156.0, 181.0, 185.0, 174.0]",0.13584503531455994,0.0,-3.0517578125e-05,-0.000179290771484375,-27.9051513671875
1743592073.3238204,0.0,-0.0,"[174.0, 185.0, 180.0, 156.0, 154.0, 154.0, 156.0, 181.0, 185.0, 174.0]",0.07560016959905624,0.0,-6.103515625e-05,-0.000179290771484375,-27.90666961669922
1743592073.357278,0.0,-0.0,"[174.0, 185.0, 180.0, 156.0, 154.0, 154.0, 156.0, 181.0, 185.0, 174.0]",0.18078163266181946,0.0,-6.103515625e-05,-0.000179290771484375,-27.903053283691406
1743592073.390171,0.0,-0.0,"[174.0, 185.0, 180.0, 156.0, 154.0, 154.0, 156.0, 181.0, 185.0, 174.0]",0.14319546520709991,0.0,-6.103515625e-05,-0.000179290771484375,-27.900184631347656
1743592073.3930016,0.0,-0.0,"[174.0, 185.0, 180.0, 156.0, 154.0, 154.0, 156.0, 181.0, 185.0, 174.0]",0.0185608621686697,0.0,-6.103515625e-05,-0.000179290771484375,-27.900558471679688
1743592073.4182553,0.0,-0.0,"[174.0, 185.0, 180.0, 156.0, 154.0, 154.0, 156.0, 181.0, 185.0, 174.0]",0.18452024459838867,0.0,-6.103515625e-05,-0.000179290771484375,-27.896865844726562
1743592073.421472,0.0,-0.0,"[174.0, 185.0, 180.0, 156.0, 154.0, 154.0, 156.0, 181.0, 185.0, 174.0]",0.14356279373168945,0.0,-6.103515625e-05,-0.000179290771484375,-27.893997192382812
1743592073.446028,0.0,-0.0,"[174.0, 185.0, 180.0, 156.0, 154.0, 154.0, 156.0, 181.0, 185.0, 174.0]",0.015947066247463226,0.0,-6.103515625e-05,-0.000179290771484375,-27.894317626953125
1743592073.4694953,0.0,-0.0,"[174.0, 185.0, 180.0, 156.0, 154.0, 154.0, 156.0, 181.0, 185.0, 174.0]",0.16439858078956604,0.0,-6.103515625e-05,-0.000179290771484375,-27.891029357910156
1743592073.4724982,0.0,-0.0,"[174.0, 185.0, 180.0, 156.0, 154.0, 154.0, 156.0, 181.0, 185.0, 174.0]",0.09856056421995163,0.0,-6.103515625e-05,-0.000179290771484375,-27.889053344726562
1743592073.495148,0.0,-0.0,"[174.0, 185.0, 180.0, 156.0, 154.0, 154.0, 156.0, 181.0, 185.0, 174.0]",0.20604164898395538,0.0,-6.103515625e-05,-0.000179290771484375,-27.89318084716797
1743592073.5188048,0.0,-0.0,"[174.0, 185.0, 180.0, 156.0, 154.0, 154.0, 156.0, 181.0, 185.0, 174.0]",0.07701602578163147,0.0,-6.103515625e-05,-0.000179290771484375,-27.89472198486328
1743592073.5482762,0.0,-0.0,"[174.0, 185.0, 180.0, 156.0, 154.0, 154.0, 156.0, 181.0, 185.0, 174.0]",0.18518975377082825,0.0,-6.103515625e-05,-0.000179290771484375,-27.891014099121094
1743592073.5732086,0.0,-0.0,"[174.0, 185.0, 180.0, 156.0, 154.0, 154.0, 156.0, 181.0, 185.0, 174.0]",0.14352278411388397,0.0,-6.103515625e-05,-0.000179290771484375,-27.888145446777344
1743592073.5761135,0.0,-0.0,"[174.0, 185.0, 180.0, 156.0, 154.0, 154.0, 156.0, 181.0, 185.0, 174.0]",0.016283642500638962,0.0,-6.103515625e-05,-0.000179290771484375,-27.888473510742188
1743592073.6001697,0.0,-0.0,"[174.0, 185.0, 180.0, 156.0, 154.0, 154.0, 156.0, 181.0, 185.0, 174.0]",0.16755636036396027,0.0,-6.103515625e-05,-0.000179290771484375,-27.885116577148438
1743592073.6252866,0.0,-0.0,"[174.0, 185.0, 180.0, 156.0, 154.0, 154.0, 156.0, 181.0, 185.0, 174.0]",0.11374226957559586,0.0,-6.103515625e-05,-0.000179290771484375,-27.882843017578125
1743592073.6530397,0.0,-0.0,"[174.0, 185.0, 180.0, 156.0, 154.0, 154.0, 156.0, 181.0, 185.0, 174.0]",0.1890924870967865,0.0,-6.103515625e-05,-0.000179290771484375,-27.886627197265625
1743592073.6764688,0.0,-0.0,"[174.0, 185.0, 180.0, 156.0, 154.0, 154.0, 156.0, 181.0, 185.0, 174.0]",0.14039671421051025,0.0,-6.103515625e-05,-0.000179290771484375,-27.889434814453125
1743592073.6792538,0.0,-0.0,"[174.0, 185.0, 180.0, 156.0, 154.0, 154.0, 156.0, 181.0, 185.0, 174.0]",0.039520323276519775,0.0,-6.103515625e-05,-0.000179290771484375,-27.888641357421875
1743592073.7017558,0.0,-0.0,"[174.0, 185.0, 180.0, 156.0, 154.0, 154.0, 156.0, 181.0, 185.0, 174.0]",0.20991423726081848,0.0,-6.103515625e-05,-0.000179290771484375,-27.892845153808594
1743592073.7264957,0.0,-0.0,"[174.0, 185.0, 180.0, 156.0, 154.0, 154.0, 156.0, 181.0, 185.0, 174.0]",0.0573381669819355,0.0,-6.103515625e-05,-0.000179290771484375,-27.89398956298828
1743592073.7541003,0.0,-0.0,"[174.0, 185.0, 180.0, 156.0, 154.0, 154.0, 156.0, 181.0, 185.0, 174.0]",0.1790367215871811,0.0,-6.103515625e-05,-0.000179290771484375,-27.890411376953125
1743592073.7570884,0.0,-0.0,"[174.0, 185.0, 180.0, 156.0, 154.0, 154.0, 156.0, 181.0, 185.0, 174.0]",0.14182059466838837,0.0,-6.103515625e-05,-0.000179290771484375,-27.8875732421875
1743592073.7816331,0.0,-0.0,"[174.0, 185.0, 180.0, 156.0, 154.0, 154.0, 156.0, 181.0, 185.0, 174.0]",0.02862219698727131,0.0,-6.103515625e-05,-0.000179290771484375,-27.888145446777344
1743592073.8078997,0.0,-0.0,"[174.0, 185.0, 180.0, 156.0, 154.0, 154.0, 156.0, 181.0, 185.0, 174.0]",0.18562722206115723,0.0,-6.103515625e-05,-0.000179290771484375,-27.884429931640625
1743592073.8346364,0.0,-0.0,"[174.0, 185.0, 180.0, 156.0, 154.0, 154.0, 156.0, 181.0, 185.0, 174.0]",0.14339330792427063,0.0,-6.103515625e-05,-0.000179290771484375,-27.881561279296875
1743592073.837765,0.0,-0.0,"[174.0, 185.0, 180.0, 156.0, 154.0, 154.0, 156.0, 181.0, 185.0, 174.0]",0.017224101349711418,0.0,-6.103515625e-05,-0.000179290771484375,-27.881912231445312
1743592073.8624034,0.0,-0.0,"[174.0, 185.0, 180.0, 156.0, 154.0, 154.0, 156.0, 181.0, 185.0, 174.0]",0.175937220454216,0.0,-6.103515625e-05,-0.000179290771484375,-27.878387451171875
1743592073.8851616,0.0,-0.0,"[174.0, 185.0, 180.0, 156.0, 154.0, 154.0, 156.0, 181.0, 185.0, 174.0]",0.13846363127231598,0.0,-6.103515625e-05,-0.000179290771484375,-27.875625610351562
1743592073.908008,0.0,-0.0,"[174.0, 185.0, 180.0, 156.0, 154.0, 154.0, 156.0, 181.0, 185.0, 174.0]",0.0528673380613327,0.0,-9.1552734375e-05,-0.000179290771484375,-27.876678466796875
1743592073.9345543,0.0,-0.0,"[174.0, 185.0, 179.0, 156.0, 154.0, 154.0, 156.0, 181.0, 185.0, 174.0]",0.1864640861749649,0.0,-9.1552734375e-05,-0.000179290771484375,-27.872947692871094
1743592073.9375384,0.0,-0.0,"[174.0, 185.0, 179.0, 156.0, 154.0, 154.0, 156.0, 181.0, 185.0, 174.0]",0.14295849204063416,0.0,-9.1552734375e-05,-0.000179290771484375,-27.870086669921875
1743592073.9634557,0.0,-0.0,"[174.0, 185.0, 179.0, 156.0, 154.0, 154.0, 158.0, 181.0, 185.0, 174.0]",0.020379718393087387,0.0,-9.1552734375e-05,-0.000179290771484375,-27.870498657226562
1743592073.9893916,0.0,-0.0,"[174.0, 185.0, 179.0, 156.0, 154.0, 154.0, 158.0, 181.0, 185.0, 174.0]",0.18940633535385132,0.0,-9.1552734375e-05,-0.000179290771484375,-27.866714477539062
1743592074.0126998,0.0,-0.0,"[174.0, 185.0, 179.0, 156.0, 154.0, 154.0, 158.0, 183.0, 185.0, 174.0]",0.13958138227462769,0.0,-9.1552734375e-05,-0.000179290771484375,-27.863922119140625
1743592074.0152442,0.0,-0.0,"[174.0, 185.0, 179.0, 156.0, 154.0, 154.0, 158.0, 183.0, 185.0, 174.0]",0.04602772369980812,0.0,-0.0001220703125,-0.000179290771484375,-27.864837646484375
1743592074.0417967,0.0,-0.0,"[174.0, 185.0, 179.0, 156.0, 154.0, 154.0, 158.0, 183.0, 185.0, 174.0]",0.20494823157787323,0.0,-9.1552734375e-05,-0.000179290771484375,-27.860740661621094
1743592074.0652285,0.0,-0.0,"[174.0, 185.0, 179.0, 156.0, 154.0, 154.0, 158.0, 183.0, 185.0, 174.0]",0.08277150243520737,0.0,-0.0001220703125,-0.000179290771484375,-27.859085083007812
1743592074.0907822,0.0,-0.0,"[174.0, 185.0, 179.0, 156.0, 154.0, 154.0, 158.0, 183.0, 185.0, 174.0]",0.19768185913562775,0.0,-0.0001220703125,-0.000179290771484375,-27.863037109375
1743592074.1174722,0.0,-0.0,"[174.0, 185.0, 179.0, 156.0, 154.0, 154.0, 158.0, 183.0, 185.0, 174.0]",0.11836759001016617,0.0,-0.0001220703125,-0.000179290771484375,-27.865402221679688
1743592074.1215138,0.0,-0.0,"[174.0, 185.0, 179.0, 156.0, 154.0, 154.0, 158.0, 183.0, 185.0, 174.0]",0.17859548330307007,0.0,-9.1552734375e-05,-0.000179290771484375,-27.861831665039062
1743592074.1488519,0.0,-0.0,"[174.0, 185.0, 179.0, 156.0, 154.0, 154.0, 158.0, 183.0, 185.0, 174.0]",0.14116723835468292,0.0,-0.0001220703125,-0.000179290771484375,-27.8590087890625
1743592074.1754146,0.0,-0.0,"[174.0, 185.0, 179.0, 156.0, 154.0, 154.0, 158.0, 183.0, 185.0, 174.0]",0.03359904885292053,0.0,-0.0001220703125,-0.000179290771484375,-27.85968017578125
1743592074.1778996,0.0,-0.0,"[174.0, 185.0, 179.0, 156.0, 154.0, 154.0, 158.0, 183.0, 185.0, 174.0]",0.19848313927650452,0.0,-0.0001220703125,-0.000179290771484375,-27.855712890625
1743592074.2020733,0.0,-0.0,"[174.0, 185.0, 179.0, 155.0, 154.0, 154.0, 158.0, 183.0, 185.0, 174.0]",0.11381753534078598,0.0,-0.0001220703125,-0.000179290771484375,-27.853439331054688
1743592074.2261178,0.0,-0.0,"[174.0, 185.0, 179.0, 155.0, 154.0, 154.0, 158.0, 183.0, 185.0, 174.0]",0.1910686194896698,0.0,-0.0001220703125,-0.000179290771484375,-27.857254028320312
1743592074.251619,0.0,-0.0,"[174.0, 185.0, 179.0, 156.0, 154.0, 154.0, 158.0, 183.0, 185.0, 174.0]",0.1373365968465805,0.0,-0.0001220703125,-0.000179290771484375,-27.860000610351562
1743592074.2543814,0.0,-0.0,"[174.0, 185.0, 179.0, 156.0, 154.0, 154.0, 158.0, 183.0, 185.0, 174.0]",0.06351570039987564,0.0,-0.0001220703125,-0.000179290771484375,-27.858734130859375
1743592074.277653,0.0,-0.0,"[174.0, 185.0, 179.0, 156.0, 154.0, 154.0, 158.0, 183.0, 185.0, 174.0]",0.1745886206626892,0.0,-0.0001220703125,-0.000179290771484375,-27.862228393554688
1743592074.301843,0.0,-0.0,"[174.0, 185.0, 179.0, 156.0, 154.0, 154.0, 158.0, 183.0, 185.0, 174.0]",0.13447926938533783,0.0,-9.1552734375e-05,-0.000179290771484375,-27.864913940429688
1743592074.326619,0.0,-0.0,"[174.0, 185.0, 179.0, 156.0, 154.0, 154.0, 158.0, 183.0, 185.0, 174.0]",0.08655289560556412,0.0,-9.1552734375e-05,-0.000179290771484375,-27.863182067871094
1743592074.35424,0.0,-0.0,"[174.0, 185.0, 179.0, 156.0, 154.0, 154.0, 158.0, 181.0, 185.0, 174.0]",0.20701099932193756,0.0,-9.1552734375e-05,-0.000179290771484375,-27.867324829101562
1743592074.357346,0.0,-0.0,"[174.0, 185.0, 179.0, 156.0, 154.0, 154.0, 158.0, 181.0, 185.0, 174.0]",0.07194262742996216,0.0,-9.1552734375e-05,-0.000179290771484375,-27.868759155273438
1743592074.3820026,0.0,-0.0,"[174.0, 185.0, 179.0, 156.0, 154.0, 154.0, 158.0, 181.0, 185.0, 174.0]",0.17667238414287567,0.0,-9.1552734375e-05,-0.000179290771484375,-27.86522674560547
1743592074.4048448,0.0,-0.0,"[174.0, 185.0, 179.0, 156.0, 154.0, 154.0, 158.0, 183.0, 185.0, 174.0]",0.13852712512016296,0.0,-9.1552734375e-05,-0.000179290771484375,-27.862457275390625
1743592074.4321651,0.0,-0.0,"[174.0, 185.0, 179.0, 156.0, 154.0, 154.0, 158.0, 181.0, 185.0, 174.0]",0.053986866027116776,0.0,-9.1552734375e-05,-0.000179290771484375,-27.863540649414062
1743592074.4583364,0.0,-0.0,"[174.0, 185.0, 179.0, 156.0, 154.0, 154.0, 158.0, 183.0, 185.0, 174.0]",0.18372993171215057,0.0,-9.1552734375e-05,-0.000179290771484375,-27.85986328125
1743592074.4609478,0.0,-0.0,"[174.0, 185.0, 179.0, 156.0, 154.0, 154.0, 158.0, 183.0, 185.0, 174.0]",0.1438635289669037,0.0,-9.1552734375e-05,-0.000179290771484375,-27.856979370117188
1743592074.4837806,0.0,-0.0,"[174.0, 185.0, 179.0, 156.0, 154.0, 154.0, 158.0, 183.0, 185.0, 174.0]",0.013891230337321758,0.0,-0.0001220703125,-0.000179290771484375,-27.857261657714844
1743592074.50715,0.0,-0.0,"[174.0, 185.0, 179.0, 156.0, 154.0, 154.0, 158.0, 183.0, 185.0, 174.0]",0.1390867978334427,0.0,-9.1552734375e-05,-0.000179290771484375,-27.854476928710938
1743592074.533064,0.0,-0.0,"[174.0, 185.0, 179.0, 156.0, 154.0, 154.0, 158.0, 183.0, 185.0, 174.0]",0.03272894769906998,0.0,-9.1552734375e-05,-0.000179290771484375,-27.855133056640625
1743592074.536331,0.0,-0.0,"[174.0, 185.0, 179.0, 156.0, 154.0, 154.0, 158.0, 183.0, 185.0, 174.0]",0.20184193551540375,0.0,-9.1552734375e-05,-0.000179290771484375,-27.851097106933594
1743592074.5638556,0.0,-0.0,"[174.0, 185.0, 179.0, 155.0, 154.0, 154.0, 158.0, 183.0, 185.0, 174.0]",0.09910617023706436,0.0,-0.0001220703125,-0.000179290771484375,-27.84912109375
1743592074.59018,0.0,-0.0,"[174.0, 185.0, 179.0, 156.0, 154.0, 154.0, 158.0, 183.0, 185.0, 174.0]",0.20276620984077454,0.0,-0.0001220703125,-0.000179290771484375,-27.853172302246094
1743592074.6143608,0.0,-0.0,"[174.0, 185.0, 179.0, 156.0, 154.0, 154.0, 158.0, 183.0, 185.0, 174.0]",0.09405360370874405,0.0,-9.1552734375e-05,-0.000179290771484375,-27.855056762695312
1743592074.6172771,0.0,-0.0,"[174.0, 185.0, 179.0, 156.0, 154.0, 154.0, 158.0, 183.0, 185.0, 174.0]",0.20938661694526672,0.0,-9.1552734375e-05,-0.000179290771484375,-27.850860595703125
1743592074.6459925,0.0,-0.0,"[174.0, 185.0, 179.0, 155.0, 154.0, 154.0, 158.0, 183.0, 185.0, 174.0]",0.05996233969926834,0.0,-0.0001220703125,-0.000179290771484375,-27.84966278076172
1743592074.6700597,0.0,-0.0,"[174.0, 185.0, 179.0, 156.0, 154.0, 154.0, 158.0, 183.0, 185.0, 174.0]",0.17652712762355804,0.0,-0.0001220703125,-0.000179290771484375,-27.853195190429688
1743592074.6732712,0.0,-0.0,"[174.0, 185.0, 179.0, 156.0, 154.0, 154.0, 158.0, 183.0, 185.0, 174.0]",0.1382857710123062,0.0,-9.1552734375e-05,-0.000179290771484375,-27.85595703125
1743592074.696407,0.0,-0.0,"[174.0, 185.0, 179.0, 156.0, 154.0, 154.0, 158.0, 183.0, 185.0, 174.0]",0.055868275463581085,0.0,-9.1552734375e-05,-0.000179290771484375,-27.854843139648438
1743592074.7326849,0.0,-0.0,"[174.0, 185.0, 227.0, 295.0, 259.0, 161.0, 182.0, 190.0, 185.0, 174.0]",0.0,0.0,0.0,0.10000038146972656,-27.93000030517578
1743592074.7361789,0.0,-0.0,"[174.0, 185.0, 227.0, 295.0, 259.0, 161.0, 182.0, 190.0, 185.0, 174.0]",0.8976174592971802,0.0,0.0,0.08204841613769531,-27.93000030517578
1743592074.7622838,0.0,-0.0,"[174.0, 185.0, 179.0, 155.0, 154.0, 154.0, 156.0, 180.0, 185.0, 174.0]",0.8460683822631836,0.0,0.0,0.06512641906738281,-27.929969787597656
1743592074.789205,0.0,-0.0,"[174.0, 185.0, 179.0, 155.0, 154.0, 154.0, 156.0, 181.0, 185.0, 174.0]",0.7840145230293274,0.0,0.0,0.04947090148925781,-27.930831909179688
1743592074.8135529,0.0,-0.0,"[174.0, 185.0, 179.0, 156.0, 154.0, 154.0, 156.0, 181.0, 185.0, 174.0]",0.725610613822937,0.0,0.0,0.03524208068847656,-27.92797088623047
1743592074.8170214,0.0,-0.0,"[174.0, 185.0, 179.0, 156.0, 154.0, 154.0, 156.0, 181.0, 185.0, 174.0]",0.6450768709182739,0.0,0.0,0.022546768188476562,-27.930267333984375
1743592074.8416963,0.0,-0.0,"[174.0, 185.0, 180.0, 156.0, 154.0, 154.0, 156.0, 181.0, 185.0, 174.0]",0.6389190554618835,0.0,0.0,0.011430740356445312,-27.923965454101562
1743592074.8653917,0.0,-0.0,"[174.0, 185.0, 181.0, 156.0, 154.0, 154.0, 156.0, 181.0, 185.0, 174.0]",0.5480532050132751,0.0,0.0,0.001895904541015625,-27.929367065429688
1743592074.8898306,0.0,-0.0,"[174.0, 185.0, 181.0, 156.0, 154.0, 154.0, 156.0, 181.0, 185.0, 174.0]",0.4332427680492401,0.0,0.0,-0.006092071533203125,-27.926010131835938
1743592074.8928368,0.0,-0.0,"[174.0, 185.0, 181.0, 156.0, 154.0, 154.0, 156.0, 181.0, 185.0, 174.0]",0.43756985664367676,0.0,0.0,-0.012601852416992188,-27.920166015625
1743592074.9161532,0.0,-0.0,"[174.0, 185.0, 181.0, 156.0, 154.0, 154.0, 158.0, 183.0, 185.0, 174.0]",0.40067002177238464,0.0,0.0,-0.01772308349609375,-27.92633056640625
1743592074.9439027,0.0,-0.0,"[174.0, 185.0, 181.0, 156.0, 154.0, 154.0, 158.0, 183.0, 185.0, 174.0]",0.31924206018447876,0.0,0.0,-0.021566390991210938,-27.921226501464844
1743592074.9722996,0.0,-0.0,"[174.0, 185.0, 181.0, 156.0, 154.0, 154.0, 158.0, 183.0, 185.0, 174.0]",0.28020191192626953,0.0,0.0,-0.02425384521484375,-27.9261474609375
1743592074.9975238,0.0,-0.0,"[174.0, 185.0, 181.0, 156.0, 154.0, 154.0, 158.0, 183.0, 185.0, 174.0]",0.2774204909801483,0.0,0.0,-0.025915145874023438,-27.920852661132812
1743592075.0002432,0.0,-0.0,"[174.0, 185.0, 181.0, 156.0, 154.0, 154.0, 158.0, 183.0, 185.0, 174.0]",0.18577173352241516,0.0,3.0517578125e-05,-0.02667999267578125,-27.924484252929688
1743592075.0242708,0.0,-0.0,"[174.0, 185.0, 181.0, 156.0, 154.0, 154.0, 158.0, 183.0, 185.0, 174.0]",0.24540430307388306,0.0,3.0517578125e-05,-0.026681900024414062,-27.929397583007812
1743592075.0501335,0.0,-0.0,"[174.0, 185.0, 181.0, 156.0, 154.0, 154.0, 158.0, 183.0, 185.0, 174.0]",0.18457002937793732,0.0,3.0517578125e-05,-0.0260467529296875,-27.925758361816406
1743592075.073354,0.0,-0.0,"[174.0, 185.0, 181.0, 156.0, 154.0, 154.0, 156.0, 183.0, 185.0, 174.0]",0.2465110570192337,0.0,3.0517578125e-05,-0.024898529052734375,-27.92095947265625
1743592075.076137,0.0,-0.0,"[174.0, 185.0, 181.0, 156.0, 154.0, 154.0, 156.0, 183.0, 185.0, 174.0]",0.13623227179050446,0.0,3.0517578125e-05,-0.023349761962890625,-27.923202514648438
1743592075.0992806,0.0,-0.0,"[174.0, 185.0, 181.0, 156.0, 154.0, 154.0, 156.0, 181.0, 185.0, 174.0]",0.21054692566394806,0.0,3.0517578125e-05,-0.021505355834960938,-27.919418334960938
1743592075.1242435,0.0,-0.0,"[174.0, 185.0, 181.0, 156.0, 154.0, 154.0, 156.0, 181.0, 185.0, 174.0]",0.2094944566488266,0.0,0.0,-0.019458770751953125,-27.915756225585938
1743592075.1511283,0.0,-0.0,"[174.0, 185.0, 181.0, 156.0, 154.0, 154.0, 156.0, 181.0, 185.0, 174.0]",0.1997455656528473,0.0,0.0,-0.017292022705078125,-27.912399291992188
1743592075.181738,0.0,-0.0,"[174.0, 185.0, 181.0, 156.0, 154.0, 154.0, 156.0, 181.0, 185.0, 174.0]",0.16056929528713226,0.0,0.0,-0.015077590942382812,-27.910079956054688
1743592075.1844609,0.0,-0.0,"[174.0, 185.0, 181.0, 156.0, 154.0, 154.0, 156.0, 181.0, 185.0, 174.0]",0.21011611819267273,0.0,0.0,-0.012876510620117188,-27.913658142089844
