timestamp,steering_input,acceleration_input,raycasts,speed,steering,position_x,position_y,position_z
1743581863.3871894,-0.14206800605589426,-0.0,"[174.0, 185.0, 227.0, 295.0, 259.0, 259.0, 295.0, 227.0, 185.0, 174.0]",0.0,0.0,0.0,0.10000038146972656,-27.93000030517578
1743581863.6261148,-0.14206800605589426,-0.0,"[174.0, 185.0, 178.0, 155.0, 154.0, 154.0, 156.0, 179.0, 185.0, 174.0]",0.1431841105222702,-0.07103399932384491,0.0,0.097137451171875,-27.93000030517578
1743581863.6713014,-0.14206800605589426,-0.0,"[174.0, 185.0, 178.0, 155.0, 154.0, 154.0, 156.0, 179.0, 185.0, 174.0]",0.2360968291759491,-0.07103399932384491,0.0,0.09241485595703125,-27.93000030517578
1743581863.6741989,-0.14206800605589426,-0.0,"[174.0, 185.0, 178.0, 155.0, 154.0, 154.0, 156.0, 179.0, 185.0, 174.0]",0.30777978897094727,-0.07103399932384491,0.0,0.08625984191894531,-27.93000030517578
1743581863.7053664,-0.14206800605589426,-0.0,"[174.0, 185.0, 179.0, 155.0, 154.0, 154.0, 156.0, 179.0, 185.0, 174.0]",0.36006513237953186,-0.07103399932384491,0.0,0.07905769348144531,-27.93000030517578
1743581863.7084365,-0.14206800605589426,-0.0,"[174.0, 185.0, 179.0, 155.0, 154.0, 154.0, 156.0, 179.0, 185.0, 174.0]",0.39494791626930237,-0.07103399932384491,0.0,0.07115936279296875,-27.93000030517578
1743581863.741201,-0.14206800605589426,-0.0,"[174.0, 185.0, 179.0, 155.0, 154.0, 154.0, 156.0, 180.0, 185.0, 174.0]",0.4145027697086334,-0.07103399932384491,0.0,0.06286811828613281,-27.93000030517578
1743581863.7774205,-0.14206800605589426,-0.0,"[174.0, 185.0, 179.0, 155.0, 154.0, 154.0, 156.0, 180.0, 185.0, 174.0]",0.4208291471004486,-0.07103399932384491,0.0,0.05445289611816406,-27.93000030517578
1743581863.78119,-0.14206800605589426,-0.0,"[174.0, 185.0, 179.0, 155.0, 154.0, 154.0, 156.0, 180.0, 185.0, 174.0]",0.41598930954933167,-0.07103399932384491,0.0,0.04613304138183594,-27.93000030517578
1743581863.811762,-0.14206800605589426,-0.0,"[174.0, 185.0, 179.0, 155.0, 154.0, 154.0, 156.0, 181.0, 185.0, 174.0]",0.40197110176086426,-0.07103399932384491,0.0,0.03809356689453125,-27.93000030517578
1743581863.815416,-0.14206800605589426,-0.0,"[174.0, 185.0, 179.0, 155.0, 154.0, 154.0, 156.0, 181.0, 185.0, 174.0]",0.3806491196155548,-0.07103399932384491,0.0,0.03047943115234375,-27.93000030517578
1743581863.848267,-0.14206800605589426,-0.0,"[174.0, 185.0, 180.0, 156.0, 154.0, 154.0, 156.0, 181.0, 185.0, 174.0]",0.35375669598579407,-0.07103399932384491,0.0,0.023405075073242188,-27.93000030517578
1743581863.8535078,-0.14206800605589426,-0.0,"[174.0, 185.0, 180.0, 156.0, 154.0, 154.0, 156.0, 181.0, 185.0, 174.0]",0.322875052690506,-0.07103399932384491,0.0,0.016946792602539062,-27.92999267578125
1743581863.8838134,-0.14206800605589426,-0.0,"[174.0, 185.0, 180.0, 156.0, 154.0, 154.0, 156.0, 181.0, 185.0, 174.0]",0.28943973779678345,-0.07103399932384491,0.0,0.011159896850585938,-27.930076599121094
1743581863.9172413,-0.14206800605589426,-0.0,"[174.0, 185.0, 180.0, 156.0, 154.0, 154.0, 156.0, 181.0, 185.0, 174.0]",0.26428094506263733,-0.07103399932384491,-6.103515625e-05,0.0060672760009765625,-27.92865753173828
1743581863.9200695,-0.14206800605589426,-0.0,"[174.0, 185.0, 180.0, 156.0, 154.0, 154.0, 156.0, 181.0, 185.0, 174.0]",0.270181804895401,-0.07103399932384491,9.1552734375e-05,0.0016765594482421875,-27.931808471679688
1743581863.9517684,-0.14206800605589426,-0.0,"[174.0, 185.0, 181.0, 156.0, 154.0, 154.0, 156.0, 181.0, 185.0, 174.0]",0.21602798998355865,-0.07103399932384491,0.00018310546875,-0.0020236968994140625,-27.934043884277344
1743581863.9547052,-0.14206800605589426,-0.0,"[174.0, 185.0, 181.0, 156.0, 154.0, 154.0, 156.0, 181.0, 185.0, 174.0]",0.2640659511089325,-0.07103399932384491,0.0,-0.0050601959228515625,-27.929718017578125
1743581863.986808,-0.14206800605589426,-0.0,"[174.0, 185.0, 181.0, 156.0, 154.0, 154.0, 156.0, 181.0, 185.0, 174.0]",0.14625580608844757,-0.07103399932384491,-9.1552734375e-05,-0.007472991943359375,-27.928062438964844
1743581863.9905164,-0.14206800605589426,-0.0,"[174.0, 185.0, 181.0, 156.0, 154.0, 154.0, 156.0, 181.0, 185.0, 174.0]",0.22894743084907532,-0.07103399932384491,0.0001220703125,-0.009307861328125,-27.932266235351562
1743581864.027345,-0.14206800605589426,-0.0,"[174.0, 185.0, 181.0, 156.0, 154.0, 154.0, 156.0, 181.0, 185.0, 174.0]",0.1401703804731369,-0.07103399932384491,0.000213623046875,-0.010616302490234375,-27.93474578857422
1743581864.064844,-0.14206800605589426,-0.0,"[174.0, 185.0, 181.0, 156.0, 154.0, 154.0, 156.0, 181.0, 185.0, 174.0]",0.20029646158218384,-0.07103399932384491,6.103515625e-05,-0.011455535888671875,-27.930824279785156
1743581864.0692134,-0.14206800605589426,-0.0,"[174.0, 185.0, 181.0, 156.0, 154.0, 154.0, 156.0, 181.0, 185.0, 174.0]",0.1993519812822342,-0.07103399932384491,-0.0001220703125,-0.011884689331054688,-27.926856994628906
1743581864.101896,-0.14206800605589426,-0.0,"[174.0, 185.0, 181.0, 156.0, 154.0, 154.0, 156.0, 181.0, 185.0, 174.0]",0.17827816307544708,-0.07103399932384491,-0.00030517578125,-0.011960983276367188,-27.92328643798828
1743581864.1052332,-0.14206800605589426,-0.0,"[174.0, 185.0, 181.0, 156.0, 154.0, 154.0, 156.0, 181.0, 185.0, 174.0]",0.17345745861530304,-0.07103399932384491,-0.000457763671875,-0.011743545532226562,-27.919822692871094
1743581864.139331,-0.14206800605589426,-0.0,"[174.0, 185.0, 181.0, 156.0, 154.0, 154.0, 156.0, 181.0, 185.0, 174.0]",0.14814764261245728,-0.07103399932384491,-0.0006103515625,-0.011285781860351562,-27.916893005371094
1743581864.1514773,-0.14206800605589426,-0.0,"[174.0, 185.0, 181.0, 156.0, 154.0, 154.0, 156.0, 181.0, 185.0, 174.0]",0.03541477024555206,-0.07103399932384491,-0.0006103515625,-0.010637283325195312,-27.91717529296875
1743581864.1844232,-0.14206800605589426,-0.0,"[174.0, 185.0, 181.0, 156.0, 154.0, 154.0, 156.0, 181.0, 185.0, 174.0]",0.1461612433195114,-0.07103399932384491,-0.000701904296875,-0.009845733642578125,-27.91436004638672
1743581864.1900904,-0.14206800605589426,-0.0,"[174.0, 185.0, 181.0, 156.0, 154.0, 154.0, 156.0, 181.0, 185.0, 174.0]",0.057518813759088516,-0.07103399932384491,-0.00067138671875,-0.0089569091796875,-27.91509246826172
1743581864.2249515,-0.14206800605589426,-0.0,"[174.0, 185.0, 180.0, 156.0, 154.0, 154.0, 156.0, 181.0, 185.0, 174.0]",0.21676518023014069,-0.07103399932384491,-0.0008544921875,-0.008007049560546875,-27.910858154296875
1743581864.233338,-0.14206800605589426,-0.0,"[174.0, 185.0, 180.0, 156.0, 154.0, 154.0, 156.0, 181.0, 185.0, 174.0]",0.0668371245265007,-0.07103399932384491,-0.00091552734375,-0.00702667236328125,-27.909942626953125
1743581864.2684526,-0.14206800605589426,-0.0,"[174.0, 185.0, 180.0, 156.0, 154.0, 154.0, 156.0, 181.0, 185.0, 174.0]",0.20879647135734558,-0.07103399932384491,-0.000732421875,-0.006046295166015625,-27.91400909423828
1743581864.2732475,-0.14206800605589426,-0.0,"[174.0, 185.0, 180.0, 156.0, 154.0, 154.0, 156.0, 181.0, 185.0, 174.0]",0.09616975486278534,-0.07103399932384491,-0.000640869140625,-0.0050907135009765625,-27.915679931640625
1743581864.3079422,-0.14206800605589426,-0.0,"[174.0, 185.0, 180.0, 156.0, 154.0, 154.0, 156.0, 181.0, 185.0, 174.0]",0.1981199085712433,-0.07103399932384491,-0.000823974609375,-0.004177093505859375,-27.911819458007812
1743581864.3147678,-0.14206800605589426,-0.0,"[174.0, 185.0, 180.0, 156.0, 154.0, 154.0, 156.0, 181.0, 185.0, 174.0]",0.12272029370069504,-0.07103399932384491,-0.00091552734375,-0.0033206939697265625,-27.909515380859375
1743581864.3187497,-0.14206800605589426,-0.0,"[174.0, 185.0, 180.0, 156.0, 154.0, 154.0, 156.0, 181.0, 185.0, 174.0]",0.18457050621509552,-0.07103399932384491,-0.000762939453125,-0.0025310516357421875,-27.913131713867188
1743581864.351485,-0.14206800605589426,-0.0,"[174.0, 185.0, 180.0, 156.0, 154.0, 154.0, 156.0, 181.0, 185.0, 174.0]",0.12307638674974442,-0.07103399932384491,-0.00067138671875,-0.0018177032470703125,-27.915481567382812
1743581864.3559983,-0.14206800605589426,-0.0,"[174.0, 185.0, 180.0, 156.0, 154.0, 154.0, 156.0, 181.0, 185.0, 174.0]",0.17212915420532227,-0.07103399932384491,-0.00079345703125,-0.0011844635009765625,-27.912094116210938
1743581864.3906214,-0.14206800605589426,-0.0,"[174.0, 185.0, 180.0, 156.0, 154.0, 154.0, 156.0, 181.0, 185.0, 174.0]",0.09736890345811844,-0.07103399932384491,-0.000885009765625,-0.00063323974609375,-27.910232543945312
1743581864.3992333,-0.14206800605589426,-0.0,"[174.0, 185.0, 180.0, 156.0, 154.0, 154.0, 156.0, 181.0, 185.0, 174.0]",0.19939832389354706,-0.07103399932384491,-0.000732421875,-0.0001621246337890625,-27.91419219970703
1743581864.4345226,-0.14206800605589426,-0.0,"[174.0, 185.0, 180.0, 156.0, 154.0, 154.0, 156.0, 181.0, 185.0, 174.0]",0.0988256186246872,-0.07103399932384491,-0.000640869140625,0.0002288818359375,-27.91613006591797
1743581864.4417815,-0.14206800605589426,-0.0,"[174.0, 185.0, 180.0, 156.0, 154.0, 154.0, 156.0, 181.0, 185.0, 174.0]",0.19658857583999634,-0.07103399932384491,-0.00079345703125,0.000545501708984375,-27.912208557128906
1743581864.478945,-0.14206800605589426,-0.0,"[174.0, 185.0, 180.0, 156.0, 154.0, 154.0, 156.0, 181.0, 185.0, 174.0]",0.1054440587759018,-0.07103399932384491,-0.00091552734375,0.0007915496826171875,-27.910110473632812
1743581864.483351,-0.14206800605589426,-0.0,"[174.0, 185.0, 180.0, 156.0, 154.0, 154.0, 156.0, 181.0, 185.0, 174.0]",0.18786434829235077,-0.07103399932384491,-0.000732421875,0.000972747802734375,-27.913864135742188
1743581864.5173748,-0.14206800605589426,-0.0,"[174.0, 185.0, 180.0, 156.0, 154.0, 154.0, 156.0, 181.0, 185.0, 174.0]",0.12165047228336334,-0.07103399932384491,-0.0006103515625,0.0010967254638671875,-27.916297912597656
1743581864.5217066,-0.14206800605589426,-0.0,"[174.0, 185.0, 180.0, 156.0, 154.0, 154.0, 156.0, 181.0, 185.0, 174.0]",0.15673673152923584,-0.07103399932384491,-0.000762939453125,0.0011692047119140625,-27.913162231445312
1743581864.5608165,-0.14206800605589426,-0.0,"[174.0, 185.0, 180.0, 156.0, 154.0, 154.0, 156.0, 181.0, 185.0, 174.0]",0.04190355911850929,-0.07103399932384491,-0.00079345703125,0.00119781494140625,-27.912322998046875
1743581864.5660915,-0.14206800605589426,-0.0,"[174.0, 185.0, 180.0, 156.0, 154.0, 154.0, 156.0, 181.0, 185.0, 174.0]",0.20318886637687683,-0.07103399932384491,-0.0006103515625,0.0011882781982421875,-27.91638946533203
1743581864.6060672,-0.14206800605589426,-0.0,"[174.0, 185.0, 180.0, 156.0, 154.0, 154.0, 156.0, 181.0, 185.0, 174.0]",0.08178229629993439,-0.07103399932384491,-0.00054931640625,0.001148223876953125,-27.91802978515625
1743581864.61144,-0.14206800605589426,-0.0,"[174.0, 185.0, 180.0, 156.0, 154.0, 154.0, 156.0, 181.0, 185.0, 174.0]",0.19130639731884003,-0.07103399932384491,-0.000701904296875,0.0010833740234375,-27.914199829101562
1743581864.645722,-0.14206800605589426,-0.0,"[174.0, 185.0, 180.0, 156.0, 154.0, 154.0, 156.0, 181.0, 185.0, 174.0]",0.12377277761697769,-0.07103399932384491,-0.000823974609375,0.00099945068359375,-27.911720275878906
1743581864.6506178,-0.14206800605589426,-0.0,"[174.0, 185.0, 180.0, 156.0, 154.0, 154.0, 156.0, 181.0, 185.0, 174.0]",0.1502000242471695,-0.07103399932384491,-0.000701904296875,0.0009002685546875,-27.91472625732422
1743581864.68298,-0.14206800605589426,-0.0,"[174.0, 185.0, 180.0, 156.0, 154.0, 154.0, 156.0, 181.0, 185.0, 174.0]",0.012987621128559113,-0.07103399932384491,-0.000701904296875,0.0007915496826171875,-27.914962768554688
1743581864.6875145,-0.14206800605589426,-0.0,"[174.0, 185.0, 180.0, 156.0, 154.0, 154.0, 156.0, 181.0, 185.0, 174.0]",0.1095263734459877,-0.07103399932384491,-0.00079345703125,0.00067901611328125,-27.91277313232422
1743581864.7199843,-0.14206800605589426,-0.0,"[174.0, 185.0, 180.0, 156.0, 154.0, 154.0, 156.0, 181.0, 185.0, 174.0]",0.18335726857185364,-0.07103399932384491,-0.000640869140625,0.0005645751953125,-27.91644287109375
1743581864.7242525,-0.14206800605589426,-0.0,"[174.0, 185.0, 180.0, 156.0, 154.0, 154.0, 156.0, 181.0, 185.0, 174.0]",0.13223782181739807,-0.07103399932384491,-0.00048828125,0.0004520416259765625,-27.919090270996094
1743581864.762367,-0.14206800605589426,-0.0,"[174.0, 185.0, 180.0, 156.0, 154.0, 154.0, 156.0, 181.0, 185.0, 174.0]",0.10863524675369263,-0.07103399932384491,-0.000579833984375,0.00034332275390625,-27.916915893554688
1743581864.7665582,-0.14206800605589426,-0.0,"[174.0, 185.0, 180.0, 156.0, 154.0, 154.0, 156.0, 181.0, 185.0, 174.0]",0.18189282715320587,-0.07103399932384491,-0.00042724609375,0.0002384185791015625,-27.920555114746094
1743581864.803186,-0.14206800605589426,-0.0,"[174.0, 185.0, 181.0, 156.0, 154.0, 154.0, 156.0, 181.0, 185.0, 174.0]",0.13203532993793488,-0.07103399932384491,-0.00030517578125,0.0001430511474609375,-27.923202514648438
1743581864.807011,-0.14206800605589426,-0.0,"[174.0, 185.0, 181.0, 156.0, 154.0, 154.0, 156.0, 181.0, 185.0, 174.0]",0.11018440872430801,-0.07103399932384491,-0.0003662109375,5.53131103515625e-05,-27.920997619628906
1743581864.8418503,-0.14206800605589426,-0.0,"[174.0, 185.0, 181.0, 156.0, 154.0, 154.0, 156.0, 181.0, 185.0, 174.0]",0.17868974804878235,-0.07103399932384491,-0.000213623046875,-2.47955322265625e-05,-27.924575805664062
1743581864.8485835,-0.14206800605589426,-0.0,"[174.0, 185.0, 181.0, 156.0, 154.0, 154.0, 156.0, 181.0, 185.0, 174.0]",0.12901383638381958,-0.07103399932384491,-9.1552734375e-05,-9.34600830078125e-05,-27.927154541015625
1743581864.88391,-0.14206800605589426,-0.0,"[174.0, 185.0, 181.0, 156.0, 154.0, 154.0, 156.0, 181.0, 185.0, 174.0]",0.12632311880588531,-0.07103399932384491,-0.00018310546875,-0.000152587890625,-27.92462921142578
1743581864.8873796,-0.14206800605589426,-0.0,"[174.0, 185.0, 181.0, 156.0, 154.0, 154.0, 156.0, 181.0, 185.0, 174.0]",0.18798013031482697,-0.07103399932384491,-3.0517578125e-05,-0.0002040863037109375,-27.928390502929688
1743581864.9194236,-0.14206800605589426,-0.0,"[174.0, 185.0, 181.0, 156.0, 154.0, 154.0, 156.0, 181.0, 185.0, 174.0]",0.13260726630687714,-0.07103399932384491,9.1552734375e-05,-0.000244140625,-27.931045532226562
1743581864.9221053,-0.14206800605589426,-0.0,"[174.0, 185.0, 181.0, 156.0, 154.0, 154.0, 156.0, 181.0, 185.0, 174.0]",0.10642772167921066,-0.07103399932384491,3.0517578125e-05,-0.000278472900390625,-27.928916931152344
1743581864.9535456,-0.14206800605589426,-0.0,"[174.0, 185.0, 181.0, 156.0, 154.0, 154.0, 156.0, 181.0, 185.0, 174.0]",0.18722335994243622,-0.07103399932384491,0.00018310546875,-0.0003032684326171875,-27.932662963867188
1743581864.957313,-0.14206800605589426,-0.0,"[174.0, 185.0, 181.0, 156.0, 154.0, 154.0, 156.0, 181.0, 185.0, 174.0]",0.1328093707561493,-0.07103399932384491,0.00030517578125,-0.0003204345703125,-27.935317993164062
1743581865.0419197,-0.14206800605589426,-0.0,"[174.0, 185.0, 181.0, 156.0, 154.0, 154.0, 156.0, 181.0, 185.0, 174.0]",0.10472366213798523,-0.07103399932384491,0.000244140625,-0.000331878662109375,-27.9332275390625
1743581865.0451417,-0.14206800605589426,-0.0,"[174.0, 185.0, 181.0, 156.0, 154.0, 154.0, 156.0, 181.0, 185.0, 174.0]",0.19167529046535492,-0.07103399932384491,0.000396728515625,-0.000339508056640625,-27.93706512451172
1743581865.0479896,-0.14206800605589426,-0.0,"[174.0, 185.0, 181.0, 156.0, 154.0, 154.0, 156.0, 181.0, 185.0, 174.0]",0.1273568868637085,-0.07103399932384491,0.000518798828125,-0.000339508056640625,-27.939613342285156
1743581865.0506275,-0.14206800605589426,-0.0,"[174.0, 185.0, 181.0, 156.0, 154.0, 154.0, 156.0, 181.0, 185.0, 174.0]",0.13560159504413605,-0.07103399932384491,0.00042724609375,-0.0003376007080078125,-27.93689727783203
1743581865.0853844,-0.14206800605589426,-0.0,"[174.0, 185.0, 181.0, 156.0, 154.0, 154.0, 156.0, 181.0, 185.0, 174.0]",0.07796858251094818,-0.07103399932384491,0.00048828125,-0.000331878662109375,-27.938461303710938
1743581865.0890698,-0.14206800605589426,-0.0,"[174.0, 185.0, 181.0, 156.0, 154.0, 154.0, 156.0, 181.0, 185.0, 174.0]",0.18198636174201965,-0.07103399932384491,0.000335693359375,-0.0003223419189453125,-27.934814453125
1743581865.1198044,-0.14206800605589426,-0.0,"[174.0, 185.0, 181.0, 156.0, 154.0, 154.0, 156.0, 181.0, 185.0, 174.0]",0.13163837790489197,-0.07103399932384491,0.000213623046875,-0.00031280517578125,-27.93218231201172
1743581865.1233735,-0.14206800605589426,-0.0,"[174.0, 185.0, 181.0, 156.0, 154.0, 154.0, 156.0, 181.0, 185.0, 174.0]",0.1114247664809227,-0.07103399932384491,0.000274658203125,-0.0002994537353515625,-27.934410095214844
1743581865.15423,-0.14206800605589426,-0.0,"[174.0, 185.0, 181.0, 156.0, 154.0, 154.0, 156.0, 181.0, 185.0, 174.0]",0.17682480812072754,-0.07103399932384491,0.0001220703125,-0.0002880096435546875,-27.930870056152344
1743581865.1577585,-0.14206800605589426,-0.0,"[174.0, 185.0, 181.0, 156.0, 154.0, 154.0, 156.0, 181.0, 185.0, 174.0]",0.12483444809913635,-0.07103399932384491,0.0,-0.000274658203125,-27.928375244140625
1743581865.1890657,-0.14206800605589426,-0.0,"[174.0, 185.0, 181.0, 156.0, 154.0, 154.0, 156.0, 181.0, 185.0, 174.0]",0.14377892017364502,-0.07103399932384491,0.0001220703125,-0.0002613067626953125,-27.931251525878906
1743581865.192825,-0.14206800605589426,-0.0,"[174.0, 185.0, 181.0, 156.0, 154.0, 154.0, 156.0, 181.0, 185.0, 174.0]",0.01195059809833765,-0.07103399932384491,0.0001220703125,-0.000247955322265625,-27.931015014648438
1743581865.2267678,-0.14206800605589426,-0.0,"[174.0, 185.0, 181.0, 156.0, 154.0, 154.0, 156.0, 181.0, 185.0, 174.0]",0.11486684530973434,-0.07103399932384491,0.000213623046875,-0.0002346038818359375,-27.933311462402344
1743581865.25811,-0.14206800605589426,-0.0,"[174.0, 185.0, 181.0, 156.0, 154.0, 154.0, 156.0, 181.0, 185.0, 174.0]",0.18064144253730774,-0.07103399932384491,6.103515625e-05,-0.0002231597900390625,-27.92969512939453
1743581865.2615693,-0.14206800605589426,-0.0,"[174.0, 185.0, 181.0, 156.0, 154.0, 154.0, 156.0, 181.0, 185.0, 174.0]",0.129645437002182,-0.07103399932384491,-6.103515625e-05,-0.000213623046875,-27.927101135253906
1743581865.2914932,-0.14206800605589426,-0.0,"[174.0, 185.0, 181.0, 156.0, 154.0, 154.0, 156.0, 181.0, 185.0, 174.0]",0.12207034230232239,-0.07103399932384491,3.0517578125e-05,-0.0002040863037109375,-27.929542541503906
1743581865.295611,-0.14206800605589426,-0.0,"[174.0, 185.0, 181.0, 156.0, 154.0, 154.0, 156.0, 181.0, 185.0, 174.0]",0.20071175694465637,-0.07103399932384491,-0.000152587890625,-0.000194549560546875,-27.925521850585938
1743581865.3261476,-0.14206800605589426,-0.0,"[174.0, 185.0, 181.0, 156.0, 154.0, 154.0, 156.0, 181.0, 185.0, 174.0]",0.09766867756843567,-0.07103399932384491,-0.000244140625,-0.000186920166015625,-27.923568725585938
1743581865.3293607,-0.14206800605589426,-0.0,"[174.0, 185.0, 181.0, 156.0, 154.0, 154.0, 156.0, 181.0, 185.0, 174.0]",0.2025448977947235,-0.07103399932384491,-6.103515625e-05,-0.0001811981201171875,-27.927627563476562
1743581865.3625436,-0.14206800605589426,-0.0,"[174.0, 185.0, 181.0, 156.0, 154.0, 154.0, 156.0, 181.0, 185.0, 174.0]",0.08881509304046631,-0.07103399932384491,3.0517578125e-05,-0.00017547607421875,-27.929397583007812
1743581865.3923452,-0.14206800605589426,-0.0,"[174.0, 185.0, 180.0, 156.0, 154.0, 154.0, 156.0, 181.0, 185.0, 174.0]",0.2045615017414093,-0.07103399932384491,-0.000152587890625,-0.000171661376953125,-27.925308227539062
1743581865.3956974,-0.14206800605589426,-0.0,"[174.0, 185.0, 180.0, 156.0, 154.0, 154.0, 156.0, 181.0, 185.0, 174.0]",0.07843931764364243,-0.07103399932384491,-0.000244140625,-0.0001678466796875,-27.923736572265625
1743581865.4305813,-0.14206800605589426,-0.0,"[174.0, 185.0, 181.0, 156.0, 154.0, 154.0, 156.0, 181.0, 185.0, 174.0]",0.18473848700523376,-0.07103399932384491,-6.103515625e-05,-0.000164031982421875,-27.92743682861328
1743581865.4352138,-0.14206800605589426,-0.0,"[174.0, 185.0, 181.0, 156.0, 154.0, 154.0, 156.0, 181.0, 185.0, 174.0]",0.1319534182548523,-0.07103399932384491,6.103515625e-05,-0.000164031982421875,-27.930076599121094
1743581865.4663217,-0.14206800605589426,-0.0,"[174.0, 185.0, 181.0, 156.0, 154.0, 154.0, 156.0, 181.0, 185.0, 174.0]",0.10914313048124313,-0.07103399932384491,-3.0517578125e-05,-0.0001621246337890625,-27.927894592285156
1743581865.4694626,-0.14206800605589426,-0.0,"[174.0, 185.0, 181.0, 156.0, 154.0, 154.0, 156.0, 181.0, 185.0, 174.0]",0.17975156009197235,-0.07103399932384491,0.0001220703125,-0.0001621246337890625,-27.931488037109375
1743581865.499666,-0.14206800605589426,-0.0,"[174.0, 185.0, 181.0, 156.0, 154.0, 154.0, 156.0, 181.0, 185.0, 174.0]",0.12881684303283691,-0.07103399932384491,0.000244140625,-0.0001621246337890625,-27.934066772460938
1743581865.5328608,-0.14206800605589426,-0.0,"[174.0, 185.0, 181.0, 156.0, 154.0, 154.0, 156.0, 181.0, 185.0, 174.0]",0.12625260651111603,-0.07103399932384491,0.000152587890625,-0.0001621246337890625,-27.931541442871094
1743581865.5360885,-0.14206800605589426,-0.0,"[174.0, 185.0, 181.0, 156.0, 154.0, 154.0, 156.0, 181.0, 185.0, 174.0]",0.18642866611480713,-0.07103399932384491,0.000335693359375,-0.0001621246337890625,-27.935272216796875
1743581865.5704215,-0.14206800605589426,-0.0,"[174.0, 185.0, 181.0, 156.0, 154.0, 154.0, 156.0, 181.0, 185.0, 174.0]",0.1317823976278305,-0.07103399932384491,0.000457763671875,-0.000164031982421875,-27.937911987304688
1743581865.5730143,-0.14206800605589426,-0.0,"[174.0, 185.0, 181.0, 156.0, 154.0, 154.0, 156.0, 181.0, 185.0, 174.0]",0.11037927865982056,-0.07103399932384491,0.0003662109375,-0.0001659393310546875,-27.935707092285156
1743581865.6022294,-0.14206800605589426,-0.0,"[174.0, 185.0, 181.0, 156.0, 154.0, 154.0, 156.0, 181.0, 185.0, 174.0]",0.17760252952575684,-0.07103399932384491,0.000518798828125,-0.0001659393310546875,-27.93926239013672
1743581865.6364434,-0.14206800605589426,-0.0,"[174.0, 185.0, 181.0, 156.0, 154.0, 154.0, 156.0, 181.0, 185.0, 174.0]",0.1259441077709198,-0.07103399932384491,0.000640869140625,-0.0001678466796875,-27.94178009033203
1743581865.640259,-0.14206800605589426,-0.0,"[174.0, 185.0, 181.0, 156.0, 154.0, 154.0, 156.0, 181.0, 185.0, 174.0]",0.13896742463111877,-0.07103399932384491,0.000518798828125,-0.0001697540283203125,-27.939002990722656
1743581865.671566,-0.14206800605589426,-0.0,"[174.0, 185.0, 181.0, 156.0, 154.0, 154.0, 156.0, 181.0, 185.0, 174.0]",0.04245452955365181,-0.07103399932384491,0.000579833984375,-0.000171661376953125,-27.939849853515625
1743581865.6747127,-0.14206800605589426,-0.0,"[174.0, 185.0, 181.0, 156.0, 154.0, 154.0, 156.0, 181.0, 185.0, 174.0]",0.20675267279148102,-0.07103399932384491,0.000396728515625,-0.000171661376953125,-27.935714721679688
1743581865.704317,-0.14206800605589426,-0.0,"[174.0, 185.0, 181.0, 156.0, 154.0, 154.0, 156.0, 181.0, 185.0, 174.0]",0.06694119423627853,-0.07103399932384491,0.00030517578125,-0.0001735687255859375,-27.934371948242188
1743581865.7076972,-0.14206800605589426,-0.0,"[174.0, 185.0, 181.0, 156.0, 154.0, 154.0, 156.0, 181.0, 185.0, 174.0]",0.17238827049732208,-0.07103399932384491,0.000457763671875,-0.00017547607421875,-27.937820434570312
1743581865.7380097,-0.14206800605589426,-0.0,"[174.0, 185.0, 181.0, 156.0, 154.0, 154.0, 156.0, 181.0, 185.0, 174.0]",0.11424629390239716,-0.07103399932384491,0.000579833984375,-0.00017547607421875,-27.940109252929688
1743581865.7686684,-0.14206800605589426,-0.0,"[174.0, 185.0, 181.0, 156.0, 154.0, 154.0, 156.0, 181.0, 185.0, 174.0]",0.1883625090122223,-0.07103399932384491,0.00042724609375,-0.0001773834228515625,-27.93634033203125
1743581865.771775,-0.14206800605589426,-0.0,"[174.0, 185.0, 181.0, 156.0, 154.0, 154.0, 156.0, 181.0, 185.0, 174.0]",0.1307843178510666,-0.07103399932384491,0.000274658203125,-0.000179290771484375,-27.9337158203125
1743581865.8017852,-0.14206800605589426,-0.0,"[174.0, 185.0, 181.0, 156.0, 154.0, 154.0, 156.0, 181.0, 185.0, 174.0]",0.11662972718477249,-0.07103399932384491,0.0003662109375,-0.000179290771484375,-27.936050415039062
1743581865.8474061,-0.14206800605589426,-0.0,"[174.0, 185.0, 227.0, 295.0, 259.0, 161.0, 182.0, 190.0, 185.0, 174.0]",0.0,0.0,0.0,0.10000038146972656,-27.93000030517578
1743581865.8509946,-0.14206800605589426,-0.0,"[174.0, 185.0, 227.0, 295.0, 259.0, 161.0, 182.0, 190.0, 185.0, 174.0]",0.8976181745529175,-0.07103399932384491,0.0,0.08204841613769531,-27.930015563964844
1743581865.8539147,-0.14206800605589426,-0.0,"[174.0, 185.0, 227.0, 295.0, 259.0, 161.0, 182.0, 190.0, 185.0, 174.0]",0.8461743593215942,-0.07103399932384491,0.0,0.06512641906738281,-27.92974090576172
1743581865.8846786,-0.14206800605589426,-0.0,"[174.0, 185.0, 179.0, 155.0, 154.0, 154.0, 156.0, 181.0, 185.0, 174.0]",0.7971373796463013,-0.07103399932384491,0.0001220703125,0.04947090148925781,-27.932754516601562
1743581865.9176207,-0.14206800605589426,-0.0,"[174.0, 185.0, 179.0, 156.0, 154.0, 154.0, 156.0, 181.0, 185.0, 174.0]",0.7139944434165955,-0.07103399932384491,0.00018310546875,0.03524208068847656,-27.933975219726562
1743581865.9202085,-0.14206800605589426,-0.0,"[174.0, 185.0, 179.0, 156.0, 154.0, 154.0, 156.0, 181.0, 185.0, 174.0]",0.6756474375724792,-0.07103399932384491,0.0,0.022546768188476562,-27.929344177246094
1743581865.9504113,-0.14206800605589426,-0.0,"[174.0, 185.0, 180.0, 156.0, 154.0, 154.0, 156.0, 181.0, 185.0, 174.0]",0.5558216571807861,-0.07103399932384491,-3.0517578125e-05,0.011430740356445312,-27.929336547851562
1743581865.9534976,-0.14206800605589426,-0.0,"[174.0, 185.0, 180.0, 156.0, 154.0, 154.0, 156.0, 181.0, 185.0, 174.0]",0.4771474599838257,-0.07103399932384491,0.0,0.001895904541015625,-27.928939819335938
1743581865.9840598,-0.14206800605589426,-0.0,"[174.0, 185.0, 181.0, 156.0, 154.0, 154.0, 156.0, 181.0, 185.0, 174.0]",0.4025402367115021,-0.07103399932384491,0.0,-0.006092071533203125,-27.92993927001953
1743581866.0162666,-0.14206800605589426,-0.0,"[174.0, 185.0, 181.0, 156.0, 154.0, 154.0, 158.0, 181.0, 185.0, 174.0]",0.426984041929245,-0.07103399932384491,-0.000213623046875,-0.012601852416992188,-27.924407958984375
1743581866.0199382,-0.14206800605589426,-0.0,"[174.0, 185.0, 181.0, 156.0, 154.0, 154.0, 158.0, 181.0, 185.0, 174.0]",0.3327448070049286,-0.07103399932384491,-3.0517578125e-05,-0.01772308349609375,-27.928665161132812
1743581866.053121,-0.14206800605589426,-0.0,"[174.0, 185.0, 181.0, 156.0, 154.0, 154.0, 158.0, 183.0, 185.0, 174.0]",0.2910304069519043,-0.07103399932384491,0.000152587890625,-0.02156829833984375,-27.93303680419922
1743581866.056785,-0.14206800605589426,-0.0,"[174.0, 185.0, 181.0, 156.0, 154.0, 154.0, 158.0, 183.0, 185.0, 174.0]",0.19714921712875366,-0.07103399932384491,0.00030517578125,-0.02425384521484375,-27.935928344726562
1743581866.0882568,-0.14206800605589426,-0.0,"[174.0, 185.0, 181.0, 156.0, 154.0, 154.0, 158.0, 183.0, 185.0, 174.0]",0.1068190336227417,-0.07103399932384491,0.000244140625,-0.025915145874023438,-27.93457794189453
1743581866.0922134,-0.14206800605589426,-0.0,"[174.0, 185.0, 181.0, 156.0, 154.0, 154.0, 158.0, 183.0, 185.0, 174.0]",0.17913252115249634,-0.07103399932384491,0.000396728515625,-0.02667999267578125,-27.938079833984375
1743581866.12391,-0.14206800605589426,-0.0,"[174.0, 185.0, 181.0, 156.0, 154.0, 154.0, 156.0, 181.0, 185.0, 174.0]",0.23070794343948364,-0.07103399932384491,0.0006103515625,-0.026681900024414062,-27.942703247070312
1743581866.1559784,-0.14206800605589426,-0.0,"[174.0, 185.0, 181.0, 156.0, 154.0, 154.0, 156.0, 181.0, 185.0, 174.0]",0.04403975233435631,-0.07103399932384491,0.000579833984375,-0.0260467529296875,-27.942092895507812
1743581866.1598148,-0.14206800605589426,-0.0,"[174.0, 185.0, 181.0, 156.0, 154.0, 154.0, 156.0, 181.0, 185.0, 174.0]",0.2538456320762634,-0.07103399932384491,0.00079345703125,-0.024898529052734375,-27.947036743164062
1743581866.1896272,-0.14206800605589426,-0.0,"[174.0, 185.0, 181.0, 156.0, 154.0, 154.0, 156.0, 181.0, 185.0, 174.0]",0.20947323739528656,-0.07103399932384491,0.000640869140625,-0.023349761962890625,-27.943145751953125
1743581866.1929069,-0.14206800605589426,-0.0,"[174.0, 185.0, 181.0, 156.0, 154.0, 154.0, 156.0, 181.0, 185.0, 174.0]",0.19618849456310272,-0.07103399932384491,0.00048828125,-0.021505355834960938,-27.939674377441406
1743581866.2258904,-0.14206800605589426,-0.0,"[174.0, 185.0, 181.0, 156.0, 154.0, 154.0, 156.0, 181.0, 185.0, 174.0]",0.17609092593193054,-0.07103399932384491,0.000335693359375,-0.019458770751953125,-27.936805725097656
1743581866.2580771,-0.14206800605589426,-0.0,"[174.0, 185.0, 181.0, 156.0, 154.0, 154.0, 156.0, 181.0, 185.0, 174.0]",0.11515311151742935,-0.07103399932384491,0.0003662109375,-0.017292022705078125,-27.937591552734375
1743581866.2617626,-0.14206800605589426,-0.0,"[174.0, 185.0, 181.0, 156.0, 154.0, 154.0, 156.0, 181.0, 185.0, 174.0]",0.2356787472963333,-0.07103399932384491,0.00018310546875,-0.015077590942382812,-27.933425903320312
1743581866.2909305,-0.14206800605589426,-0.0,"[174.0, 185.0, 181.0, 156.0, 154.0, 154.0, 156.0, 181.0, 185.0, 174.0]",0.12443602830171585,-0.07103399932384491,0.0001220703125,-0.012876510620117188,-27.93225860595703
1743581866.295465,-0.14206800605589426,-0.0,"[174.0, 185.0, 181.0, 156.0, 154.0, 154.0, 156.0, 181.0, 185.0, 174.0]",0.20427972078323364,-0.07103399932384491,0.000274658203125,-0.010740280151367188,-27.935745239257812
1743581866.325168,-0.14206800605589426,-0.0,"[174.0, 185.0, 181.0, 156.0, 154.0, 154.0, 156.0, 181.0, 185.0, 174.0]",0.1452922523021698,-0.07103399932384491,0.0003662109375,-0.008707046508789062,-27.937820434570312
1743581866.3292613,-0.14206800605589426,-0.0,"[174.0, 185.0, 181.0, 156.0, 154.0, 154.0, 156.0, 181.0, 185.0, 174.0]",0.20812778174877167,-0.07103399932384491,0.000213623046875,-0.0068111419677734375,-27.934112548828125
1743581866.3596966,-0.14206800605589426,-0.0,"[174.0, 185.0, 181.0, 156.0, 154.0, 154.0, 156.0, 181.0, 185.0, 174.0]",0.13797132670879364,-0.07103399932384491,0.0001220703125,-0.0050716400146484375,-27.931968688964844
1743581866.3898547,-0.14206800605589426,-0.0,"[174.0, 185.0, 181.0, 156.0, 154.0, 154.0, 156.0, 181.0, 185.0, 174.0]",0.19855031371116638,-0.07103399932384491,0.000274658203125,-0.0035076141357421875,-27.935623168945312
1743581866.3932192,-0.14206800605589426,-0.0,"[174.0, 185.0, 181.0, 156.0, 154.0, 154.0, 156.0, 181.0, 185.0, 174.0]",0.12442037463188171,-0.07103399932384491,0.0003662109375,-0.002124786376953125,-27.93769073486328
1743581866.4267983,-0.14206800605589426,-0.0,"[174.0, 185.0, 181.0, 156.0, 154.0, 154.0, 156.0, 181.0, 185.0, 174.0]",0.1919197291135788,-0.07103399932384491,0.000213623046875,-0.000926971435546875,-27.934043884277344
1743581866.4346845,-0.14206800605589426,-0.0,"[174.0, 185.0, 180.0, 156.0, 154.0, 154.0, 156.0, 181.0, 185.0, 174.0]",0.11501841247081757,-0.07103399932384491,0.0001220703125,8.7738037109375e-05,-27.931976318359375
1743581866.4374304,-0.14206800605589426,-0.0,"[174.0, 185.0, 180.0, 156.0, 154.0, 154.0, 156.0, 181.0, 185.0, 174.0]",0.18744796514511108,-0.07103399932384491,0.000274658203125,0.000926971435546875,-27.935630798339844
1743581866.4431376,-0.14206800605589426,-0.0,"[174.0, 185.0, 181.0, 156.0, 154.0, 154.0, 156.0, 181.0, 185.0, 174.0]",0.11098096519708633,-0.07103399932384491,0.0003662109375,0.0016002655029296875,-27.93775177001953
1743581866.460698,-0.14206800605589426,-0.0,"[174.0, 185.0, 180.0, 156.0, 154.0, 154.0, 156.0, 181.0, 185.0, 174.0]",0.18537022173404694,-0.07103399932384491,0.000213623046875,0.002117156982421875,-27.93407440185547
1743581866.4807715,-0.14206800605589426,-0.0,"[174.0, 185.0, 180.0, 156.0, 154.0, 154.0, 156.0, 181.0, 185.0, 174.0]",0.11118712276220322,-0.07103399932384491,9.1552734375e-05,0.0024929046630859375,-27.931884765625
1743581866.4997056,-0.14206800605589426,-0.0,"[174.0, 185.0, 181.0, 156.0, 154.0, 154.0, 156.0, 181.0, 185.0, 174.0]",0.18504969775676727,-0.07103399932384491,0.000274658203125,0.002742767333984375,-27.935577392578125
1743581866.519004,-0.14206800605589426,-0.0,"[174.0, 185.0, 181.0, 156.0, 154.0, 154.0, 156.0, 181.0, 185.0, 174.0]",0.11428255587816238,-0.07103399932384491,0.0003662109375,0.002880096435546875,-27.93785858154297
1743581866.539881,-0.14206800605589426,-0.0,"[174.0, 185.0, 181.0, 156.0, 154.0, 154.0, 156.0, 181.0, 185.0, 174.0]",0.18145009875297546,-0.07103399932384491,0.000213623046875,0.00292205810546875,-27.934226989746094
1743581866.559259,-0.14206800605589426,-0.0,"[174.0, 185.0, 181.0, 156.0, 154.0, 154.0, 156.0, 181.0, 185.0, 174.0]",0.11750472337007523,-0.07103399932384491,9.1552734375e-05,0.0028820037841796875,-27.93187713623047
1743581866.5815678,-0.14206800605589426,-0.0,"[174.0, 185.0, 181.0, 156.0, 154.0, 154.0, 156.0, 181.0, 185.0, 174.0]",0.17287372052669525,-0.07103399932384491,0.000244140625,0.002777099609375,-27.935333251953125
1743581866.6004522,-0.14206800605589426,-0.0,"[174.0, 185.0, 181.0, 156.0, 154.0, 154.0, 156.0, 181.0, 185.0, 174.0]",0.1081625297665596,-0.07103399932384491,0.0003662109375,0.00261688232421875,-27.9375
1743581866.6196167,-0.14206800605589426,-0.0,"[174.0, 185.0, 181.0, 156.0, 154.0, 154.0, 156.0, 181.0, 185.0, 174.0]",0.18938471376895905,-0.07103399932384491,0.00018310546875,0.00241851806640625,-27.93370819091797
1743581866.6397064,-0.14206800605589426,-0.0,"[174.0, 185.0, 181.0, 156.0, 154.0, 154.0, 156.0, 181.0, 185.0, 174.0]",0.12530210614204407,-0.07103399932384491,9.1552734375e-05,0.00218963623046875,-27.93121337890625
1743581866.6594386,-0.14206800605589426,-0.0,"[174.0, 185.0, 181.0, 156.0, 154.0, 154.0, 156.0, 181.0, 185.0, 174.0]",0.14473947882652283,-0.07103399932384491,0.00018310546875,0.0019435882568359375,-27.934097290039062
1743581866.6793654,-0.14206800605589426,-0.0,"[174.0, 185.0, 181.0, 156.0, 154.0, 154.0, 156.0, 181.0, 185.0, 174.0]",0.0161189716309309,-0.07103399932384491,0.00018310546875,0.0016880035400390625,-27.93389892578125
1743581866.699876,-0.14206800605589426,-0.0,"[174.0, 185.0, 181.0, 156.0, 154.0, 154.0, 156.0, 181.0, 185.0, 174.0]",0.08010099083185196,-0.07103399932384491,0.000244140625,0.001430511474609375,-27.93548583984375
1743581866.718903,-0.14206800605589426,-0.0,"[174.0, 185.0, 181.0, 156.0, 154.0, 154.0, 156.0, 181.0, 185.0, 174.0]",0.185794860124588,-0.07103399932384491,9.1552734375e-05,0.0011768341064453125,-27.93177032470703
1743581866.7390652,-0.14206800605589426,-0.0,"[174.0, 185.0, 181.0, 156.0, 154.0, 154.0, 156.0, 181.0, 185.0, 174.0]",0.1341657042503357,-0.07103399932384491,-3.0517578125e-05,0.000934600830078125,-27.929100036621094
1743581866.7598746,-0.14206800605589426,-0.0,"[174.0, 185.0, 181.0, 156.0, 154.0, 154.0, 156.0, 181.0, 185.0, 174.0]",0.10061976313591003,-0.07103399932384491,3.0517578125e-05,0.000705718994140625,-27.93109893798828
1743581866.7813072,-0.14206800605589426,-0.0,"[174.0, 185.0, 181.0, 156.0, 154.0, 154.0, 156.0, 181.0, 185.0, 174.0]",0.2044479250907898,-0.07103399932384491,-0.000152587890625,0.0004940032958984375,-27.92700958251953
1743581866.8005853,-0.14206800605589426,-0.0,"[174.0, 185.0, 181.0, 156.0, 154.0, 154.0, 156.0, 181.0, 185.0, 174.0]",0.08371058106422424,-0.07103399932384491,-0.000213623046875,0.000301361083984375,-27.92534637451172
1743581866.8194735,-0.14206800605589426,-0.0,"[174.0, 185.0, 181.0, 156.0, 154.0, 154.0, 156.0, 181.0, 185.0, 174.0]",0.19638822972774506,-0.07103399932384491,-6.103515625e-05,0.00012969970703125,-27.929275512695312
1743581866.8397803,-0.14206800605589426,-0.0,"[174.0, 185.0, 181.0, 156.0, 154.0, 154.0, 156.0, 181.0, 185.0, 174.0]",0.11915957927703857,-0.07103399932384491,6.103515625e-05,-2.09808349609375e-05,-27.931655883789062
1743581866.8600323,-0.14206800605589426,-0.0,"[174.0, 185.0, 181.0, 156.0, 154.0, 154.0, 156.0, 181.0, 185.0, 174.0]",0.1759120374917984,-0.07103399932384491,-9.1552734375e-05,-0.0001506805419921875,-27.928131103515625
1743581866.8800788,-0.14206800605589426,-0.0,"[174.0, 185.0, 181.0, 156.0, 154.0, 154.0, 156.0, 181.0, 185.0, 174.0]",0.12589699029922485,-0.07103399932384491,-0.000213623046875,-0.0002593994140625,-27.925613403320312
1743581866.8995075,-0.14206800605589426,-0.0,"[174.0, 185.0, 181.0, 156.0, 154.0, 154.0, 156.0, 181.0, 185.0, 174.0]",0.1402733474969864,-0.07103399932384491,-9.1552734375e-05,-0.000347137451171875,-27.928421020507812
1743581866.9196122,-0.14206800605589426,-0.0,"[174.0, 185.0, 181.0, 156.0, 154.0, 154.0, 156.0, 181.0, 185.0, 174.0]",0.03423662856221199,-0.07103399932384491,-0.0001220703125,-0.000415802001953125,-27.92774200439453
1743581866.9394307,-0.14206800605589426,-0.0,"[174.0, 185.0, 181.0, 156.0, 154.0, 154.0, 156.0, 181.0, 185.0, 174.0]",0.20413991808891296,-0.07103399932384491,6.103515625e-05,-0.000469207763671875,-27.93182373046875
1743581866.959043,-0.14206800605589426,-0.0,"[174.0, 185.0, 181.0, 156.0, 154.0, 154.0, 156.0, 181.0, 185.0, 174.0]",0.08281339704990387,-0.07103399932384491,0.0001220703125,-0.0005054473876953125,-27.933486938476562
1743581866.9817557,-0.14206800605589426,-0.0,"[174.0, 185.0, 181.0, 156.0, 154.0, 154.0, 156.0, 181.0, 185.0, 174.0]",0.19480322301387787,-0.07103399932384491,-3.0517578125e-05,-0.0005283355712890625,-27.929580688476562
1743581866.9997847,-0.14206800605589426,-0.0,"[174.0, 185.0, 180.0, 156.0, 154.0, 154.0, 156.0, 181.0, 185.0, 174.0]",0.12164302170276642,-0.07103399932384491,-0.000152587890625,-0.0005397796630859375,-27.927146911621094
1743581867.0190246,-0.14206800605589426,-0.0,"[174.0, 185.0, 181.0, 156.0, 154.0, 154.0, 156.0, 181.0, 185.0, 174.0]",0.16173477470874786,-0.07103399932384491,0.0,-0.0005397796630859375,-27.930381774902344
1743581867.0395257,-0.14206800605589426,-0.0,"[174.0, 185.0, 181.0, 156.0, 154.0, 154.0, 156.0, 181.0, 185.0, 174.0]",0.07171667367219925,-0.07103399932384491,6.103515625e-05,-0.000530242919921875,-27.93182373046875
1743581867.0590074,-0.14206800605589426,-0.0,"[174.0, 185.0, 181.0, 156.0, 154.0, 154.0, 156.0, 181.0, 185.0, 174.0]",0.1736842691898346,-0.07103399932384491,-9.1552734375e-05,-0.000514984130859375,-27.9283447265625
1743581867.0797603,-0.14206800605589426,-0.0,"[174.0, 185.0, 180.0, 156.0, 154.0, 154.0, 156.0, 181.0, 185.0, 174.0]",0.11857007443904877,-0.07103399932384491,-0.000213623046875,-0.00049591064453125,-27.92597198486328
1743581867.09988,-0.14206800605589426,-0.0,"[174.0, 185.0, 181.0, 156.0, 154.0, 154.0, 156.0, 181.0, 185.0, 174.0]",0.17300008237361908,-0.07103399932384491,-6.103515625e-05,-0.0004711151123046875,-27.92943572998047
1743581867.119048,-0.14206800605589426,-0.0,"[174.0, 185.0, 181.0, 156.0, 154.0, 154.0, 156.0, 181.0, 185.0, 174.0]",0.11636956036090851,-0.07103399932384491,6.103515625e-05,-0.0004425048828125,-27.9317626953125
1743581867.1398757,-0.14206800605589426,-0.0,"[174.0, 185.0, 181.0, 156.0, 154.0, 154.0, 156.0, 181.0, 185.0, 174.0]",0.1822662353515625,-0.07103399932384491,-0.0001220703125,-0.0004138946533203125,-27.928115844726562
1743581867.1597338,-0.14206800605589426,-0.0,"[174.0, 185.0, 180.0, 156.0, 154.0, 154.0, 156.0, 181.0, 185.0, 174.0]",0.13137254118919373,-0.07103399932384491,-0.000244140625,-0.0003833770751953125,-27.92548370361328
1743581867.1800423,-0.14206800605589426,-0.0,"[174.0, 185.0, 180.0, 156.0, 154.0, 154.0, 156.0, 181.0, 185.0, 174.0]",0.11277838796377182,-0.07103399932384491,-0.000152587890625,-0.000354766845703125,-27.92774200439453
1743581867.19975,-0.14206800605589426,-0.0,"[174.0, 185.0, 180.0, 156.0, 154.0, 154.0, 156.0, 181.0, 185.0, 174.0]",0.1771436482667923,-0.07103399932384491,-0.00030517578125,-0.0003261566162109375,-27.9241943359375
1743581867.219148,-0.14206800605589426,-0.0,"[174.0, 185.0, 180.0, 156.0, 154.0, 154.0, 156.0, 181.0, 185.0, 174.0]",0.12540221214294434,-0.07103399932384491,-0.00042724609375,-0.00029754638671875,-27.92168426513672
1743581867.2394505,-0.14206800605589426,-0.0,"[174.0, 185.0, 180.0, 156.0, 154.0, 154.0, 156.0, 181.0, 185.0, 174.0]",0.14148904383182526,-0.07103399932384491,-0.00030517578125,-0.0002727508544921875,-27.924514770507812
1743581867.2594514,-0.14206800605589426,-0.0,"[174.0, 185.0, 180.0, 156.0, 154.0, 154.0, 156.0, 181.0, 185.0, 174.0]",0.023816067725419998,-0.07103399932384491,-0.000335693359375,-0.000247955322265625,-27.924041748046875
1743581867.279131,-0.14206800605589426,-0.0,"[174.0, 185.0, 180.0, 156.0, 154.0, 154.0, 156.0, 181.0, 185.0, 174.0]",0.1827179491519928,-0.07103399932384491,-0.000152587890625,-0.0002269744873046875,-27.927696228027344
1743581867.299162,-0.14206800605589426,-0.0,"[174.0, 185.0, 181.0, 156.0, 154.0, 154.0, 156.0, 181.0, 185.0, 174.0]",0.1314249336719513,-0.07103399932384491,-3.0517578125e-05,-0.0002079010009765625,-27.930328369140625
1743581867.3197367,-0.14206800605589426,-0.0,"[174.0, 185.0, 181.0, 156.0, 154.0, 154.0, 156.0, 181.0, 185.0, 174.0]",0.11220204830169678,-0.07103399932384491,-0.0001220703125,-0.0001926422119140625,-27.928085327148438
1743581867.3395011,-0.14206800605589426,-0.0,"[174.0, 185.0, 181.0, 156.0, 154.0, 154.0, 156.0, 181.0, 185.0, 174.0]",0.17681726813316345,-0.07103399932384491,3.0517578125e-05,-0.0001773834228515625,-27.931625366210938
1743581867.3599901,-0.14206800605589426,-0.0,"[174.0, 185.0, 181.0, 156.0, 154.0, 154.0, 156.0, 181.0, 185.0, 174.0]",0.12449375540018082,-0.07103399932384491,0.000152587890625,-0.0001659393310546875,-27.934112548828125
1743581867.3820148,-0.14206800605589426,-0.0,"[174.0, 185.0, 181.0, 156.0, 154.0, 154.0, 156.0, 181.0, 185.0, 174.0]",0.1452343910932541,-0.07103399932384491,3.0517578125e-05,-0.000156402587890625,-27.93121337890625
1743581867.4005072,-0.14206800605589426,-0.0,"[174.0, 185.0, 181.0, 156.0, 154.0, 154.0, 156.0, 181.0, 185.0, 174.0]",0.006262894719839096,-0.07103399932384491,3.0517578125e-05,-0.0001506805419921875,-27.93133544921875
1743581867.4197443,-0.14206800605589426,-0.0,"[174.0, 185.0, 181.0, 156.0, 154.0, 154.0, 156.0, 181.0, 185.0, 174.0]",0.03511140123009682,-0.07103399932384491,0.0,-0.00014495849609375,-27.930633544921875
1743581867.4393463,-0.14206800605589426,-0.0,"[174.0, 185.0, 181.0, 156.0, 154.0, 154.0, 156.0, 181.0, 185.0, 174.0]",0.2040194272994995,-0.07103399932384491,0.00018310546875,-0.000141143798828125,-27.934715270996094
1743581867.45982,-0.14206800605589426,-0.0,"[174.0, 185.0, 181.0, 156.0, 154.0, 154.0, 156.0, 181.0, 185.0, 174.0]",0.08113572746515274,-0.07103399932384491,0.000274658203125,-0.0001392364501953125,-27.93634033203125
1743581867.4795609,-0.14206800605589426,-0.0,"[174.0, 185.0, 181.0, 156.0, 154.0, 154.0, 156.0, 181.0, 185.0, 174.0]",0.19067634642124176,-0.07103399932384491,9.1552734375e-05,-0.0001373291015625,-27.932525634765625
1743581867.4990811,-0.14206800605589426,-0.0,"[174.0, 185.0, 181.0, 156.0, 154.0, 154.0, 156.0, 181.0, 185.0, 174.0]",0.127870574593544,-0.07103399932384491,-3.0517578125e-05,-0.0001392364501953125,-27.929962158203125
1743581867.5198894,-0.14206800605589426,-0.0,"[174.0, 185.0, 181.0, 156.0, 154.0, 154.0, 156.0, 181.0, 185.0, 174.0]",0.13237817585468292,-0.07103399932384491,6.103515625e-05,-0.0001392364501953125,-27.9326171875
1743581867.5396986,-0.14206800605589426,-0.0,"[174.0, 185.0, 181.0, 156.0, 154.0, 154.0, 156.0, 181.0, 185.0, 174.0]",0.11845208704471588,-0.07103399932384491,-3.0517578125e-05,-0.000141143798828125,-27.93024444580078
1743581867.5600066,-0.14206800605589426,-0.0,"[174.0, 185.0, 181.0, 156.0, 154.0, 154.0, 156.0, 181.0, 185.0, 174.0]",0.1868116408586502,-0.07103399932384491,0.0001220703125,-0.00014495849609375,-27.933982849121094
1743581867.5825174,-0.14206800605589426,-0.0,"[174.0, 185.0, 181.0, 156.0, 154.0, 154.0, 156.0, 181.0, 185.0, 174.0]",0.13160482048988342,-0.07103399932384491,0.000244140625,-0.0001468658447265625,-27.936614990234375
1743581867.6007998,-0.14206800605589426,-0.0,"[174.0, 185.0, 181.0, 156.0, 154.0, 154.0, 156.0, 181.0, 185.0, 174.0]",0.11143532395362854,-0.07103399932384491,0.00018310546875,-0.0001506805419921875,-27.93438720703125
1743581867.6201396,-0.14206800605589426,-0.0,"[174.0, 185.0, 181.0, 156.0, 154.0, 154.0, 156.0, 181.0, 185.0, 174.0]",0.17676685750484467,-0.07103399932384491,0.000335693359375,-0.0001544952392578125,-27.93792724609375
1743581867.6397393,-0.14206800605589426,-0.0,"[174.0, 185.0, 181.0, 156.0, 154.0, 154.0, 156.0, 181.0, 185.0, 174.0]",0.12465577572584152,-0.07103399932384491,0.000457763671875,-0.000156402587890625,-27.94042205810547
1743581867.6600418,-0.14206800605589426,-0.0,"[174.0, 185.0, 181.0, 156.0, 154.0, 154.0, 156.0, 181.0, 185.0, 174.0]",0.14433197677135468,-0.07103399932384491,0.000335693359375,-0.00016021728515625,-27.937530517578125
1743581867.6801965,-0.14206800605589426,-0.0,"[174.0, 185.0, 181.0, 156.0, 154.0, 154.0, 156.0, 181.0, 185.0, 174.0]",0.009682517498731613,-0.07103399932384491,0.000335693359375,-0.000164031982421875,-27.937728881835938
1743581867.7000258,-0.14206800605589426,-0.0,"[174.0, 185.0, 181.0, 156.0, 154.0, 154.0, 156.0, 181.0, 185.0, 174.0]",0.07759004831314087,-0.07103399932384491,0.000274658203125,-0.0001678466796875,-27.936172485351562
1743581867.7193174,-0.14206800605589426,-0.0,"[174.0, 185.0, 181.0, 156.0, 154.0, 154.0, 156.0, 181.0, 185.0, 174.0]",0.1806538850069046,-0.07103399932384491,0.00042724609375,-0.0001697540283203125,-27.939788818359375
1743581867.74007,-0.14206800605589426,-0.0,"[174.0, 185.0, 181.0, 156.0, 154.0, 154.0, 156.0, 181.0, 185.0, 174.0]",0.13020126521587372,-0.07103399932384491,0.00054931640625,-0.000171661376953125,-27.942398071289062
1743581867.7592251,-0.14206800605589426,-0.0,"[174.0, 185.0, 181.0, 156.0, 154.0, 154.0, 156.0, 181.0, 185.0, 174.0]",0.11937293410301208,-0.07103399932384491,0.000457763671875,-0.00017547607421875,-27.94001007080078
1743581867.7806935,-0.14206800605589426,-0.0,"[174.0, 185.0, 181.0, 156.0, 154.0, 154.0, 156.0, 181.0, 185.0, 174.0]",0.195695161819458,-0.07103399932384491,0.000640869140625,-0.0001773834228515625,-27.943923950195312
1743581867.7994385,-0.14206800605589426,-0.0,"[174.0, 185.0, 181.0, 156.0, 154.0, 154.0, 156.0, 181.0, 185.0, 174.0]",0.1164497658610344,-0.07103399932384491,0.000732421875,-0.000179290771484375,-27.946258544921875
1743581867.8210506,-0.14206800605589426,-0.0,"[174.0, 185.0, 181.0, 156.0, 154.0, 154.0, 156.0, 181.0, 185.0, 174.0]",0.18265071511268616,-0.07103399932384491,0.000579833984375,-0.000179290771484375,-27.942596435546875
1743581867.8394992,-0.14206800605589426,-0.0,"[174.0, 185.0, 181.0, 156.0, 154.0, 154.0, 156.0, 181.0, 185.0, 174.0]",0.13143670558929443,-0.07103399932384491,0.000457763671875,-0.0001811981201171875,-27.939971923828125
1743581867.8595428,-0.14206800605589426,-0.0,"[174.0, 185.0, 181.0, 156.0, 154.0, 154.0, 156.0, 181.0, 185.0, 174.0]",0.1123543456196785,-0.07103399932384491,0.00054931640625,-0.00018310546875,-27.942214965820312
1743581867.8793366,-0.14206800605589426,-0.0,"[174.0, 185.0, 181.0, 156.0, 154.0, 154.0, 156.0, 181.0, 185.0, 174.0]",0.1769438236951828,-0.07103399932384491,0.000396728515625,-0.00018310546875,-27.938674926757812
1743581867.899835,-0.14206800605589426,-0.0,"[174.0, 185.0, 181.0, 156.0, 154.0, 154.0, 156.0, 181.0, 185.0, 174.0]",0.1251710206270218,-0.07103399932384491,0.000274658203125,-0.00018310546875,-27.936172485351562
1743581867.919908,-0.14206800605589426,-0.0,"[174.0, 185.0, 181.0, 156.0, 154.0, 154.0, 156.0, 181.0, 185.0, 174.0]",0.14255006611347198,-0.07103399932384491,0.000396728515625,-0.0001850128173828125,-27.93902587890625
1743581867.939692,-0.14206800605589426,-0.0,"[174.0, 185.0, 181.0, 156.0, 154.0, 154.0, 156.0, 181.0, 185.0, 174.0]",0.017779981717467308,-0.07103399932384491,0.0003662109375,-0.0001850128173828125,-27.93866729736328
1743581867.9598544,-0.14206800605589426,-0.0,"[174.0, 185.0, 181.0, 156.0, 154.0, 154.0, 156.0, 181.0, 185.0, 174.0]",0.2009967714548111,-0.07103399932384491,0.00054931640625,-0.0001850128173828125,-27.94268798828125
1743581867.9803877,-0.14206800605589426,-0.0,"[174.0, 185.0, 181.0, 156.0, 154.0, 154.0, 156.0, 181.0, 185.0, 174.0]",0.0964408814907074,-0.07103399932384491,0.000640869140625,-0.0001850128173828125,-27.944618225097656
1743581868.0004735,-0.14206800605589426,-0.0,"[174.0, 185.0, 181.0, 156.0, 154.0, 154.0, 156.0, 181.0, 185.0, 174.0]",0.20406849682331085,-0.07103399932384491,0.000457763671875,-0.0001850128173828125,-27.940536499023438
1743581868.0207987,-0.14206800605589426,-0.0,"[174.0, 185.0, 181.0, 156.0, 154.0, 154.0, 156.0, 181.0, 185.0, 174.0]",0.08116596937179565,-0.07103399932384491,0.0003662109375,-0.00018310546875,-27.93891143798828
1743581868.0399454,-0.14206800605589426,-0.0,"[174.0, 185.0, 181.0, 156.0, 154.0, 154.0, 156.0, 181.0, 185.0, 174.0]",0.19073320925235748,-0.07103399932384491,0.00054931640625,-0.00018310546875,-27.942726135253906
1743581868.059252,-0.14206800605589426,-0.0,"[174.0, 185.0, 181.0, 156.0, 154.0, 154.0, 156.0, 181.0, 185.0, 174.0]",0.12802551686763763,-0.07103399932384491,0.00067138671875,-0.00018310546875,-27.945289611816406
1743581868.0794876,-0.14206800605589426,-0.0,"[174.0, 185.0, 181.0, 156.0, 154.0, 154.0, 156.0, 181.0, 185.0, 174.0]",0.13177280128002167,-0.07103399932384491,0.000579833984375,-0.00018310546875,-27.942657470703125
1743581868.099551,-0.14206800605589426,-0.0,"[174.0, 185.0, 181.0, 156.0, 154.0, 154.0, 156.0, 181.0, 185.0, 174.0]",0.12651249766349792,-0.07103399932384491,0.00067138671875,-0.00018310546875,-27.9451904296875
1743581868.1206422,-0.14206800605589426,-0.0,"[174.0, 185.0, 181.0, 156.0, 154.0, 154.0, 156.0, 181.0, 185.0, 174.0]",0.1589507758617401,-0.07103399932384491,0.00054931640625,-0.00018310546875,-27.942001342773438
1743581868.1398594,-0.14206800605589426,-0.0,"[174.0, 185.0, 181.0, 156.0, 154.0, 154.0, 156.0, 181.0, 185.0, 174.0]",0.05477394163608551,-0.07103399932384491,0.00048828125,-0.0001811981201171875,-27.94091033935547
1743581868.1599872,-0.14206800605589426,-0.0,"[174.0, 185.0, 181.0, 156.0, 154.0, 154.0, 156.0, 181.0, 185.0, 174.0]",0.17935186624526978,-0.07103399932384491,0.000640869140625,-0.0001811981201171875,-27.944496154785156
1743581868.1800458,-0.14206800605589426,-0.0,"[174.0, 185.0, 181.0, 156.0, 154.0, 154.0, 156.0, 181.0, 185.0, 174.0]",0.1290198117494583,-0.07103399932384491,0.000762939453125,-0.0001811981201171875,-27.94708251953125
1743581868.1997387,-0.14206800605589426,-0.0,"[174.0, 185.0, 181.0, 156.0, 154.0, 154.0, 156.0, 181.0, 185.0, 174.0]",0.12575460970401764,-0.07103399932384491,0.00067138671875,-0.0001811981201171875,-27.944564819335938
1743581868.2204387,-0.14206800605589426,-0.0,"[174.0, 185.0, 181.0, 156.0, 154.0, 154.0, 156.0, 181.0, 185.0, 174.0]",0.18997108936309814,-0.07103399932384491,0.0008544921875,-0.0001811981201171875,-27.9483642578125
1743581868.2396975,-0.14206800605589426,-0.0,"[174.0, 185.0, 181.0, 156.0, 154.0, 154.0, 156.0, 181.0, 185.0, 174.0]",0.12905476987361908,-0.07103399932384491,0.0009765625,-0.0001811981201171875,-27.950950622558594
1743581868.2592435,-0.14206800605589426,-0.0,"[174.0, 185.0, 181.0, 156.0, 154.0, 154.0, 156.0, 181.0, 185.0, 174.0]",0.12650683522224426,-0.07103399932384491,0.000885009765625,-0.000179290771484375,-27.94841766357422
1743581868.279227,-0.14206800605589426,-0.0,"[174.0, 185.0, 181.0, 156.0, 154.0, 154.0, 156.0, 181.0, 185.0, 174.0]",0.18484672904014587,-0.07103399932384491,0.00103759765625,-0.000179290771484375,-27.952117919921875
1743581868.2998059,-0.14206800605589426,-0.0,"[174.0, 185.0, 181.0, 156.0, 154.0, 154.0, 156.0, 181.0, 185.0, 174.0]",0.13196422159671783,-0.07103399932384491,0.00115966796875,-0.000179290771484375,-27.954757690429688
1743581868.3188548,-0.14206800605589426,-0.0,"[174.0, 185.0, 181.0, 156.0, 154.0, 154.0, 156.0, 181.0, 185.0, 174.0]",0.1091470941901207,-0.07103399932384491,0.0010986328125,-0.000179290771484375,-27.95257568359375
1743581868.3392255,-0.14206800605589426,-0.0,"[174.0, 185.0, 181.0, 156.0, 154.0, 154.0, 156.0, 181.0, 185.0, 174.0]",0.1797005981206894,-0.07103399932384491,0.001251220703125,-0.000179290771484375,-27.9561767578125
1743581868.3592622,-0.14206800605589426,0.15816823644040273,"[174.0, 185.0, 181.0, 156.0, 154.0, 154.0, 156.0, 181.0, 185.0, 174.0]",0.12886501848697662,-0.07103399932384491,0.001373291015625,-0.000179290771484375,-27.958755493164062
1743581868.3804622,-0.14206800605589426,0.2620980837934394,"[174.0, 185.0, 181.0, 156.0, 154.0, 154.0, 156.0, 181.0, 185.0, 174.0]",0.12601083517074585,-0.07103399932384491,0.00128173828125,-0.000179290771484375,-27.95623016357422
1743581868.4013112,-0.14206800605589426,0.2903076137892637,"[174.0, 185.0, 181.0, 156.0, 154.0, 154.0, 156.0, 181.0, 185.0, 174.0]",0.0887356847524643,-0.07103399932384491,0.00091552734375,-0.000179290771484375,-27.957969665527344
1743581868.4207742,-0.14206800605589426,0.3289101285203916,"[174.0, 185.0, 181.0, 156.0, 154.0, 154.0, 156.0, 181.0, 185.0, 174.0]",0.07164628058671951,-0.07103399932384491,-0.000457763671875,-0.000179290771484375,-27.95843505859375
1743581868.4399137,-0.14206800605589426,0.42764348350577647,"[174.0, 185.0, 181.0, 156.0, 154.0, 154.0, 156.0, 181.0, 185.0, 174.0]",0.153294175863266,-0.07103399932384491,-0.002960205078125,-0.000179290771484375,-27.956695556640625
1743581868.4591472,-0.14206800605589426,0.476638982972208,"[174.0, 185.0, 181.0, 156.0, 154.0, 154.0, 156.0, 181.0, 185.0, 174.0]",0.1895194798707962,-0.07103399932384491,-0.006744384765625,-0.000179290771484375,-27.956527709960938
1743581868.4794495,-0.14206800605589426,0.5234074142810745,"[174.0, 185.0, 181.0, 156.0, 154.0, 154.0, 156.0, 181.0, 185.0, 174.0]",0.22323814034461975,-0.07103399932384491,-0.011199951171875,-0.000179290771484375,-27.956214904785156
1743581868.5001383,-0.14206800605589426,0.6577738597875006,"[174.0, 185.0, 181.0, 156.0, 154.0, 154.0, 156.0, 181.0, 185.0, 174.0]",0.3229038715362549,-0.07103399932384491,-0.017669677734375,-0.000179290771484375,-27.956268310546875
1743581868.5195904,-0.14206800605589426,0.7260706166194961,"[174.0, 185.0, 181.0, 156.0, 154.0, 154.0, 156.0, 181.0, 185.0, 174.0]",0.3772068917751312,-0.07103399932384491,-0.02520751953125,-0.000179290771484375,-27.95630645751953
1743581868.539833,-0.14206800605589426,0.8344546002876629,"[174.0, 185.0, 181.0, 156.0, 154.0, 154.0, 156.0, 181.0, 185.0, 174.0]",0.46470245718955994,-0.07103399932384491,-0.034515380859375,-0.000179290771484375,-27.95654296875
1743581868.559698,-0.14206800605589426,1.031178954205911,"[174.0, 185.0, 181.0, 156.0, 154.0, 154.0, 156.0, 181.0, 185.0, 174.0]",0.5815542936325073,-0.07103399932384491,-0.046142578125,-0.000179290771484375,-27.956832885742188
1743581868.5795174,-0.14206800605589426,1.031178954205911,"[174.0, 185.0, 181.0, 156.0, 154.0, 154.0, 156.0, 181.0, 185.0, 174.0]",0.7112268805503845,-0.07103399932384491,-0.06036376953125,-0.000179290771484375,-27.957176208496094
1743581868.6015608,-0.14206800605589426,1.031178954205911,"[174.0, 185.0, 181.0, 156.0, 154.0, 154.0, 156.0, 181.0, 185.0, 174.0]",0.8736287355422974,-0.07103399932384491,-0.07781982421875,-0.000179290771484375,-27.957618713378906
1743581868.6210613,-0.14206800605589426,1.031178954205911,"[174.0, 185.0, 181.0, 156.0, 154.0, 154.0, 156.0, 181.0, 185.0, 174.0]",0.95685875415802,-0.07103399932384491,-0.096954345703125,-0.000179290771484375,-27.958099365234375
1743581868.6399212,-0.14206800605589426,1.031178954205911,"[174.0, 185.0, 181.0, 156.0, 154.0, 154.0, 156.0, 181.0, 185.0, 174.0]",1.1200435161590576,-0.07103399932384491,-0.119354248046875,-0.000179290771484375,-27.958694458007812
1743581868.659693,-0.14206800605589426,1.031178954205911,"[174.0, 185.0, 181.0, 156.0, 154.0, 154.0, 156.0, 181.0, 185.0, 174.0]",1.236272931098938,-0.07103399932384491,-0.144073486328125,-0.000179290771484375,-27.9593505859375
1743581868.6791189,-0.14206800605589426,1.031178954205911,"[174.0, 185.0, 181.0, 156.0, 154.0, 154.0, 156.0, 181.0, 185.0, 174.0]",1.3877184391021729,-0.07103399932384491,-0.17181396484375,-0.000179290771484375,-27.960098266601562
1743581868.7014537,-0.14206800605589426,1.031178954205911,"[174.0, 185.0, 181.0, 156.0, 154.0, 154.0, 156.0, 181.0, 185.0, 174.0]",1.5012569427490234,-0.07103399932384491,-0.201812744140625,-0.000179290771484375,-27.9609375
1743581868.7214968,-0.14206800605589426,1.031178954205911,"[174.0, 185.0, 181.0, 156.0, 154.0, 154.0, 156.0, 181.0, 185.0, 174.0]",1.6333869695663452,-0.07103399932384491,-0.234466552734375,-0.000179290771484375,-27.96185302734375
1743581868.7417703,-0.14206800605589426,1.031178954205911,"[174.0, 185.0, 181.0, 156.0, 154.0, 154.0, 156.0, 181.0, 185.0, 174.0]",1.783238410949707,-0.07103399932384491,-0.270111083984375,-0.0001811981201171875,-27.962852478027344
1743581868.761183,-0.14206800605589426,1.031178954205911,"[174.0, 185.0, 181.0, 156.0, 155.0, 154.0, 156.0, 181.0, 185.0, 174.0]",1.9158909320831299,-0.07103399932384491,-0.30841064453125,-0.0001811981201171875,-27.96392822265625
1743581868.7833984,-0.14206800605589426,1.031178954205911,"[174.0, 185.0, 181.0, 156.0, 155.0, 154.0, 156.0, 181.0, 185.0, 174.0]",2.0397121906280518,-0.07103399932384491,-0.349212646484375,-0.0001811981201171875,-27.96514129638672
1743581868.8043673,-0.14206800605589426,1.031178954205911,"[174.0, 185.0, 181.0, 156.0, 155.0, 154.0, 156.0, 181.0, 185.0, 174.0]",2.1855273246765137,-0.07103399932384491,-0.39288330078125,-0.0001811981201171875,-27.966445922851562
1743581868.823663,-0.14206800605589426,1.031178954205911,"[174.0, 185.0, 181.0, 156.0, 155.0, 154.0, 156.0, 181.0, 185.0, 174.0]",2.311624526977539,-0.07103399932384491,-0.439117431640625,-0.0001811981201171875,-27.967864990234375
1743581868.843516,-0.14206800605589426,1.031178954205911,"[174.0, 185.0, 181.0, 156.0, 155.0, 154.0, 156.0, 181.0, 185.0, 174.0]",2.4488468170166016,-0.07103399932384491,-0.488067626953125,-0.0001811981201171875,-27.969406127929688
1743581868.8613904,-0.14206800605589426,1.031178954205911,"[174.0, 185.0, 181.0, 156.0, 155.0, 154.0, 156.0, 181.0, 185.0, 174.0]",2.5618882179260254,-0.07103399932384491,-0.539276123046875,-0.0001811981201171875,-27.971038818359375
1743581868.8816507,-0.14206800605589426,1.031178954205911,"[174.0, 185.0, 181.0, 157.0, 155.0, 154.0, 156.0, 181.0, 185.0, 174.0]",2.6935038566589355,-0.07103399932384491,-0.593109130859375,-0.0001811981201171875,-27.972808837890625
1743581868.902499,-0.14206800605589426,1.031178954205911,"[174.0, 185.0, 181.0, 157.0, 155.0, 154.0, 156.0, 180.0, 185.0, 174.0]",2.845669746398926,-0.07103399932384491,-0.649993896484375,-0.0001811981201171875,-27.97473907470703
1743581868.9225514,-0.14206800605589426,1.031178954205911,"[174.0, 185.0, 181.0, 157.0, 155.0, 154.0, 156.0, 180.0, 185.0, 174.0]",2.967994213104248,-0.07103399932384491,-0.709320068359375,-0.0001811981201171875,-27.97679901123047
1743581868.9420793,-0.14206800605589426,1.031178954205911,"[174.0, 185.0, 181.0, 157.0, 155.0, 154.0, 156.0, 180.0, 185.0, 174.0]",3.095637321472168,-0.07103399932384491,-0.77117919921875,-0.0001811981201171875,-27.97899627685547
1743581868.9615312,-0.14206800605589426,1.031178954205911,"[174.0, 185.0, 181.0, 157.0, 155.0, 153.0, 156.0, 180.0, 185.0, 174.0]",3.2304534912109375,-0.07103399932384491,-0.83575439453125,-0.0001811981201171875,-27.981353759765625
1743581868.9839342,-0.14206800605589426,1.031178954205911,"[174.0, 185.0, 181.0, 158.0, 155.0, 153.0, 156.0, 179.0, 185.0, 174.0]",3.3739917278289795,-0.07103399932384491,-0.9031982421875,-0.0001811981201171875,-27.98388671875
1743581869.0015576,-0.14206800605589426,1.031178954205911,"[174.0, 185.0, 183.0, 158.0, 155.0, 153.0, 155.0, 179.0, 185.0, 174.0]",3.4909448623657227,-0.07103399932384491,-0.97296142578125,-0.0001811981201171875,-27.986572265625
1743581869.0231116,-0.14206800605589426,1.031178954205911,"[174.0, 185.0, 183.0, 158.0, 155.0, 153.0, 155.0, 179.0, 185.0, 174.0]",3.6412150859832764,-0.07103399932384491,-1.04571533203125,-0.0001811981201171875,-27.98944854736328
1743581869.0421624,-0.14206800605589426,1.031178954205911,"[174.0, 185.0, 183.0, 158.0, 155.0, 153.0, 155.0, 179.0, 185.0, 174.0]",3.7575080394744873,-0.07103399932384491,-1.120819091796875,-0.0001811981201171875,-27.992477416992188
