timestamp,steering_input,acceleration_input,raycasts,speed,steering,position_x,position_y,position_z
1743610365.8204906,0.0,-0.0,"[174.0, 185.0, 227.0, 295.0, 259.0, 259.0, 295.0, 227.0, 185.0, 174.0]",0.0,0.0,0.0,0.10000038146972656,-27.93000030517578
1743610366.0690765,0.0,-0.0,"[174.0, 185.0, 178.0, 155.0, 154.0, 154.0, 156.0, 179.0, 185.0, 174.0]",0.1431841105222702,0.0,0.0,0.097137451171875,-27.93000030517578
1743610366.1207237,0.0,-0.0,"[174.0, 185.0, 178.0, 155.0, 154.0, 154.0, 156.0, 179.0, 185.0, 174.0]",0.2360968291759491,0.0,0.0,0.09241485595703125,-27.93000030517578
1743610366.1244419,0.0,-0.0,"[174.0, 185.0, 178.0, 155.0, 154.0, 154.0, 156.0, 179.0, 185.0, 174.0]",0.30777978897094727,0.0,0.0,0.08625984191894531,-27.93000030517578
1743610366.1585236,0.0,-0.0,"[174.0, 185.0, 179.0, 155.0, 154.0, 154.0, 156.0, 179.0, 185.0, 174.0]",0.36006540060043335,0.0,0.0,0.07905769348144531,-27.93000030517578
1743610366.1625843,0.0,-0.0,"[174.0, 185.0, 179.0, 155.0, 154.0, 154.0, 156.0, 179.0, 185.0, 174.0]",0.3949472904205322,0.0,0.0,0.07115936279296875,-27.93000030517578
1743610366.1966262,0.0,-0.0,"[174.0, 185.0, 179.0, 155.0, 154.0, 154.0, 156.0, 180.0, 185.0, 174.0]",0.41450235247612,0.0,0.0,0.06286811828613281,-27.93000030517578
1743610366.1995125,0.0,-0.0,"[174.0, 185.0, 179.0, 155.0, 154.0, 154.0, 156.0, 180.0, 185.0, 174.0]",0.42082807421684265,0.0,0.0,0.05445289611816406,-27.93000030517578
1743610366.231115,0.0,-0.0,"[174.0, 185.0, 179.0, 155.0, 154.0, 154.0, 156.0, 181.0, 185.0, 174.0]",0.41598936915397644,0.0,0.0,0.04613304138183594,-27.93000030517578
1743610366.234271,0.0,-0.0,"[174.0, 185.0, 179.0, 155.0, 154.0, 154.0, 156.0, 181.0, 185.0, 174.0]",0.4019714593887329,0.0,0.0,0.03809356689453125,-27.93000030517578
1743610366.2691107,0.0,-0.0,"[174.0, 185.0, 179.0, 156.0, 154.0, 154.0, 156.0, 181.0, 185.0, 174.0]",0.3806484043598175,0.0,0.0,0.03047943115234375,-27.93000030517578
1743610366.3079765,0.0,-0.0,"[174.0, 185.0, 180.0, 156.0, 154.0, 154.0, 156.0, 181.0, 185.0, 174.0]",0.3537571132183075,0.0,0.0,0.023405075073242188,-27.93000030517578
1743610366.310905,0.0,-0.0,"[174.0, 185.0, 180.0, 156.0, 154.0, 154.0, 156.0, 181.0, 185.0, 174.0]",0.3228750228881836,0.0,0.0,0.016946792602539062,-27.92999267578125
1743610366.3434143,0.0,-0.0,"[174.0, 185.0, 180.0, 156.0, 154.0, 154.0, 156.0, 181.0, 185.0, 174.0]",0.28941938281059265,0.0,0.0,0.011159896850585938,-27.930038452148438
1743610366.3466465,0.0,-0.0,"[174.0, 185.0, 180.0, 156.0, 154.0, 154.0, 156.0, 181.0, 185.0, 174.0]",0.2562173306941986,0.0,0.0,0.0060672760009765625,-27.929466247558594
1743610366.3775816,0.0,-0.0,"[174.0, 185.0, 181.0, 156.0, 154.0, 154.0, 156.0, 181.0, 185.0, 174.0]",0.34839218854904175,0.0,0.0,0.0016765594482421875,-27.93487548828125
1743610366.381607,0.0,-0.0,"[174.0, 185.0, 181.0, 156.0, 154.0, 154.0, 156.0, 181.0, 185.0, 174.0]",0.255353718996048,0.0,0.0,-0.0020236968994140625,-27.931358337402344
1743610366.4134085,0.0,-0.0,"[174.0, 185.0, 181.0, 156.0, 154.0, 154.0, 156.0, 181.0, 185.0, 174.0]",0.2815416157245636,0.0,0.0,-0.0050601959228515625,-27.926612854003906
1743610366.417929,0.0,-0.0,"[174.0, 185.0, 181.0, 156.0, 154.0, 154.0, 156.0, 181.0, 185.0, 174.0]",0.15634490549564362,0.0,0.0,-0.007472991943359375,-27.928604125976562
1743610366.4498217,0.0,-0.0,"[174.0, 185.0, 181.0, 156.0, 154.0, 154.0, 156.0, 181.0, 185.0, 174.0]",0.27455902099609375,0.0,0.0,-0.009307861328125,-27.923431396484375
1743610366.4529476,0.0,-0.0,"[174.0, 185.0, 181.0, 156.0, 154.0, 154.0, 156.0, 181.0, 185.0, 174.0]",0.2245660424232483,0.0,0.0,-0.010616302490234375,-27.92772674560547
1743610366.4861612,0.0,-0.0,"[174.0, 185.0, 181.0, 156.0, 154.0, 154.0, 156.0, 181.0, 185.0, 174.0]",0.08891011029481888,0.0,0.0,-0.011455535888671875,-27.929290771484375
1743610366.5197093,0.0,-0.0,"[174.0, 185.0, 181.0, 156.0, 154.0, 154.0, 156.0, 181.0, 185.0, 174.0]",0.1896505206823349,0.0,0.0,-0.011884689331054688,-27.925521850585938
1743610366.5245655,0.0,-0.0,"[174.0, 185.0, 181.0, 156.0, 154.0, 154.0, 156.0, 181.0, 185.0, 174.0]",0.2066076397895813,0.0,0.0,-0.011960983276367188,-27.92139434814453
1743610366.5573618,0.0,-0.0,"[174.0, 185.0, 181.0, 156.0, 154.0, 154.0, 156.0, 181.0, 185.0, 174.0]",0.12101753056049347,0.0,0.0,-0.011743545532226562,-27.918983459472656
1743610366.5618072,0.0,-0.0,"[174.0, 185.0, 181.0, 156.0, 154.0, 154.0, 156.0, 181.0, 185.0, 174.0]",0.19259010255336761,0.0,0.0,-0.011285781860351562,-27.922805786132812
1743610366.5941942,0.0,-0.0,"[174.0, 185.0, 181.0, 156.0, 154.0, 154.0, 156.0, 181.0, 185.0, 174.0]",0.17800575494766235,0.0,0.0,-0.010637283325195312,-27.926307678222656
1743610366.59754,0.0,-0.0,"[174.0, 185.0, 181.0, 156.0, 154.0, 154.0, 156.0, 181.0, 185.0, 174.0]",0.16013549268245697,0.0,0.0,-0.009847640991210938,-27.929412841796875
1743610366.6282995,0.0,-0.0,"[174.0, 185.0, 181.0, 156.0, 154.0, 154.0, 156.0, 181.0, 185.0, 174.0]",0.07219173014163971,0.0,0.0,-0.0089569091796875,-27.9305419921875
1743610366.6613238,0.0,-0.0,"[174.0, 185.0, 181.0, 156.0, 154.0, 154.0, 156.0, 181.0, 185.0, 174.0]",0.1852148175239563,0.0,0.0,-0.008007049560546875,-27.926963806152344
1743610366.664426,0.0,-0.0,"[174.0, 185.0, 181.0, 156.0, 154.0, 154.0, 156.0, 181.0, 185.0, 174.0]",0.15632963180541992,0.0,0.0,-0.00702667236328125,-27.923995971679688
1743610366.7072682,0.0,-0.0,"[174.0, 185.0, 181.0, 156.0, 154.0, 154.0, 156.0, 181.0, 185.0, 174.0]",0.051327187567949295,0.0,0.0,-0.0060482025146484375,-27.923690795898438
1743610366.7132914,0.0,-0.0,"[174.0, 185.0, 181.0, 156.0, 154.0, 154.0, 156.0, 181.0, 185.0, 174.0]",0.15988554060459137,0.0,0.0,-0.0050907135009765625,-27.926742553710938
1743610366.7543907,0.0,-0.0,"[174.0, 185.0, 181.0, 156.0, 154.0, 154.0, 156.0, 181.0, 185.0, 174.0]",0.05791441351175308,0.0,0.0,-0.004177093505859375,-27.927452087402344
1743610366.758905,0.0,-0.0,"[174.0, 185.0, 181.0, 156.0, 154.0, 154.0, 156.0, 181.0, 185.0, 174.0]",0.19991730153560638,0.0,0.0,-0.0033206939697265625,-27.923545837402344
1743610366.7923603,0.0,-0.0,"[174.0, 185.0, 180.0, 156.0, 154.0, 154.0, 156.0, 181.0, 185.0, 174.0]",0.12208718806505203,0.0,0.0,-0.0025310516357421875,-27.921234130859375
1743610366.796618,0.0,-0.0,"[174.0, 185.0, 180.0, 156.0, 154.0, 154.0, 156.0, 181.0, 185.0, 174.0]",0.18460233509540558,0.0,0.0,-0.0018177032470703125,-27.92485809326172
1743610366.7995687,0.0,-0.0,"[174.0, 185.0, 180.0, 156.0, 154.0, 154.0, 156.0, 181.0, 185.0, 174.0]",0.13353228569030762,0.0,0.0,-0.0011844635009765625,-27.927452087402344
1743610366.8406508,0.0,-0.0,"[174.0, 185.0, 181.0, 156.0, 154.0, 154.0, 156.0, 181.0, 185.0, 174.0]",0.11446059495210648,0.0,3.0517578125e-05,-0.00063323974609375,-27.92523193359375
1743610366.8445005,0.0,-0.0,"[174.0, 185.0, 181.0, 156.0, 154.0, 154.0, 156.0, 181.0, 185.0, 174.0]",0.18039268255233765,0.0,3.0517578125e-05,-0.0001621246337890625,-27.928802490234375
1743610366.8826265,0.0,-0.0,"[174.0, 185.0, 181.0, 156.0, 154.0, 154.0, 156.0, 181.0, 185.0, 174.0]",0.12967412173748016,0.0,3.0517578125e-05,0.0002288818359375,-27.931365966796875
1743610366.8869355,0.0,-0.0,"[174.0, 185.0, 181.0, 156.0, 154.0, 154.0, 156.0, 181.0, 185.0, 174.0]",0.1237604022026062,0.0,3.0517578125e-05,0.000545501708984375,-27.928909301757812
1743610366.919916,0.0,-0.0,"[174.0, 185.0, 181.0, 156.0, 154.0, 154.0, 156.0, 181.0, 185.0, 174.0]",0.1935333013534546,0.0,3.0517578125e-05,0.0007915496826171875,-27.932777404785156
1743610366.9233265,0.0,-0.0,"[174.0, 185.0, 181.0, 156.0, 154.0, 154.0, 156.0, 181.0, 185.0, 174.0]",0.12180628627538681,0.0,6.103515625e-05,0.000972747802734375,-27.935203552246094
1743610366.9562917,0.0,-0.0,"[174.0, 185.0, 181.0, 156.0, 154.0, 154.0, 156.0, 181.0, 185.0, 174.0]",0.16159525513648987,0.0,6.103515625e-05,0.0010967254638671875,-27.931976318359375
1743610366.9600809,0.0,-0.0,"[174.0, 185.0, 181.0, 156.0, 154.0, 154.0, 156.0, 181.0, 185.0, 174.0]",0.0772232785820961,0.0,6.103515625e-05,0.0011692047119140625,-27.930435180664062
1743610366.9912417,0.0,-0.0,"[174.0, 185.0, 181.0, 156.0, 154.0, 154.0, 156.0, 181.0, 185.0, 174.0]",0.184142604470253,0.0,6.103515625e-05,0.00119781494140625,-27.934112548828125
1743610366.995184,0.0,-0.0,"[174.0, 185.0, 181.0, 156.0, 154.0, 154.0, 156.0, 181.0, 185.0, 174.0]",0.1367751508951187,0.0,6.103515625e-05,0.0011882781982421875,-27.936851501464844
1743610367.0274026,0.0,-0.0,"[174.0, 185.0, 181.0, 156.0, 154.0, 154.0, 156.0, 181.0, 185.0, 174.0]",0.06419677287340164,0.0,6.103515625e-05,0.001148223876953125,-27.935569763183594
1743610367.0620697,0.0,-0.0,"[174.0, 185.0, 181.0, 156.0, 154.0, 154.0, 156.0, 181.0, 185.0, 174.0]",0.1747168004512787,0.0,6.103515625e-05,0.0010833740234375,-27.939064025878906
1743610367.065657,0.0,-0.0,"[174.0, 185.0, 181.0, 156.0, 154.0, 154.0, 156.0, 181.0, 185.0, 174.0]",0.1311485320329666,0.0,9.1552734375e-05,0.00099945068359375,-27.941680908203125
1743610367.1014798,0.0,-0.0,"[174.0, 185.0, 181.0, 156.0, 154.0, 154.0, 156.0, 181.0, 185.0, 174.0]",0.11074256151914597,0.0,9.1552734375e-05,0.0009002685546875,-27.939468383789062
1743610367.1059425,0.0,-0.0,"[174.0, 185.0, 181.0, 156.0, 154.0, 154.0, 156.0, 181.0, 185.0, 174.0]",0.1801898330450058,0.0,9.1552734375e-05,0.00079345703125,-27.943069458007812
1743610367.1389773,0.0,-0.0,"[174.0, 185.0, 181.0, 156.0, 154.0, 154.0, 156.0, 181.0, 185.0, 174.0]",0.14138393104076385,0.0,9.1552734375e-05,0.00067901611328125,-27.945899963378906
1743610367.1432781,0.0,-0.0,"[174.0, 185.0, 181.0, 156.0, 154.0, 154.0, 156.0, 181.0, 185.0, 174.0]",0.0333004854619503,0.0,9.1552734375e-05,0.0005645751953125,-27.94524383544922
1743610367.2528894,0.0,-0.0,"[174.0, 185.0, 181.0, 156.0, 154.0, 154.0, 156.0, 181.0, 185.0, 174.0]",0.19635771214962006,0.0,9.1552734375e-05,0.0004520416259765625,-27.94916534423828
1743610367.2574873,0.0,-0.0,"[174.0, 185.0, 181.0, 156.0, 154.0, 154.0, 156.0, 181.0, 185.0, 174.0]",0.12271545082330704,0.0,0.0001220703125,0.00034332275390625,-27.951614379882812
1743610367.2623076,0.0,-0.0,"[174.0, 185.0, 181.0, 156.0, 154.0, 154.0, 156.0, 181.0, 185.0, 174.0]",0.15798240900039673,0.0,0.0001220703125,0.0002384185791015625,-27.948455810546875
1743610367.2666857,0.0,-0.0,"[174.0, 185.0, 181.0, 156.0, 154.0, 154.0, 156.0, 181.0, 185.0, 174.0]",0.0622306689620018,0.0,0.0001220703125,0.0001430511474609375,-27.947219848632812
1743610367.2708743,0.0,-0.0,"[174.0, 185.0, 181.0, 156.0, 154.0, 154.0, 156.0, 181.0, 185.0, 174.0]",0.17492303252220154,0.0,0.0001220703125,5.53131103515625e-05,-27.950714111328125
1743610367.2752988,0.0,-0.0,"[174.0, 185.0, 181.0, 156.0, 154.0, 154.0, 156.0, 181.0, 185.0, 174.0]",0.13653863966464996,0.0,0.0001220703125,-2.288818359375e-05,-27.953445434570312
1743610367.315736,0.0,-0.0,"[174.0, 185.0, 181.0, 156.0, 154.0, 154.0, 156.0, 181.0, 185.0, 174.0]",0.0718504786491394,0.0,0.0001220703125,-9.34600830078125e-05,-27.952011108398438
1743610367.3213217,0.0,-0.0,"[174.0, 185.0, 181.0, 156.0, 154.0, 154.0, 156.0, 181.0, 185.0, 174.0]",0.17569200694561005,0.0,0.0001220703125,-0.000152587890625,-27.955520629882812
1743610367.3256416,0.0,-0.0,"[174.0, 185.0, 181.0, 156.0, 154.0, 154.0, 156.0, 181.0, 185.0, 174.0]",0.13826613128185272,0.0,0.000152587890625,-0.000202178955078125,-27.958290100097656
1743610367.357741,0.0,-0.0,"[174.0, 185.0, 181.0, 156.0, 154.0, 154.0, 156.0, 181.0, 185.0, 174.0]",0.05745533108711243,0.0,0.000152587890625,-0.000244140625,-27.957138061523438
1743610367.3622448,0.0,-0.0,"[174.0, 185.0, 181.0, 156.0, 154.0, 154.0, 156.0, 181.0, 185.0, 174.0]",0.1775936484336853,0.0,0.000152587890625,-0.000278472900390625,-27.960693359375
1743610367.396079,0.0,-0.0,"[174.0, 185.0, 181.0, 156.0, 154.0, 154.0, 156.0, 181.0, 185.0, 174.0]",0.14114311337471008,0.0,0.000152587890625,-0.0003032684326171875,-27.963516235351562
1743610367.4006946,0.0,-0.0,"[174.0, 185.0, 181.0, 156.0, 154.0, 154.0, 156.0, 181.0, 185.0, 174.0]",0.034520473331213,0.0,0.000152587890625,-0.0003204345703125,-27.96282196044922
1743610367.4346857,0.0,-0.0,"[174.0, 185.0, 181.0, 156.0, 154.0, 154.0, 156.0, 181.0, 185.0, 174.0]",0.20195074379444122,0.0,0.00018310546875,-0.000331878662109375,-27.96686553955078
1743610367.4395041,0.0,-0.0,"[174.0, 185.0, 181.0, 156.0, 154.0, 154.0, 156.0, 181.0, 185.0, 174.0]",0.09901262819766998,0.0,0.00018310546875,-0.000339508056640625,-27.968841552734375
1743610367.476537,0.0,-0.0,"[174.0, 185.0, 181.0, 156.0, 154.0, 154.0, 156.0, 181.0, 185.0, 174.0]",0.20315459370613098,0.0,0.00018310546875,-0.000339508056640625,-27.96478271484375
1743610367.4829075,0.0,-0.0,"[174.0, 185.0, 181.0, 156.0, 154.0, 154.0, 156.0, 181.0, 185.0, 174.0]",0.09250973165035248,0.0,0.000152587890625,-0.0003376007080078125,-27.962928771972656
1743610367.5191936,0.0,-0.0,"[174.0, 185.0, 181.0, 156.0, 154.0, 154.0, 156.0, 181.0, 185.0, 174.0]",0.21048150956630707,0.0,0.00018310546875,-0.000331878662109375,-27.967140197753906
1743610367.5230365,0.0,-0.0,"[174.0, 185.0, 181.0, 156.0, 154.0, 154.0, 156.0, 181.0, 185.0, 174.0]",0.054807256907224655,0.0,0.00018310546875,-0.0003223419189453125,-27.968238830566406
1743610367.5564384,0.0,-0.0,"[174.0, 185.0, 181.0, 156.0, 154.0, 154.0, 156.0, 181.0, 185.0, 174.0]",0.18342110514640808,0.0,0.00018310546875,-0.00031280517578125,-27.964569091796875
1743610367.5608175,0.0,-0.0,"[174.0, 185.0, 181.0, 156.0, 154.0, 154.0, 156.0, 181.0, 185.0, 174.0]",0.14437030255794525,0.0,0.000152587890625,-0.0002994537353515625,-27.961685180664062
1743610367.5943294,0.0,-0.0,"[174.0, 185.0, 181.0, 156.0, 154.0, 154.0, 156.0, 181.0, 185.0, 174.0]",0.010325106792151928,0.0,0.000152587890625,-0.0002880096435546875,-27.961883544921875
1743610367.5986488,0.0,-0.0,"[174.0, 185.0, 181.0, 156.0, 154.0, 154.0, 156.0, 181.0, 185.0, 174.0]",0.08798801898956299,0.0,0.000152587890625,-0.000274658203125,-27.960128784179688
1743610367.6319468,0.0,-0.0,"[174.0, 185.0, 181.0, 156.0, 154.0, 154.0, 156.0, 181.0, 185.0, 174.0]",0.2099931389093399,0.0,0.00018310546875,-0.0002613067626953125,-27.964324951171875
1743610367.63662,0.0,-0.0,"[174.0, 185.0, 181.0, 156.0, 154.0, 154.0, 156.0, 181.0, 185.0, 174.0]",0.05686913803219795,0.0,0.00018310546875,-0.000247955322265625,-27.96546173095703
1743610367.672441,0.0,-0.0,"[174.0, 185.0, 181.0, 156.0, 154.0, 154.0, 156.0, 181.0, 185.0, 174.0]",0.17966091632843018,0.0,0.00018310546875,-0.0002346038818359375,-27.961868286132812
1743610367.7071044,0.0,-0.0,"[174.0, 185.0, 181.0, 156.0, 154.0, 154.0, 156.0, 181.0, 185.0, 174.0]",0.14235873520374298,0.0,0.000152587890625,-0.0002231597900390625,-27.959022521972656
1743610367.7134836,0.0,-0.0,"[174.0, 185.0, 181.0, 156.0, 154.0, 154.0, 156.0, 181.0, 185.0, 174.0]",0.024575751274824142,0.0,0.000152587890625,-0.000213623046875,-27.959518432617188
1743610367.7477934,0.0,-0.0,"[174.0, 185.0, 181.0, 156.0, 154.0, 154.0, 156.0, 181.0, 185.0, 174.0]",0.1880163848400116,0.0,0.000152587890625,-0.0002040863037109375,-27.95575714111328
1743610367.7521737,0.0,-0.0,"[174.0, 185.0, 181.0, 156.0, 154.0, 154.0, 156.0, 181.0, 185.0, 174.0]",0.14146263897418976,0.0,0.000152587890625,-0.000194549560546875,-27.952926635742188
1743610367.7844923,0.0,-0.0,"[174.0, 185.0, 181.0, 156.0, 154.0, 154.0, 156.0, 181.0, 185.0, 174.0]",0.031307123601436615,0.0,0.000152587890625,-0.000186920166015625,-27.95355224609375
1743610367.7890992,0.0,-0.0,"[174.0, 185.0, 181.0, 156.0, 154.0, 154.0, 156.0, 181.0, 185.0, 174.0]",0.19213135540485382,0.0,0.000152587890625,-0.0001811981201171875,-27.94970703125
1743610367.8228242,0.0,-0.0,"[174.0, 185.0, 181.0, 156.0, 154.0, 154.0, 156.0, 181.0, 185.0, 174.0]",0.1337447315454483,0.0,0.0001220703125,-0.00017547607421875,-27.947036743164062
1743610367.830388,0.0,-0.0,"[174.0, 185.0, 181.0, 156.0, 154.0, 154.0, 156.0, 181.0, 185.0, 174.0]",0.09263762831687927,0.0,0.0001220703125,-0.000171661376953125,-27.948883056640625
1743610367.885615,0.0,-0.0,"[174.0, 185.0, 227.0, 295.0, 259.0, 161.0, 182.0, 190.0, 185.0, 174.0]",0.0,0.0,0.0,0.10000038146972656,-27.93000030517578
1743610367.8916337,0.0,-0.0,"[174.0, 185.0, 227.0, 295.0, 259.0, 161.0, 182.0, 190.0, 185.0, 174.0]",0.8975223302841187,0.0,0.0,0.08205032348632812,-27.92999267578125
1743610367.897554,0.0,-0.0,"[174.0, 185.0, 227.0, 295.0, 259.0, 161.0, 182.0, 190.0, 185.0, 174.0]",0.8460311889648438,0.0,0.0,0.06513023376464844,-27.930160522460938
1743610367.9367044,0.0,-0.0,"[174.0, 185.0, 179.0, 155.0, 154.0, 154.0, 156.0, 181.0, 185.0, 174.0]",0.8366657495498657,0.0,0.0,0.04947471618652344,-27.92424774169922
1743610367.941344,0.0,-0.0,"[174.0, 185.0, 179.0, 155.0, 154.0, 154.0, 156.0, 181.0, 185.0, 174.0]",0.7789051532745361,0.0,0.0,0.035247802734375,-27.93059539794922
1743610367.9463904,0.0,-0.0,"[174.0, 185.0, 179.0, 155.0, 154.0, 154.0, 156.0, 181.0, 185.0, 174.0]",0.7025869488716125,0.0,0.0,0.022552490234375,-27.924575805664062
1743610367.9800806,0.0,-0.0,"[174.0, 185.0, 180.0, 156.0, 154.0, 154.0, 156.0, 181.0, 185.0, 174.0]",0.6213254928588867,0.0,3.0517578125e-05,0.01143646240234375,-27.930130004882812
1743610367.9852178,0.0,-0.0,"[174.0, 185.0, 180.0, 156.0, 154.0, 154.0, 156.0, 181.0, 185.0, 174.0]",0.5341576933860779,0.0,3.0517578125e-05,0.0019016265869140625,-27.925308227539062
1743610368.027227,0.0,-0.0,"[174.0, 185.0, 181.0, 156.0, 154.0, 154.0, 156.0, 181.0, 185.0, 174.0]",0.4386281371116638,0.0,0.0,-0.0060863494873046875,-27.928932189941406
1743610368.032233,0.0,-0.0,"[174.0, 185.0, 181.0, 156.0, 154.0, 154.0, 156.0, 181.0, 185.0, 174.0]",0.3923514187335968,0.0,0.0,-0.01259613037109375,-27.933311462402344
1743610368.073392,0.0,-0.0,"[174.0, 185.0, 181.0, 156.0, 154.0, 154.0, 158.0, 181.0, 185.0, 174.0]",0.3141871392726898,0.0,0.0,-0.017717361450195312,-27.93695068359375
1743610368.079034,0.0,-0.0,"[174.0, 185.0, 181.0, 156.0, 154.0, 154.0, 158.0, 181.0, 185.0, 174.0]",0.30878832936286926,0.0,0.0,-0.021562576293945312,-27.941787719726562
1743610368.1152968,0.0,-0.0,"[174.0, 185.0, 181.0, 156.0, 154.0, 154.0, 158.0, 183.0, 185.0, 174.0]",0.210225909948349,0.0,3.0517578125e-05,-0.024250030517578125,-27.938552856445312
1743610368.1206732,0.0,-0.0,"[174.0, 185.0, 181.0, 156.0, 154.0, 154.0, 158.0, 183.0, 185.0, 174.0]",0.23757967352867126,0.0,3.0517578125e-05,-0.025909423828125,-27.934097290039062
1743610368.125081,0.0,-0.0,"[174.0, 185.0, 181.0, 156.0, 154.0, 154.0, 158.0, 183.0, 185.0, 174.0]",0.08241737633943558,0.0,3.0517578125e-05,-0.026676177978515625,-27.932640075683594
1743610368.158673,0.0,-0.0,"[174.0, 185.0, 181.0, 156.0, 154.0, 154.0, 158.0, 183.0, 185.0, 174.0]",0.18549007177352905,0.0,3.0517578125e-05,-0.026678085327148438,-27.936355590820312
1743610368.1642492,0.0,-0.0,"[174.0, 185.0, 181.0, 156.0, 154.0, 154.0, 158.0, 183.0, 185.0, 174.0]",0.24356213212013245,0.0,3.0517578125e-05,-0.026044845581054688,-27.941177368164062
1743610368.1990023,0.0,-0.0,"[174.0, 185.0, 181.0, 156.0, 154.0, 154.0, 156.0, 181.0, 185.0, 174.0]",0.15066099166870117,0.0,3.0517578125e-05,-0.024896621704101562,-27.938392639160156
1743610368.2037342,0.0,-0.0,"[174.0, 185.0, 181.0, 156.0, 154.0, 154.0, 156.0, 181.0, 185.0, 174.0]",0.10826321691274643,0.0,3.0517578125e-05,-0.023347854614257812,-27.939910888671875
1743610368.2393854,0.0,-0.0,"[174.0, 185.0, 181.0, 156.0, 154.0, 154.0, 156.0, 181.0, 185.0, 174.0]",0.199592724442482,0.0,3.0517578125e-05,-0.021503448486328125,-27.936370849609375
1743610368.244292,0.0,-0.0,"[174.0, 185.0, 181.0, 156.0, 154.0, 154.0, 156.0, 181.0, 185.0, 174.0]",0.20594708621501923,0.0,3.0517578125e-05,-0.019456863403320312,-27.93279266357422
1743610368.2816231,0.0,-0.0,"[174.0, 185.0, 181.0, 156.0, 154.0, 154.0, 156.0, 181.0, 185.0, 174.0]",0.19518820941448212,0.0,3.0517578125e-05,-0.017290115356445312,-27.929550170898438
1743610368.2868679,0.0,-0.0,"[174.0, 185.0, 181.0, 156.0, 154.0, 154.0, 156.0, 181.0, 185.0, 174.0]",0.14259542524814606,0.0,3.0517578125e-05,-0.015077590942382812,-27.927749633789062
1743610368.3212876,0.0,-0.0,"[174.0, 185.0, 181.0, 156.0, 154.0, 154.0, 156.0, 181.0, 185.0, 174.0]",0.2337070256471634,0.0,3.0517578125e-05,-0.012876510620117188,-27.931869506835938
1743610368.3255079,0.0,-0.0,"[174.0, 185.0, 181.0, 156.0, 154.0, 154.0, 156.0, 181.0, 185.0, 174.0]",0.1267269104719162,0.0,3.0517578125e-05,-0.010740280151367188,-27.93323516845703
1743610368.3594437,0.0,-0.0,"[174.0, 185.0, 181.0, 156.0, 154.0, 154.0, 156.0, 181.0, 185.0, 174.0]",0.20157214999198914,0.0,3.0517578125e-05,-0.008707046508789062,-27.92975616455078
1743610368.3639193,0.0,-0.0,"[174.0, 185.0, 181.0, 156.0, 154.0, 154.0, 156.0, 181.0, 185.0, 174.0]",0.14732715487480164,0.0,3.0517578125e-05,-0.0068111419677734375,-27.927505493164062
1743610368.3993275,0.0,-0.0,"[174.0, 185.0, 181.0, 156.0, 154.0, 154.0, 156.0, 181.0, 185.0, 174.0]",0.199229896068573,0.0,3.0517578125e-05,-0.00507354736328125,-27.93109130859375
1743610368.4039977,0.0,-0.0,"[174.0, 185.0, 181.0, 156.0, 154.0, 154.0, 156.0, 181.0, 185.0, 174.0]",0.13817787170410156,0.0,3.0517578125e-05,-0.003509521484375,-27.933364868164062
1743610368.43858,0.0,-0.0,"[174.0, 185.0, 181.0, 156.0, 154.0, 154.0, 156.0, 181.0, 185.0, 174.0]",0.1889256089925766,0.0,3.0517578125e-05,-0.0021266937255859375,-27.929847717285156
1743610368.4429374,0.0,-0.0,"[174.0, 185.0, 181.0, 156.0, 154.0, 154.0, 156.0, 181.0, 185.0, 174.0]",0.12337963283061981,0.0,3.0517578125e-05,-0.0009288787841796875,-27.927688598632812
1743610368.4800336,0.0,-0.0,"[174.0, 185.0, 180.0, 156.0, 154.0, 154.0, 156.0, 181.0, 185.0, 174.0]",0.19040387868881226,0.0,3.0517578125e-05,8.7738037109375e-05,-27.931358337402344
1743610368.4845128,0.0,-0.0,"[174.0, 185.0, 180.0, 156.0, 154.0, 154.0, 156.0, 181.0, 185.0, 174.0]",0.12201587855815887,0.0,3.0517578125e-05,0.000926971435546875,-27.93365478515625
1743610368.5188193,0.0,-0.0,"[174.0, 185.0, 180.0, 156.0, 154.0, 154.0, 156.0, 181.0, 185.0, 174.0]",0.18017254769802094,0.0,3.0517578125e-05,0.001598358154296875,-27.93011474609375
1743610368.5237362,0.0,-0.0,"[174.0, 185.0, 180.0, 156.0, 154.0, 154.0, 156.0, 181.0, 185.0, 174.0]",0.11664114147424698,0.0,3.0517578125e-05,0.002117156982421875,-27.927833557128906
1743610368.5330727,0.0,-0.0,"[174.0, 185.0, 180.0, 156.0, 154.0, 154.0, 156.0, 181.0, 185.0, 174.0]",0.18240100145339966,0.0,3.0517578125e-05,0.0024929046630859375,-27.93146514892578
1743610368.5377378,0.0,-0.0,"[174.0, 185.0, 180.0, 156.0, 154.0, 154.0, 156.0, 181.0, 185.0, 174.0]",0.12219410389661789,0.0,3.0517578125e-05,0.002742767333984375,-27.93389892578125
1743610368.5453656,0.0,-0.0,"[174.0, 185.0, 181.0, 156.0, 154.0, 154.0, 156.0, 181.0, 185.0, 174.0]",0.15685750544071198,0.0,3.0517578125e-05,0.002880096435546875,-27.930763244628906
1743610368.5659218,0.0,-0.0,"[174.0, 185.0, 181.0, 156.0, 154.0, 154.0, 156.0, 181.0, 185.0, 174.0]",0.047663334757089615,0.0,3.0517578125e-05,0.00292205810546875,-27.9298095703125
1743610368.5849178,0.0,-0.0,"[174.0, 185.0, 181.0, 156.0, 154.0, 154.0, 156.0, 181.0, 185.0, 174.0]",0.19881689548492432,0.0,3.0517578125e-05,0.0028820037841796875,-27.93378448486328
1743610368.6058407,0.0,-0.0,"[174.0, 185.0, 181.0, 156.0, 154.0, 154.0, 156.0, 181.0, 185.0, 174.0]",0.10263878107070923,0.0,3.0517578125e-05,0.0027751922607421875,-27.935836791992188
1743610368.6291115,0.0,-0.0,"[174.0, 185.0, 181.0, 156.0, 154.0, 154.0, 156.0, 181.0, 185.0, 174.0]",0.19224813580513,0.0,3.0517578125e-05,0.00261688232421875,-27.931991577148438
1743610368.646199,0.0,-0.0,"[174.0, 185.0, 181.0, 156.0, 154.0, 154.0, 156.0, 181.0, 185.0, 174.0]",0.12673480808734894,0.0,3.0517578125e-05,0.00241851806640625,-27.929466247558594
1743610368.6661146,0.0,-0.0,"[174.0, 185.0, 181.0, 156.0, 154.0, 154.0, 156.0, 181.0, 185.0, 174.0]",0.13880544900894165,0.0,3.0517578125e-05,0.00218963623046875,-27.932235717773438
1743610368.6861715,0.0,-0.0,"[174.0, 185.0, 181.0, 156.0, 154.0, 154.0, 156.0, 181.0, 185.0, 174.0]",0.04026658833026886,0.0,3.0517578125e-05,0.0019435882568359375,-27.931472778320312
1743610368.7054923,0.0,-0.0,"[174.0, 185.0, 181.0, 156.0, 154.0, 154.0, 156.0, 181.0, 185.0, 174.0]",0.21002355217933655,0.0,3.0517578125e-05,0.0016880035400390625,-27.93566131591797
1743610368.7246523,0.0,-0.0,"[174.0, 185.0, 181.0, 156.0, 154.0, 154.0, 156.0, 181.0, 185.0, 174.0]",0.060164012014865875,0.0,3.0517578125e-05,0.001430511474609375,-27.93683624267578
1743610368.7454987,0.0,-0.0,"[174.0, 185.0, 181.0, 156.0, 154.0, 154.0, 156.0, 181.0, 185.0, 174.0]",0.17825911939144135,0.0,3.0517578125e-05,0.0011768341064453125,-27.93328094482422
1743610368.7656157,0.0,-0.0,"[174.0, 185.0, 181.0, 156.0, 154.0, 154.0, 156.0, 181.0, 185.0, 174.0]",0.14184296131134033,0.0,3.0517578125e-05,0.000934600830078125,-27.930450439453125
1743610368.785254,0.0,-0.0,"[174.0, 185.0, 181.0, 156.0, 154.0, 154.0, 156.0, 181.0, 185.0, 174.0]",0.035599395632743835,0.0,0.0,0.000705718994140625,-27.931129455566406
1743610368.8049922,0.0,-0.0,"[174.0, 185.0, 181.0, 156.0, 154.0, 154.0, 156.0, 181.0, 185.0, 174.0]",0.2010675072669983,0.0,0.0,0.0004940032958984375,-27.927108764648438
1743610368.82885,0.0,-0.0,"[174.0, 185.0, 181.0, 156.0, 154.0, 154.0, 156.0, 181.0, 185.0, 174.0]",0.10710334777832031,0.0,0.0,0.000301361083984375,-27.92498016357422
1743610368.8459654,0.0,-0.0,"[174.0, 185.0, 181.0, 156.0, 154.0, 154.0, 156.0, 181.0, 185.0, 174.0]",0.1944228559732437,0.0,0.0,0.00012969970703125,-27.928863525390625
1743610368.8654404,0.0,-0.0,"[174.0, 185.0, 181.0, 156.0, 154.0, 154.0, 156.0, 181.0, 185.0, 174.0]",0.13199172914028168,0.0,0.0,-2.09808349609375e-05,-27.931503295898438
1743610368.8856137,0.0,-0.0,"[174.0, 185.0, 181.0, 156.0, 154.0, 154.0, 156.0, 181.0, 185.0, 174.0]",0.11075077950954437,0.0,3.0517578125e-05,-0.0001506805419921875,-27.929290771484375
1743610368.9056928,0.0,-0.0,"[174.0, 185.0, 181.0, 156.0, 154.0, 154.0, 156.0, 181.0, 185.0, 174.0]",0.18150287866592407,0.0,3.0517578125e-05,-0.0002593994140625,-27.93291473388672
1743610368.925869,0.0,-0.0,"[174.0, 185.0, 181.0, 156.0, 154.0, 154.0, 156.0, 181.0, 185.0, 174.0]",0.1469385325908661,0.0,3.0517578125e-05,-0.000347137451171875,-27.93585205078125
1743610368.9466002,0.0,-0.0,"[174.0, 185.0, 181.0, 156.0, 154.0, 154.0, 156.0, 181.0, 185.0, 174.0]",0.0068563236854970455,0.0,3.0517578125e-05,-0.000415802001953125,-27.93597412109375
1743610368.9662068,0.0,-0.0,"[174.0, 185.0, 181.0, 156.0, 154.0, 154.0, 156.0, 181.0, 185.0, 174.0]",0.037828896194696426,0.0,3.0517578125e-05,-0.000469207763671875,-27.935218811035156
1743610368.985697,0.0,-0.0,"[174.0, 185.0, 181.0, 156.0, 154.0, 154.0, 156.0, 181.0, 185.0, 174.0]",0.21040675044059753,0.0,3.0517578125e-05,-0.0005054473876953125,-27.939422607421875
1743610369.0050774,0.0,-0.0,"[174.0, 185.0, 181.0, 156.0, 154.0, 154.0, 156.0, 181.0, 185.0, 174.0]",0.05623798072338104,0.0,3.0517578125e-05,-0.0005283355712890625,-27.9405517578125
1743610369.0271115,0.0,-0.0,"[174.0, 185.0, 181.0, 156.0, 154.0, 154.0, 156.0, 181.0, 185.0, 174.0]",0.1803823560476303,0.0,3.0517578125e-05,-0.0005397796630859375,-27.93694305419922
1743610369.0453932,0.0,-0.0,"[174.0, 185.0, 181.0, 156.0, 154.0, 154.0, 156.0, 181.0, 185.0, 174.0]",0.1450924575328827,0.0,3.0517578125e-05,-0.0005397796630859375,-27.934043884277344
1743610369.0648432,0.0,-0.0,"[174.0, 185.0, 181.0, 156.0, 154.0, 154.0, 156.0, 181.0, 185.0, 174.0]",0.005698142573237419,0.0,3.0517578125e-05,-0.000530242919921875,-27.934158325195312
1743610369.0860734,0.0,-0.0,"[174.0, 185.0, 181.0, 156.0, 154.0, 154.0, 156.0, 181.0, 185.0, 174.0]",0.0351681113243103,0.0,3.0517578125e-05,-0.000514984130859375,-27.933456420898438
1743610369.106535,0.0,-0.0,"[174.0, 185.0, 181.0, 156.0, 154.0, 154.0, 156.0, 181.0, 185.0, 174.0]",0.20786374807357788,0.0,3.0517578125e-05,-0.00049591064453125,-27.937606811523438
1743610369.1260986,0.0,-0.0,"[174.0, 185.0, 181.0, 156.0, 154.0, 154.0, 156.0, 181.0, 185.0, 174.0]",0.0680057555437088,0.0,3.0517578125e-05,-0.0004711151123046875,-27.93897247314453
1743610369.1456678,0.0,-0.0,"[174.0, 185.0, 181.0, 156.0, 154.0, 154.0, 156.0, 181.0, 185.0, 174.0]",0.17423608899116516,0.0,3.0517578125e-05,-0.0004425048828125,-27.93548583984375
1743610369.1649523,0.0,-0.0,"[174.0, 185.0, 181.0, 156.0, 154.0, 154.0, 156.0, 181.0, 185.0, 174.0]",0.13418853282928467,0.0,3.0517578125e-05,-0.0004138946533203125,-27.93280029296875
1743610369.1854362,0.0,-0.0,"[174.0, 185.0, 181.0, 156.0, 154.0, 154.0, 156.0, 181.0, 185.0, 174.0]",0.08908406645059586,0.0,3.0517578125e-05,-0.0003833770751953125,-27.934585571289062
1743610369.2056344,0.0,-0.0,"[174.0, 185.0, 181.0, 156.0, 154.0, 154.0, 156.0, 181.0, 185.0, 174.0]",0.2095857560634613,0.0,3.0517578125e-05,-0.000354766845703125,-27.930389404296875
1743610369.2283218,0.0,-0.0,"[174.0, 185.0, 181.0, 156.0, 154.0, 154.0, 156.0, 181.0, 185.0, 174.0]",0.05889754742383957,0.0,0.0,-0.0003261566162109375,-27.929214477539062
1743610369.2467377,0.0,-0.0,"[174.0, 185.0, 181.0, 156.0, 154.0, 154.0, 156.0, 181.0, 185.0, 174.0]",0.17730265855789185,0.0,0.0,-0.00029754638671875,-27.932762145996094
1743610369.265861,0.0,-0.0,"[174.0, 185.0, 181.0, 156.0, 154.0, 154.0, 156.0, 181.0, 185.0, 174.0]",0.1393631547689438,0.0,3.0517578125e-05,-0.0002727508544921875,-27.935546875
1743610369.2859356,0.0,-0.0,"[174.0, 185.0, 181.0, 156.0, 154.0, 154.0, 156.0, 181.0, 185.0, 174.0]",0.04715212807059288,0.0,3.0517578125e-05,-0.000247955322265625,-27.934600830078125
1743610369.30601,0.0,-0.0,"[174.0, 185.0, 181.0, 156.0, 154.0, 154.0, 156.0, 181.0, 185.0, 174.0]",0.20231343805789948,0.0,3.0517578125e-05,-0.0002269744873046875,-27.93865203857422
1743610369.3249805,0.0,-0.0,"[174.0, 185.0, 181.0, 156.0, 154.0, 154.0, 156.0, 181.0, 185.0, 174.0]",0.0965638980269432,0.0,3.0517578125e-05,-0.0002079010009765625,-27.940582275390625
1743610369.3458576,0.0,-0.0,"[174.0, 185.0, 181.0, 156.0, 154.0, 154.0, 156.0, 181.0, 185.0, 174.0]",0.20689183473587036,0.0,3.0517578125e-05,-0.0001926422119140625,-27.936447143554688
1743610369.3663714,0.0,-0.0,"[174.0, 185.0, 181.0, 156.0, 154.0, 154.0, 156.0, 181.0, 185.0, 174.0]",0.07223142683506012,0.0,3.0517578125e-05,-0.0001773834228515625,-27.93499755859375
1743610369.3850703,0.0,-0.0,"[174.0, 185.0, 181.0, 156.0, 154.0, 154.0, 156.0, 181.0, 185.0, 174.0]",0.1769995391368866,0.0,3.0517578125e-05,-0.0001659393310546875,-27.93853759765625
1743610369.4067383,0.0,-0.0,"[174.0, 185.0, 181.0, 156.0, 154.0, 154.0, 156.0, 181.0, 185.0, 174.0]",0.13854378461837769,0.0,3.0517578125e-05,-0.000156402587890625,-27.941314697265625
1743610369.4281735,0.0,-0.0,"[174.0, 185.0, 181.0, 156.0, 154.0, 154.0, 156.0, 181.0, 185.0, 174.0]",0.05366961285471916,0.0,3.0517578125e-05,-0.0001506805419921875,-27.94023895263672
1743610369.4475698,0.0,-0.0,"[174.0, 185.0, 181.0, 156.0, 154.0, 154.0, 156.0, 181.0, 185.0, 174.0]",0.18456655740737915,0.0,3.0517578125e-05,-0.00014495849609375,-27.943923950195312
1743610369.4652677,0.0,-0.0,"[174.0, 185.0, 181.0, 156.0, 154.0, 154.0, 156.0, 181.0, 185.0, 174.0]",0.14335043728351593,0.0,6.103515625e-05,-0.000141143798828125,-27.946792602539062
1743610369.4860938,0.0,-0.0,"[174.0, 185.0, 181.0, 156.0, 154.0, 154.0, 156.0, 181.0, 185.0, 174.0]",0.017474183812737465,0.0,6.103515625e-05,-0.0001392364501953125,-27.946441650390625
1743610369.5058694,0.0,-0.0,"[174.0, 185.0, 181.0, 156.0, 154.0, 154.0, 156.0, 181.0, 185.0, 174.0]",0.17771276831626892,0.0,6.103515625e-05,-0.0001373291015625,-27.949996948242188
1743610369.5257323,0.0,-0.0,"[174.0, 185.0, 181.0, 156.0, 154.0, 154.0, 156.0, 181.0, 185.0, 174.0]",0.14086227118968964,0.0,6.103515625e-05,-0.0001392364501953125,-27.95281982421875
1743610369.5455031,0.0,-0.0,"[174.0, 185.0, 181.0, 156.0, 154.0, 154.0, 156.0, 181.0, 185.0, 174.0]",0.03492101654410362,0.0,6.103515625e-05,-0.0001392364501953125,-27.952117919921875
1743610369.5653174,0.0,-0.0,"[174.0, 185.0, 181.0, 156.0, 154.0, 154.0, 156.0, 181.0, 185.0, 174.0]",0.20292454957962036,0.0,6.103515625e-05,-0.000141143798828125,-27.9561767578125
1743610369.5856457,0.0,-0.0,"[174.0, 185.0, 181.0, 156.0, 154.0, 154.0, 156.0, 181.0, 185.0, 174.0]",0.09316995739936829,0.0,6.103515625e-05,-0.00014495849609375,-27.958038330078125
1743610369.60552,0.0,-0.0,"[174.0, 185.0, 181.0, 156.0, 154.0, 154.0, 156.0, 181.0, 185.0, 174.0]",0.20988665521144867,0.0,6.103515625e-05,-0.0001468658447265625,-27.953842163085938
1743610369.6281946,0.0,-0.0,"[174.0, 185.0, 181.0, 156.0, 154.0, 154.0, 156.0, 181.0, 185.0, 174.0]",0.057486243546009064,0.0,6.103515625e-05,-0.0001506805419921875,-27.95269012451172
1743610369.6485388,0.0,-0.0,"[174.0, 185.0, 181.0, 156.0, 154.0, 154.0, 156.0, 181.0, 185.0, 174.0]",0.17888173460960388,0.0,6.103515625e-05,-0.0001544952392578125,-27.956268310546875
1743610369.6650994,0.0,-0.0,"[174.0, 185.0, 181.0, 156.0, 154.0, 154.0, 156.0, 181.0, 185.0, 174.0]",0.14157648384571075,0.0,6.103515625e-05,-0.000156402587890625,-27.9591064453125
1743610369.686454,0.0,-0.0,"[174.0, 185.0, 181.0, 156.0, 154.0, 154.0, 156.0, 181.0, 185.0, 174.0]",0.030432937666773796,0.0,9.1552734375e-05,-0.00016021728515625,-27.95849609375
1743610369.7054262,0.0,-0.0,"[174.0, 185.0, 181.0, 156.0, 154.0, 154.0, 156.0, 181.0, 185.0, 174.0]",0.1900038719177246,0.0,9.1552734375e-05,-0.000164031982421875,-27.962295532226562
1743610369.7261178,0.0,-0.0,"[174.0, 185.0, 181.0, 156.0, 154.0, 154.0, 156.0, 181.0, 185.0, 174.0]",0.13824062049388885,0.0,9.1552734375e-05,-0.0001678466796875,-27.965057373046875
1743610369.7482057,0.0,-0.0,"[174.0, 185.0, 181.0, 156.0, 154.0, 154.0, 156.0, 181.0, 185.0, 174.0]",0.05677616223692894,0.0,9.1552734375e-05,-0.0001697540283203125,-27.96392822265625
1743610369.7682664,0.0,-0.0,"[174.0, 185.0, 181.0, 156.0, 154.0, 154.0, 156.0, 181.0, 185.0, 174.0]",0.17852042615413666,0.0,9.1552734375e-05,-0.000171661376953125,-27.967498779296875
1743610369.7894342,0.0,-0.0,"[174.0, 185.0, 181.0, 156.0, 154.0, 154.0, 156.0, 181.0, 185.0, 174.0]",0.14091214537620544,0.0,0.0001220703125,-0.00017547607421875,-27.970314025878906
1743610369.807537,0.0,-0.0,"[174.0, 185.0, 181.0, 156.0, 154.0, 154.0, 156.0, 181.0, 185.0, 174.0]",0.035638950765132904,0.0,0.0001220703125,-0.0001773834228515625,-27.9696044921875
1743610369.8325891,0.0,-0.0,"[174.0, 185.0, 181.0, 156.0, 154.0, 154.0, 156.0, 181.0, 185.0, 174.0]",0.20452475547790527,0.0,0.0001220703125,-0.000179290771484375,-27.97369384765625
1743610369.8504844,0.0,-0.0,"[174.0, 185.0, 181.0, 156.0, 154.0, 154.0, 156.0, 181.0, 185.0, 174.0]",0.08496319502592087,0.0,0.0001220703125,-0.000179290771484375,-27.975387573242188
1743610369.8688438,0.0,-0.0,"[174.0, 185.0, 181.0, 156.0, 154.0, 154.0, 156.0, 181.0, 185.0, 174.0]",0.20210906863212585,0.0,0.0001220703125,-0.0001811981201171875,-27.971351623535156
1743610369.889883,0.0,-0.0,"[174.0, 185.0, 181.0, 156.0, 154.0, 154.0, 156.0, 181.0, 185.0, 174.0]",0.09800851345062256,0.0,0.0001220703125,-0.00018310546875,-27.969390869140625
1743610369.9077053,0.0,-0.0,"[174.0, 185.0, 181.0, 156.0, 154.0, 154.0, 156.0, 181.0, 185.0, 174.0]",0.20502981543540955,0.0,0.0001220703125,-0.00018310546875,-27.973487854003906
1743610369.9277685,0.0,-0.0,"[174.0, 185.0, 181.0, 156.0, 154.0, 154.0, 156.0, 181.0, 185.0, 174.0]",0.08225036412477493,0.0,0.0001220703125,-0.00018310546875,-27.975135803222656
1743610369.948193,0.0,-0.0,"[174.0, 185.0, 181.0, 156.0, 154.0, 154.0, 156.0, 181.0, 185.0, 174.0]",0.1964038461446762,0.0,0.0001220703125,-0.00018310546875,-27.971206665039062
1743610369.9686494,0.0,-0.0,"[174.0, 185.0, 181.0, 156.0, 154.0, 154.0, 156.0, 181.0, 185.0, 174.0]",0.12308817356824875,0.0,0.0001220703125,-0.0001850128173828125,-27.96874237060547
1743610369.9891,0.0,-0.0,"[174.0, 185.0, 181.0, 156.0, 154.0, 154.0, 156.0, 181.0, 185.0, 174.0]",0.15782734751701355,0.0,9.1552734375e-05,-0.0001850128173828125,-27.971900939941406
1743610370.0077636,0.0,-0.0,"[174.0, 185.0, 181.0, 156.0, 154.0, 154.0, 156.0, 181.0, 185.0, 174.0]",0.060766737908124924,0.0,0.0001220703125,-0.0001850128173828125,-27.973114013671875
1743610370.0320766,0.0,-0.0,"[174.0, 185.0, 181.0, 156.0, 154.0, 154.0, 156.0, 181.0, 185.0, 174.0]",0.17514869570732117,0.0,0.0001220703125,-0.0001850128173828125,-27.96961212158203
1743610370.0508404,0.0,-0.0,"[174.0, 185.0, 181.0, 156.0, 154.0, 154.0, 156.0, 181.0, 185.0, 174.0]",0.13568779826164246,0.0,9.1552734375e-05,-0.00018310546875,-27.966896057128906
1743610370.0688677,0.0,-0.0,"[174.0, 185.0, 181.0, 156.0, 154.0, 154.0, 156.0, 181.0, 185.0, 174.0]",0.07682593166828156,0.0,9.1552734375e-05,-0.00018310546875,-27.96843719482422
1743610370.0896945,0.0,-0.0,"[174.0, 185.0, 181.0, 156.0, 154.0, 154.0, 156.0, 181.0, 185.0, 174.0]",0.18342457711696625,0.0,9.1552734375e-05,-0.00018310546875,-27.964767456054688
1743610370.1072495,0.0,-0.0,"[174.0, 185.0, 181.0, 156.0, 154.0, 154.0, 156.0, 181.0, 185.0, 174.0]",0.14407050609588623,0.0,9.1552734375e-05,-0.00018310546875,-27.961883544921875
1743610370.1280103,0.0,-0.0,"[174.0, 185.0, 181.0, 156.0, 154.0, 154.0, 156.0, 181.0, 185.0, 174.0]",0.012366740964353085,0.0,9.1552734375e-05,-0.00018310546875,-27.962135314941406
1743610370.1488624,0.0,-0.0,"[174.0, 185.0, 181.0, 156.0, 154.0, 154.0, 156.0, 181.0, 185.0, 174.0]",0.1175546646118164,0.0,9.1552734375e-05,-0.00018310546875,-27.95977783203125
1743610370.1696265,0.0,-0.0,"[174.0, 185.0, 181.0, 156.0, 154.0, 154.0, 156.0, 181.0, 185.0, 174.0]",0.19377942383289337,0.0,9.1552734375e-05,-0.0001811981201171875,-27.963653564453125
1743610370.1878777,0.0,-0.0,"[174.0, 185.0, 181.0, 156.0, 154.0, 154.0, 156.0, 181.0, 185.0, 174.0]",0.13038651645183563,0.0,9.1552734375e-05,-0.0001811981201171875,-27.966262817382812
1743610370.2093709,0.0,-0.0,"[174.0, 185.0, 181.0, 156.0, 154.0, 154.0, 156.0, 181.0, 185.0, 174.0]",0.11760593205690384,0.0,9.1552734375e-05,-0.0001811981201171875,-27.963912963867188
1743610370.2298539,0.0,-0.0,"[174.0, 185.0, 181.0, 156.0, 154.0, 154.0, 156.0, 181.0, 185.0, 174.0]",0.19435323774814606,0.0,9.1552734375e-05,-0.0001811981201171875,-27.967803955078125
1743610370.2517767,0.0,-0.0,"[174.0, 185.0, 181.0, 156.0, 154.0, 154.0, 156.0, 181.0, 185.0, 174.0]",0.128101646900177,0.0,0.0001220703125,-0.0001811981201171875,-27.970359802246094
1743610370.269632,0.0,-0.0,"[174.0, 185.0, 181.0, 156.0, 154.0, 154.0, 156.0, 181.0, 185.0, 174.0]",0.13157764077186584,0.0,0.0001220703125,-0.0001811981201171875,-27.967727661132812
1743610370.2880113,0.0,-0.0,"[174.0, 185.0, 181.0, 156.0, 154.0, 154.0, 156.0, 181.0, 185.0, 174.0]",0.11950809508562088,0.0,0.0001220703125,-0.000179290771484375,-27.970123291015625
1743610370.3087325,0.0,-0.0,"[174.0, 185.0, 181.0, 156.0, 154.0, 154.0, 156.0, 181.0, 185.0, 174.0]",0.18733243644237518,0.0,0.0001220703125,-0.000179290771484375,-27.96636962890625
1743610370.3300924,0.0,-0.0,"[174.0, 185.0, 181.0, 156.0, 154.0, 154.0, 156.0, 181.0, 185.0, 174.0]",0.14233613014221191,0.0,0.0001220703125,-0.000179290771484375,-27.963531494140625
1743610370.3479798,0.0,-0.0,"[174.0, 185.0, 181.0, 156.0, 154.0, 154.0, 156.0, 181.0, 185.0, 174.0]",0.024922572076320648,0.0,0.0001220703125,-0.000179290771484375,-27.964027404785156
1743610370.3690789,0.0,-0.0,"[174.0, 185.0, 181.0, 156.0, 154.0, 154.0, 156.0, 181.0, 185.0, 174.0]",0.18750178813934326,0.0,0.0001220703125,-0.000179290771484375,-27.96027374267578
1743610370.3902843,0.0,-0.0,"[174.0, 185.0, 181.0, 156.0, 154.0, 154.0, 156.0, 181.0, 185.0, 174.0]",0.14212369918823242,0.0,9.1552734375e-05,-0.000179290771484375,-27.957435607910156
1743610370.408091,0.0,-0.0,"[174.0, 185.0, 181.0, 156.0, 154.0, 154.0, 156.0, 181.0, 185.0, 174.0]",0.02644599787890911,0.0,9.1552734375e-05,-0.000179290771484375,-27.957962036132812
1743610370.4332395,0.0,-0.0,"[174.0, 185.0, 181.0, 156.0, 154.0, 154.0, 156.0, 181.0, 185.0, 174.0]",0.18494069576263428,0.0,9.1552734375e-05,-0.000179290771484375,-27.954261779785156
1743610370.4497793,0.0,-0.0,"[174.0, 185.0, 181.0, 156.0, 154.0, 154.0, 156.0, 181.0, 185.0, 174.0]",0.14364825189113617,0.0,9.1552734375e-05,-0.000179290771484375,-27.951393127441406
1743610370.4679527,0.0,-0.0,"[174.0, 185.0, 181.0, 156.0, 154.0, 154.0, 156.0, 181.0, 185.0, 174.0]",0.015399618074297905,0.0,9.1552734375e-05,-0.000179290771484375,-27.951698303222656
1743610370.4883952,0.0,-0.0,"[174.0, 185.0, 181.0, 156.0, 154.0, 154.0, 156.0, 181.0, 185.0, 174.0]",0.15814277529716492,0.0,9.1552734375e-05,-0.000179290771484375,-27.948532104492188
1743610370.5089762,0.0,-0.0,"[174.0, 185.0, 181.0, 156.0, 154.0, 154.0, 156.0, 181.0, 185.0, 174.0]",0.06206816807389259,0.0,9.1552734375e-05,-0.000179290771484375,-27.947296142578125
1743610370.5301838,0.0,-0.0,"[174.0, 185.0, 181.0, 156.0, 154.0, 154.0, 156.0, 181.0, 185.0, 174.0]",0.1747310608625412,0.0,9.1552734375e-05,-0.000179290771484375,-27.950790405273438
1743610370.5482762,0.0,-0.0,"[174.0, 185.0, 181.0, 156.0, 154.0, 154.0, 156.0, 181.0, 185.0, 174.0]",0.13481269776821136,0.0,9.1552734375e-05,-0.000179290771484375,-27.95348358154297
1743610370.569824,0.0,-0.0,"[174.0, 185.0, 181.0, 156.0, 154.0, 154.0, 156.0, 181.0, 185.0, 174.0]",0.08397331088781357,0.0,9.1552734375e-05,-0.000179290771484375,-27.951805114746094
1743610370.587517,0.0,-0.0,"[174.0, 185.0, 181.0, 156.0, 154.0, 154.0, 156.0, 181.0, 185.0, 174.0]",0.20243659615516663,0.0,9.1552734375e-05,-0.000179290771484375,-27.955856323242188
1743610370.608125,0.0,-0.0,"[174.0, 185.0, 181.0, 156.0, 154.0, 154.0, 156.0, 181.0, 185.0, 174.0]",0.09587273746728897,0.0,0.0001220703125,-0.000179290771484375,-27.95777130126953
1743610370.632576,0.0,-0.0,"[174.0, 185.0, 181.0, 156.0, 154.0, 154.0, 156.0, 181.0, 185.0, 174.0]",0.20775765180587769,0.0,0.0001220703125,-0.000179290771484375,-27.95361328125
1743610370.6476288,0.0,-0.0,"[174.0, 185.0, 181.0, 156.0, 154.0, 154.0, 156.0, 181.0, 185.0, 174.0]",0.06816493719816208,0.0,9.1552734375e-05,-0.000179290771484375,-27.952255249023438
1743610370.6694162,0.0,-0.0,"[174.0, 185.0, 181.0, 156.0, 154.0, 154.0, 156.0, 181.0, 185.0, 174.0]",0.17431263625621796,0.0,9.1552734375e-05,-0.000179290771484375,-27.95574188232422
1743610370.6901877,0.0,-0.0,"[174.0, 185.0, 181.0, 156.0, 154.0, 154.0, 156.0, 181.0, 185.0, 174.0]",0.1339145004749298,0.0,0.0001220703125,-0.000179290771484375,-27.958419799804688
1743610370.7083073,0.0,-0.0,"[174.0, 185.0, 181.0, 156.0, 154.0, 154.0, 156.0, 181.0, 185.0, 174.0]",0.091094009578228,0.0,0.0001220703125,-0.000179290771484375,-27.95659637451172
1743610370.7292464,0.0,-0.0,"[174.0, 185.0, 181.0, 156.0, 154.0, 154.0, 156.0, 181.0, 185.0, 174.0]",0.21055704355239868,0.0,0.0001220703125,-0.000179290771484375,-27.96080780029297
1743610370.7503548,0.0,-0.0,"[174.0, 185.0, 181.0, 156.0, 154.0, 154.0, 156.0, 181.0, 185.0, 174.0]",0.0542149655520916,0.0,0.0001220703125,-0.000179290771484375,-27.961891174316406
1743610370.768115,0.0,-0.0,"[174.0, 185.0, 181.0, 156.0, 154.0, 154.0, 156.0, 181.0, 185.0, 174.0]",0.18481996655464172,0.0,0.0001220703125,-0.000179290771484375,-27.95819091796875
1743610370.7889028,0.0,-0.0,"[174.0, 185.0, 181.0, 156.0, 154.0, 154.0, 156.0, 181.0, 185.0, 174.0]",0.14375220239162445,0.0,0.0001220703125,-0.000179290771484375,-27.955322265625
1743610370.8091629,0.0,-0.0,"[174.0, 185.0, 181.0, 156.0, 154.0, 154.0, 156.0, 181.0, 185.0, 174.0]",0.014630275778472424,0.0,0.0001220703125,-0.000179290771484375,-27.955612182617188
1743610370.8303285,0.0,-0.0,"[174.0, 185.0, 181.0, 156.0, 154.0, 154.0, 156.0, 181.0, 185.0, 174.0]",0.14889183640480042,0.0,0.0001220703125,-0.000179290771484375,-27.95263671875
1743610370.8517556,0.0,-0.0,"[174.0, 185.0, 181.0, 156.0, 154.0, 154.0, 156.0, 181.0, 185.0, 174.0]",0.011736519634723663,0.0,0.0001220703125,-0.000179290771484375,-27.95240020751953
1743610370.8682213,0.0,-0.0,"[174.0, 185.0, 181.0, 156.0, 154.0, 154.0, 156.0, 181.0, 185.0, 174.0]",0.11323940008878708,0.0,0.0001220703125,-0.000179290771484375,-27.954666137695312
1743610370.8894613,0.0,-0.0,"[174.0, 185.0, 181.0, 156.0, 154.0, 154.0, 156.0, 181.0, 185.0, 174.0]",0.18361689150333405,0.0,0.0001220703125,-0.000179290771484375,-27.95098876953125
1743610370.90733,0.0,-0.0,"[174.0, 185.0, 181.0, 156.0, 154.0, 154.0, 156.0, 181.0, 185.0, 174.0]",0.14371848106384277,0.0,0.0001220703125,-0.000179290771484375,-27.9481201171875
1743610370.9274297,0.0,-0.0,"[174.0, 185.0, 181.0, 156.0, 154.0, 154.0, 156.0, 181.0, 185.0, 174.0]",0.014896716922521591,0.0,9.1552734375e-05,-0.000179290771484375,-27.94841766357422
1743610370.9482946,0.0,-0.0,"[174.0, 185.0, 181.0, 156.0, 154.0, 154.0, 156.0, 181.0, 185.0, 174.0]",0.15215696394443512,0.0,0.0001220703125,-0.000179290771484375,-27.94537353515625
1743610370.9687338,0.0,-0.0,"[174.0, 185.0, 181.0, 156.0, 154.0, 154.0, 156.0, 181.0, 185.0, 174.0]",0.02704317681491375,0.0,0.0001220703125,-0.000179290771484375,-27.94483184814453
1743610370.9897568,0.0,-0.0,"[174.0, 185.0, 181.0, 156.0, 154.0, 154.0, 156.0, 181.0, 185.0, 174.0]",0.17652340233325958,0.0,0.0001220703125,-0.000179290771484375,-27.9483642578125
1743610371.0081,0.0,-0.0,"[174.0, 185.0, 181.0, 156.0, 154.0, 154.0, 156.0, 181.0, 185.0, 174.0]",0.13827195763587952,0.0,0.0001220703125,-0.000179290771484375,-27.951126098632812
1743610371.0326755,0.0,-0.0,"[174.0, 185.0, 181.0, 156.0, 154.0, 154.0, 156.0, 181.0, 185.0, 174.0]",0.056026361882686615,0.0,0.0001220703125,-0.000179290771484375,-27.95001220703125
1743610371.0506942,0.0,-0.0,"[174.0, 185.0, 181.0, 156.0, 154.0, 154.0, 156.0, 181.0, 185.0, 174.0]",0.17955997586250305,0.0,0.0001220703125,-0.000179290771484375,-27.953598022460938
1743610371.0685837,0.0,-0.0,"[174.0, 185.0, 181.0, 156.0, 154.0, 154.0, 156.0, 181.0, 185.0, 174.0]",0.14192689955234528,0.0,0.0001220703125,-0.000179290771484375,-27.956436157226562
1743610371.0888934,0.0,-0.0,"[174.0, 185.0, 181.0, 156.0, 154.0, 154.0, 156.0, 181.0, 185.0, 174.0]",0.027935806661844254,0.0,0.000152587890625,-0.000179290771484375,-27.95587921142578
1743610371.1095774,0.0,-0.0,"[174.0, 185.0, 181.0, 156.0, 154.0, 154.0, 156.0, 181.0, 185.0, 174.0]",0.18467816710472107,0.0,0.000152587890625,-0.000179290771484375,-27.959571838378906
1743610371.1305456,0.0,-0.0,"[174.0, 185.0, 181.0, 156.0, 154.0, 154.0, 156.0, 181.0, 185.0, 174.0]",0.14383743703365326,0.0,0.000152587890625,-0.000179290771484375,-27.962448120117188
1743610371.1482313,0.0,-0.0,"[174.0, 185.0, 181.0, 156.0, 154.0, 154.0, 156.0, 181.0, 185.0, 174.0]",0.014047281816601753,0.0,0.000152587890625,-0.000179290771484375,-27.96216583251953
1743610371.1686115,0.0,0.28288405326404675,"[174.0, 185.0, 181.0, 156.0, 154.0, 154.0, 156.0, 181.0, 185.0, 174.0]",0.1412094682455063,0.0,0.000152587890625,-0.000179290771484375,-27.964996337890625
1743610371.189281,0.0,0.8841924558066162,"[174.0, 185.0, 181.0, 156.0, 154.0, 154.0, 156.0, 181.0, 185.0, 174.0]",0.004857614636421204,0.0,6.103515625e-05,-0.000179290771484375,-27.964981079101562
1743610371.2103453,0.0,0.9962882197373916,"[174.0, 185.0, 181.0, 156.0, 154.0, 154.0, 156.0, 181.0, 185.0, 174.0]",0.14235447347164154,0.0,-0.002777099609375,-0.000179290771484375,-27.964691162109375
1743610371.2314758,0.0,0.9962882197373916,"[174.0, 185.0, 181.0, 156.0, 154.0, 154.0, 156.0, 181.0, 185.0, 174.0]",0.26389414072036743,0.0,-0.007904052734375,-0.000179290771484375,-27.963394165039062
1743610371.2528336,0.0,0.9962882197373916,"[174.0, 185.0, 181.0, 156.0, 154.0, 154.0, 156.0, 181.0, 185.0, 174.0]",0.38591498136520386,0.0,-0.015594482421875,-0.000179290771484375,-27.963150024414062
1743610371.2672431,0.0,0.9962882197373916,"[174.0, 185.0, 181.0, 156.0, 154.0, 154.0, 156.0, 181.0, 185.0, 174.0]",0.5236337780952454,0.0,-0.026092529296875,-0.000179290771484375,-27.963272094726562
1743610371.288329,0.0,0.9962882197373916,"[174.0, 185.0, 181.0, 156.0, 154.0, 154.0, 156.0, 181.0, 185.0, 174.0]",0.6685693264007568,0.0,-0.039459228515625,-0.000179290771484375,-27.963287353515625
1743610371.309027,0.0,0.9962882197373916,"[174.0, 185.0, 181.0, 156.0, 154.0, 154.0, 156.0, 181.0, 185.0, 174.0]",0.7692570090293884,0.0,-0.054840087890625,-0.000179290771484375,-27.963302612304688
1743610371.3297079,0.0,0.9962882197373916,"[174.0, 185.0, 181.0, 156.0, 154.0, 154.0, 156.0, 181.0, 185.0, 174.0]",0.9077407121658325,0.0,-0.072998046875,-0.000179290771484375,-27.963333129882812
1743610371.3482652,0.0,0.9962882197373916,"[174.0, 185.0, 181.0, 156.0, 154.0, 154.0, 156.0, 181.0, 185.0, 174.0]",1.0694993734359741,0.0,-0.094390869140625,-0.000179290771484375,-27.96337890625
1743610371.3693404,0.0,0.9962882197373916,"[174.0, 185.0, 181.0, 156.0, 154.0, 154.0, 156.0, 181.0, 185.0, 174.0]",1.1650058031082153,0.0,-0.11767578125,-0.000179290771484375,-27.963409423828125
1743610371.3902833,0.0,0.9962882197373916,"[174.0, 185.0, 181.0, 156.0, 154.0, 154.0, 156.0, 181.0, 185.0, 174.0]",1.3184051513671875,0.0,-0.14404296875,-0.000179290771484375,-27.963455200195312
1743610371.408671,0.0,0.9962882197373916,"[174.0, 185.0, 181.0, 156.0, 154.0, 154.0, 156.0, 181.0, 185.0, 174.0]",1.439515471458435,0.0,-0.1728515625,-0.000179290771484375,-27.96350860595703
1743610371.4335139,0.0,0.9962882197373916,"[174.0, 185.0, 181.0, 156.0, 154.0, 154.0, 156.0, 181.0, 185.0, 174.0]",1.5535470247268677,0.0,-0.20391845703125,-0.0001811981201171875,-27.96355438232422
1743610371.4518325,0.0,0.9962882197373916,"[174.0, 185.0, 181.0, 156.0, 154.0, 154.0, 156.0, 181.0, 185.0, 174.0]",1.677675485610962,0.0,-0.237457275390625,-0.0001811981201171875,-27.963607788085938
1743610371.4699194,0.0,0.9962882197373916,"[174.0, 185.0, 181.0, 156.0, 154.0, 154.0, 156.0, 181.0, 185.0, 174.0]",1.8044142723083496,0.0,-0.2735595703125,-0.0001811981201171875,-27.963653564453125
1743610371.4875891,0.0,0.9962882197373916,"[174.0, 185.0, 181.0, 156.0, 154.0, 154.0, 156.0, 181.0, 185.0, 174.0]",1.9700870513916016,0.0,-0.312957763671875,-0.0001811981201171875,-27.96369171142578
1743610371.508123,0.0,0.9962882197373916,"[174.0, 185.0, 181.0, 156.0, 154.0, 154.0, 156.0, 181.0, 185.0, 174.0]",2.0689587593078613,0.0,-0.354339599609375,-0.0001811981201171875,-27.96373748779297
1743610371.5287545,0.0,0.9962882197373916,"[174.0, 185.0, 181.0, 156.0, 154.0, 154.0, 156.0, 181.0, 185.0, 174.0]",2.210736036300659,0.0,-0.3985595703125,-0.0001811981201171875,-27.963775634765625
1743610371.5490594,0.0,0.9962882197373916,"[174.0, 185.0, 181.0, 156.0, 154.0, 154.0, 156.0, 181.0, 185.0, 174.0]",2.3544223308563232,0.0,-0.445648193359375,-0.0001811981201171875,-27.963821411132812
1743610371.570093,0.0,0.9962882197373916,"[174.0, 185.0, 181.0, 156.0, 154.0, 154.0, 156.0, 181.0, 185.0, 174.0]",2.458427667617798,0.0,-0.49481201171875,-0.0001811981201171875,-27.963851928710938
1743610371.5877926,0.0,0.9962882197373916,"[174.0, 185.0, 181.0, 156.0, 154.0, 154.0, 156.0, 181.0, 185.0, 174.0]",2.6159377098083496,0.0,-0.547119140625,-0.0001811981201171875,-27.963882446289062
1743610371.6081889,0.0,0.9962882197373916,"[174.0, 185.0, 181.0, 156.0, 154.0, 154.0, 156.0, 181.0, 185.0, 174.0]",2.747816801071167,0.0,-0.602081298828125,-0.0001811981201171875,-27.963897705078125
1743610371.6324196,0.0,0.9977729318424349,"[174.0, 185.0, 181.0, 156.0, 154.0, 154.0, 156.0, 181.0, 185.0, 174.0]",2.8639731407165527,0.0,-0.65936279296875,-0.0001811981201171875,-27.963912963867188
1743610371.6504369,0.0,0.9977729318424349,"[174.0, 185.0, 181.0, 156.0, 154.0, 154.0, 156.0, 181.0, 185.0, 174.0]",2.98221492767334,0.0,-0.718994140625,-0.0001811981201171875,-27.963912963867188
1743610371.6676602,0.0,0.9977729318424349,"[174.0, 185.0, 181.0, 156.0, 154.0, 154.0, 156.0, 181.0, 185.0, 174.0]",3.1022539138793945,0.0,-0.781036376953125,-0.0001811981201171875,-27.963905334472656
1743610371.6893067,0.0,0.9977729318424349,"[174.0, 185.0, 181.0, 156.0, 154.0, 154.0, 156.0, 181.0, 185.0, 174.0]",3.2353038787841797,0.0,-0.84576416015625,-0.0001811981201171875,-27.963905334472656
1743610371.7102063,0.0,0.9977729318424349,"[174.0, 185.0, 181.0, 156.0, 154.0, 154.0, 156.0, 181.0, 185.0, 174.0]",3.332559585571289,0.0,-0.91241455078125,-0.0001811981201171875,-27.963912963867188
1743610371.7281182,0.0,0.9977729318424349,"[174.0, 185.0, 181.0, 156.0, 154.0, 154.0, 156.0, 181.0, 185.0, 174.0]",3.468590021133423,0.0,-0.981781005859375,-0.0001811981201171875,-27.963912963867188
1743610371.7488894,0.0,0.9977729318424349,"[174.0, 185.0, 181.0, 156.0, 154.0, 154.0, 156.0, 181.0, 185.0, 174.0]",3.6225647926330566,0.0,-1.054229736328125,-0.0001811981201171875,-27.963897705078125
1743610371.7702599,0.0,-0.0,"[174.0, 185.0, 181.0, 156.0, 154.0, 154.0, 156.0, 181.0, 185.0, 174.0]",3.7521822452545166,0.0,-1.1292724609375,-0.0001811981201171875,-27.963882446289062
1743610371.792258,0.0,-0.0,"[174.0, 185.0, 181.0, 156.0, 154.0, 154.0, 156.0, 181.0, 185.0, 174.0]",3.5927603244781494,0.0,-1.20111083984375,-0.0001811981201171875,-27.96385955810547
1743610371.8102372,0.0,-0.0,"[174.0, 185.0, 181.0, 156.0, 154.0, 154.0, 156.0, 181.0, 185.0, 174.0]",3.359175682067871,0.0,-1.268310546875,-0.0001811981201171875,-27.963836669921875
1743610371.832078,0.0,-0.0,"[174.0, 185.0, 181.0, 156.0, 154.0, 154.0, 156.0, 181.0, 185.0, 174.0]",3.125964641571045,0.0,-1.330841064453125,-0.0001811981201171875,-27.963821411132812
1743610371.8496432,0.0,-0.0,"[174.0, 185.0, 181.0, 156.0, 154.0, 154.0, 156.0, 181.0, 185.0, 174.0]",2.893127202987671,0.0,-1.388702392578125,-0.0001811981201171875,-27.96379852294922
1743610371.8699198,0.0,-0.0,"[174.0, 185.0, 181.0, 156.0, 154.0, 154.0, 156.0, 181.0, 185.0, 174.0]",2.6606621742248535,0.0,-1.44189453125,-0.0001811981201171875,-27.963783264160156
1743610371.8878033,0.0,-0.0,"[174.0, 185.0, 181.0, 156.0, 154.0, 154.0, 156.0, 181.0, 185.0, 174.0]",2.4285688400268555,0.0,-1.490478515625,-0.0001811981201171875,-27.963768005371094
1743610371.9088082,0.0,-0.0,"[174.0, 185.0, 181.0, 156.0, 154.0, 154.0, 156.0, 181.0, 185.0, 174.0]",2.1968460083007812,0.0,-1.534423828125,-0.0001811981201171875,-27.96375274658203
1743610371.929945,0.0,-0.0,"[174.0, 185.0, 181.0, 156.0, 154.0, 154.0, 156.0, 181.0, 185.0, 174.0]",1.9654959440231323,0.0,-1.57373046875,-0.0001811981201171875,-27.9637451171875
1743610371.9478557,0.0,-0.0,"[174.0, 185.0, 181.0, 156.0, 154.0, 154.0, 156.0, 181.0, 185.0, 174.0]",1.73451566696167,0.0,-1.6083984375,-0.000179290771484375,-27.963729858398438
1743610371.9687893,0.0,-0.0,"[174.0, 185.0, 181.0, 156.0, 154.0, 154.0, 156.0, 181.0, 185.0, 174.0]",1.5039048194885254,0.0,-1.63848876953125,-0.000179290771484375,-27.963722229003906
1743610371.9894722,0.0,-0.0,"[174.0, 185.0, 181.0, 156.0, 154.0, 154.0, 156.0, 181.0, 185.0, 174.0]",1.2736623287200928,0.0,-1.663970947265625,-0.000179290771484375,-27.963714599609375
1743610372.007257,0.0,-0.0,"[174.0, 185.0, 181.0, 156.0, 154.0, 154.0, 156.0, 181.0, 185.0, 174.0]",1.0437898635864258,0.0,-1.684844970703125,-0.000179290771484375,-27.963706970214844
1743610372.0316458,0.0,-0.0,"[174.0, 185.0, 181.0, 156.0, 154.0, 154.0, 156.0, 181.0, 185.0, 174.0]",0.8142842650413513,0.0,-1.70111083984375,-0.000179290771484375,-27.963699340820312
1743610372.0523977,0.0,-0.0,"[174.0, 185.0, 181.0, 156.0, 154.0, 154.0, 156.0, 181.0, 185.0, 174.0]",0.5851470828056335,0.0,-1.71282958984375,-0.000179290771484375,-27.963699340820312
1743610372.070238,0.0,-0.0,"[174.0, 185.0, 181.0, 156.0, 154.0, 154.0, 156.0, 181.0, 185.0, 174.0]",0.35637539625167847,0.0,-1.719940185546875,-0.000179290771484375,-27.963699340820312
1743610372.0878692,0.0,-0.0,"[174.0, 185.0, 181.0, 156.0, 154.0, 154.0, 156.0, 181.0, 185.0, 174.0]",0.14989718794822693,0.0,-1.72296142578125,-0.0001773834228515625,-27.963699340820312
1743610372.1085942,0.0,-0.0,"[174.0, 185.0, 181.0, 156.0, 154.0, 154.0, 156.0, 181.0, 185.0, 174.0]",0.001964684808626771,0.0,-1.722991943359375,-0.0001773834228515625,-27.963699340820312
1743610372.1291277,0.0,-0.0,"[174.0, 185.0, 181.0, 156.0, 154.0, 154.0, 156.0, 181.0, 185.0, 174.0]",6.937222497072071e-05,0.0,-1.722991943359375,-0.0001773834228515625,-27.963699340820312
1743610372.1500356,0.0,-0.0,"[174.0, 185.0, 181.0, 156.0, 154.0, 154.0, 156.0, 181.0, 185.0, 174.0]",0.00010417011071695015,0.0,-1.722991943359375,-0.0001773834228515625,-27.96369171142578
1743610372.1678836,0.0,-0.0,"[174.0, 185.0, 181.0, 156.0, 154.0, 154.0, 156.0, 181.0, 185.0, 174.0]",0.0003088133526034653,0.0,-1.722991943359375,-0.0001773834228515625,-27.963699340820312
1743610372.1892176,0.0,-0.0,"[174.0, 185.0, 181.0, 156.0, 154.0, 154.0, 156.0, 181.0, 185.0, 174.0]",0.0009243328240700066,0.0,-1.722991943359375,-0.0001773834228515625,-27.96368408203125
1743610372.2101831,0.0,-0.0,"[174.0, 185.0, 181.0, 156.0, 154.0, 154.0, 156.0, 181.0, 185.0, 174.0]",0.0029519181698560715,0.0,-1.722991943359375,-0.0001773834228515625,-27.96373748779297
1743610372.2318907,0.0,-0.0,"[174.0, 185.0, 181.0, 156.0, 154.0, 154.0, 156.0, 181.0, 185.0, 174.0]",0.011774599552154541,0.0,-1.722991943359375,-0.0001773834228515625,-27.9635009765625
1743610372.2505324,0.0,-0.0,"[174.0, 185.0, 181.0, 156.0, 154.0, 154.0, 156.0, 181.0, 185.0, 174.0]",0.11563816666603088,0.0,-1.722991943359375,-0.0001773834228515625,-27.9658203125
1743610372.2682946,0.0,-0.0,"[174.0, 185.0, 181.0, 156.0, 154.0, 154.0, 156.0, 181.0, 185.0, 174.0]",0.18846562504768372,0.0,-1.722991943359375,-0.0001773834228515625,-27.962051391601562
1743610372.289603,0.0,-0.0,"[174.0, 185.0, 181.0, 156.0, 154.0, 154.0, 156.0, 181.0, 185.0, 174.0]",0.14111697673797607,0.0,-1.722991943359375,-0.0001773834228515625,-27.959228515625
1743610372.310306,0.0,-0.0,"[174.0, 185.0, 181.0, 156.0, 154.0, 154.0, 156.0, 181.0, 185.0, 174.0]",0.034058135002851486,0.0,-1.722991943359375,-0.0001773834228515625,-27.95990753173828
1743610372.3280928,0.0,-0.0,"[174.0, 185.0, 181.0, 156.0, 154.0, 154.0, 156.0, 181.0, 185.0, 174.0]",0.19988371431827545,0.0,-1.722991943359375,-0.0001773834228515625,-27.955909729003906
1743610372.349658,0.0,-0.0,"[174.0, 185.0, 181.0, 156.0, 154.0, 154.0, 156.0, 181.0, 185.0, 174.0]",0.10798465460538864,0.0,-1.7230224609375,-0.0001773834228515625,-27.953750610351562
1743610372.368791,0.0,-0.0,"[174.0, 185.0, 181.0, 156.0, 154.0, 154.0, 156.0, 181.0, 185.0, 174.0]",0.19318559765815735,0.0,-1.7230224609375,-0.0001773834228515625,-27.957611083984375
1743610372.3899646,0.0,-0.0,"[174.0, 185.0, 181.0, 156.0, 154.0, 154.0, 156.0, 181.0, 185.0, 174.0]",0.1315503865480423,0.0,-1.722991943359375,-0.000179290771484375,-27.960243225097656
1743610372.4084787,0.0,-0.0,"[174.0, 185.0, 181.0, 156.0, 154.0, 154.0, 156.0, 181.0, 185.0, 174.0]",0.10938101261854172,0.0,-1.722991943359375,-0.000179290771484375,-27.958053588867188
1743610372.4292982,0.0,-0.0,"[174.0, 185.0, 181.0, 156.0, 154.0, 154.0, 156.0, 181.0, 185.0, 174.0]",0.18189235031604767,0.0,-1.722991943359375,-0.000179290771484375,-27.961692810058594
1743610372.4501536,0.0,-0.0,"[174.0, 185.0, 181.0, 156.0, 154.0, 154.0, 156.0, 181.0, 185.0, 174.0]",0.14354616403579712,0.0,-1.722991943359375,-0.000179290771484375,-27.964569091796875
1743610372.4684477,0.0,-0.0,"[174.0, 185.0, 181.0, 156.0, 154.0, 154.0, 156.0, 181.0, 185.0, 174.0]",0.016143465414643288,0.0,-1.722991943359375,-0.000179290771484375,-27.96424102783203
1743610372.4891958,0.0,-0.0,"[174.0, 185.0, 181.0, 156.0, 154.0, 154.0, 156.0, 181.0, 185.0, 174.0]",0.16618521511554718,0.0,-1.722991943359375,-0.000179290771484375,-27.967567443847656
1743610372.5102541,0.0,-0.0,"[174.0, 185.0, 181.0, 156.0, 154.0, 154.0, 156.0, 181.0, 185.0, 174.0]",0.10748794674873352,0.0,-1.722991943359375,-0.000179290771484375,-27.96971893310547
1743610372.5286393,0.0,-0.0,"[174.0, 185.0, 181.0, 156.0, 154.0, 154.0, 156.0, 181.0, 185.0, 174.0]",0.18977199494838715,0.0,-1.722991943359375,-0.000179290771484375,-27.965919494628906
1743610372.5501907,0.0,-0.0,"[174.0, 185.0, 181.0, 156.0, 154.0, 154.0, 156.0, 181.0, 185.0, 174.0]",0.1386619210243225,0.0,-1.722991943359375,-0.000179290771484375,-27.963150024414062
