timestamp,steering_input,acceleration_input,raycasts,speed,steering,position_x,position_y,position_z
1743599777.647869,-0.1355210933344245,-0.0,"[174.0, 185.0, 227.0, 295.0, 259.0, 259.0, 295.0, 227.0, 185.0, 174.0]",0.0,0.0,0.0,0.10000038146972656,-27.93000030517578
1743599777.8602147,-0.1355210933344245,-0.0,"[174.0, 185.0, 178.0, 155.0, 154.0, 154.0, 156.0, 179.0, 185.0, 174.0]",0.1431841105222702,-0.06776054948568344,0.0,0.097137451171875,-27.93000030517578
1743599777.907984,-0.1355210933344245,-0.0,"[174.0, 185.0, 178.0, 155.0, 154.0, 154.0, 156.0, 179.0, 185.0, 174.0]",0.2360968291759491,-0.06776054948568344,0.0,0.09241485595703125,-27.93000030517578
1743599777.9134111,-0.1355210933344245,-0.0,"[174.0, 185.0, 178.0, 155.0, 154.0, 154.0, 156.0, 179.0, 185.0, 174.0]",0.30777978897094727,-0.06776054948568344,0.0,0.08625984191894531,-27.93000030517578
1743599777.9471617,-0.1355210933344245,-0.0,"[174.0, 185.0, 179.0, 155.0, 154.0, 154.0, 156.0, 179.0, 185.0, 174.0]",0.36006513237953186,-0.06776054948568344,0.0,0.07905769348144531,-27.93000030517578
1743599777.9524684,-0.1355210933344245,-0.0,"[174.0, 185.0, 179.0, 155.0, 154.0, 154.0, 156.0, 179.0, 185.0, 174.0]",0.39494791626930237,-0.06776054948568344,0.0,0.07115936279296875,-27.93000030517578
1743599777.9866276,-0.1355210933344245,-0.0,"[174.0, 185.0, 179.0, 155.0, 154.0, 154.0, 156.0, 180.0, 185.0, 174.0]",0.4145027697086334,-0.06776054948568344,0.0,0.06286811828613281,-27.93000030517578
1743599777.991314,-0.1355210933344245,-0.0,"[174.0, 185.0, 179.0, 155.0, 154.0, 154.0, 156.0, 180.0, 185.0, 174.0]",0.4208291471004486,-0.06776054948568344,0.0,0.05445289611816406,-27.93000030517578
1743599778.024248,-0.1355210933344245,-0.0,"[174.0, 185.0, 179.0, 155.0, 154.0, 154.0, 156.0, 181.0, 185.0, 174.0]",0.41598930954933167,-0.06776054948568344,0.0,0.04613304138183594,-27.93000030517578
1743599778.026877,-0.1355210933344245,-0.0,"[174.0, 185.0, 179.0, 155.0, 154.0, 154.0, 156.0, 181.0, 185.0, 174.0]",0.40197139978408813,-0.06776054948568344,0.0,0.03809356689453125,-27.93000030517578
1743599778.0588942,-0.1355210933344245,-0.0,"[174.0, 185.0, 179.0, 156.0, 154.0, 154.0, 156.0, 181.0, 185.0, 174.0]",0.3806491196155548,-0.06776054948568344,0.0,0.03047943115234375,-27.93000030517578
1743599778.0896506,-0.1355210933344245,-0.0,"[174.0, 185.0, 180.0, 156.0, 154.0, 154.0, 156.0, 181.0, 185.0, 174.0]",0.35375669598579407,-0.06776054948568344,0.0,0.023405075073242188,-27.93000030517578
1743599778.0923038,-0.1355210933344245,-0.0,"[174.0, 185.0, 180.0, 156.0, 154.0, 154.0, 156.0, 181.0, 185.0, 174.0]",0.3228749930858612,-0.06776054948568344,0.0,0.016946792602539062,-27.92999267578125
1743599778.121124,-0.1355210933344245,-0.0,"[174.0, 185.0, 180.0, 156.0, 154.0, 154.0, 156.0, 181.0, 185.0, 174.0]",0.28943347930908203,-0.06776054948568344,0.0,0.011159896850585938,-27.930068969726562
1743599778.1238608,-0.1355210933344245,-0.0,"[174.0, 185.0, 180.0, 156.0, 154.0, 154.0, 156.0, 181.0, 185.0, 174.0]",0.2613452672958374,-0.06776054948568344,-6.103515625e-05,0.0060672760009765625,-27.92888641357422
1743599778.1525862,-0.1355210933344245,-0.0,"[174.0, 185.0, 181.0, 156.0, 154.0, 154.0, 156.0, 181.0, 185.0, 174.0]",0.2828291654586792,-0.06776054948568344,9.1552734375e-05,0.0016765594482421875,-27.932456970214844
1743599778.1812723,-0.1355210933344245,-0.0,"[174.0, 185.0, 181.0, 156.0, 154.0, 154.0, 156.0, 181.0, 185.0, 174.0]",0.2915772795677185,-0.06776054948568344,0.00030517578125,-0.0020236968994140625,-27.936965942382812
1743599778.18394,-0.1355210933344245,-0.0,"[174.0, 185.0, 181.0, 156.0, 154.0, 154.0, 156.0, 181.0, 185.0, 174.0]",0.15200605988502502,-0.06776054948568344,0.00030517578125,-0.0050601959228515625,-27.937095642089844
1743599778.2131557,-0.1355210933344245,-0.0,"[174.0, 185.0, 181.0, 156.0, 154.0, 154.0, 156.0, 181.0, 185.0, 174.0]",0.17662876844406128,-0.06776054948568344,0.00018310546875,-0.007472991943359375,-27.93450927734375
1743599778.2435129,-0.1355210933344245,-0.0,"[174.0, 185.0, 181.0, 156.0, 154.0, 154.0, 156.0, 181.0, 185.0, 174.0]",0.17415179312229156,-0.06776054948568344,0.00030517578125,-0.009307861328125,-27.937477111816406
1743599778.246458,-0.1355210933344245,-0.0,"[174.0, 185.0, 181.0, 156.0, 154.0, 154.0, 156.0, 181.0, 185.0, 174.0]",0.06545930355787277,-0.06776054948568344,0.00030517578125,-0.010616302490234375,-27.937515258789062
1743599778.2836282,-0.1355210933344245,-0.0,"[174.0, 185.0, 181.0, 156.0, 154.0, 154.0, 156.0, 181.0, 185.0, 174.0]",0.04584731534123421,-0.06776054948568344,0.00030517578125,-0.011455535888671875,-27.937149047851562
1743599778.315823,-0.1355210933344245,-0.0,"[174.0, 185.0, 181.0, 156.0, 154.0, 154.0, 156.0, 181.0, 185.0, 174.0]",0.1848151683807373,-0.06776054948568344,0.000457763671875,-0.011884689331054688,-27.940818786621094
1743599778.3199327,-0.1355210933344245,-0.0,"[174.0, 185.0, 181.0, 156.0, 154.0, 154.0, 156.0, 181.0, 185.0, 174.0]",0.19739121198654175,-0.06776054948568344,0.0006103515625,-0.011960983276367188,-27.94477081298828
1743599778.353666,-0.1355210933344245,-0.0,"[174.0, 185.0, 181.0, 156.0, 154.0, 154.0, 156.0, 181.0, 185.0, 174.0]",0.17114342749118805,-0.06776054948568344,0.000762939453125,-0.011743545532226562,-27.94818878173828
1743599778.358323,-0.1355210933344245,-0.0,"[174.0, 185.0, 181.0, 156.0, 154.0, 154.0, 156.0, 181.0, 185.0, 174.0]",0.1434837281703949,-0.06776054948568344,0.00091552734375,-0.011285781860351562,-27.951019287109375
1743599778.3927305,-0.1355210933344245,-0.0,"[174.0, 185.0, 181.0, 156.0, 154.0, 154.0, 156.0, 181.0, 185.0, 174.0]",0.06864213943481445,-0.06776054948568344,0.0008544921875,-0.010637283325195312,-27.949813842773438
1743599778.3964624,-0.1355210933344245,-0.0,"[174.0, 185.0, 181.0, 156.0, 154.0, 154.0, 156.0, 181.0, 185.0, 174.0]",0.17672806978225708,-0.06776054948568344,0.001007080078125,-0.009847640991210938,-27.953262329101562
1743599778.4285789,-0.1355210933344245,-0.0,"[174.0, 185.0, 181.0, 156.0, 154.0, 154.0, 156.0, 181.0, 185.0, 174.0]",0.13780851662158966,-0.06776054948568344,0.001129150390625,-0.0089569091796875,-27.95587158203125
1743599778.4321609,-0.1355210933344245,-0.0,"[174.0, 185.0, 181.0, 156.0, 154.0, 154.0, 156.0, 181.0, 185.0, 174.0]",0.1336365044116974,-0.06776054948568344,0.00103759765625,-0.008007049560546875,-27.953369140625
1743599778.4673095,-0.1355210933344245,-0.0,"[174.0, 185.0, 181.0, 156.0, 154.0, 154.0, 156.0, 181.0, 185.0, 174.0]",0.20309796929359436,-0.06776054948568344,0.001190185546875,-0.00702667236328125,-27.957321166992188
1743599778.471838,-0.1355210933344245,-0.0,"[174.0, 185.0, 181.0, 156.0, 154.0, 154.0, 156.0, 181.0, 185.0, 174.0]",0.1237841546535492,-0.06776054948568344,0.001312255859375,-0.0060482025146484375,-27.9595947265625
1743599778.5042858,-0.1355210933344245,-0.0,"[174.0, 185.0, 181.0, 156.0, 154.0, 154.0, 156.0, 181.0, 185.0, 174.0]",0.19224689900875092,-0.06776054948568344,0.00115966796875,-0.0050907135009765625,-27.95587158203125
1743599778.5081785,-0.1355210933344245,-0.0,"[174.0, 185.0, 181.0, 156.0, 154.0, 154.0, 156.0, 181.0, 185.0, 174.0]",0.13406775891780853,-0.06776054948568344,0.00103759765625,-0.004177093505859375,-27.953346252441406
1743599778.539858,-0.1355210933344245,-0.0,"[174.0, 185.0, 181.0, 156.0, 154.0, 154.0, 156.0, 181.0, 185.0, 174.0]",0.14235901832580566,-0.06776054948568344,0.001129150390625,-0.0033206939697265625,-27.95606231689453
1743599778.5728815,-0.1355210933344245,-0.0,"[174.0, 185.0, 181.0, 156.0, 154.0, 154.0, 156.0, 181.0, 185.0, 174.0]",0.07534843683242798,-0.06776054948568344,0.0010986328125,-0.0025310516357421875,-27.95477294921875
1743599778.5767746,-0.1355210933344245,-0.0,"[174.0, 185.0, 181.0, 156.0, 154.0, 154.0, 156.0, 181.0, 185.0, 174.0]",0.17648206651210785,-0.06776054948568344,0.001220703125,-0.0018177032470703125,-27.958236694335938
1743599778.6076007,-0.1355210933344245,-0.0,"[174.0, 185.0, 181.0, 156.0, 154.0, 154.0, 156.0, 181.0, 185.0, 174.0]",0.10963095724582672,-0.06776054948568344,0.0013427734375,-0.0011844635009765625,-27.960342407226562
1743599778.6123621,-0.1355210933344245,-0.0,"[174.0, 185.0, 181.0, 156.0, 154.0, 154.0, 156.0, 181.0, 185.0, 174.0]",0.18951651453971863,-0.06776054948568344,0.00115966796875,-0.00063323974609375,-27.956588745117188
1743599778.6433024,-0.1355210933344245,-0.0,"[174.0, 185.0, 181.0, 156.0, 154.0, 154.0, 156.0, 181.0, 185.0, 174.0]",0.12092574685811996,-0.06776054948568344,0.001068115234375,-0.000164031982421875,-27.954208374023438
1743599778.6473045,-0.1355210933344245,-0.0,"[174.0, 185.0, 181.0, 156.0, 154.0, 154.0, 156.0, 181.0, 185.0, 174.0]",0.16823722422122955,-0.06776054948568344,0.001190185546875,0.0002288818359375,-27.957557678222656
1743599778.6798923,-0.1355210933344245,-0.0,"[174.0, 185.0, 181.0, 156.0, 154.0, 154.0, 156.0, 181.0, 185.0, 174.0]",0.08931301534175873,-0.06776054948568344,0.00128173828125,0.0005435943603515625,-27.959320068359375
1743599778.7129467,-0.1355210933344245,-0.0,"[174.0, 185.0, 181.0, 156.0, 154.0, 154.0, 156.0, 181.0, 185.0, 174.0]",0.19893778860569,-0.06776054948568344,0.001129150390625,0.000789642333984375,-27.955337524414062
1743599778.7212253,-0.1355210933344245,-0.0,"[174.0, 185.0, 181.0, 156.0, 154.0, 154.0, 156.0, 181.0, 185.0, 174.0]",0.09814644604921341,-0.06776054948568344,0.00103759765625,0.000972747802734375,-27.953384399414062
1743599778.75244,-0.1355210933344245,-0.0,"[174.0, 185.0, 181.0, 156.0, 154.0, 154.0, 156.0, 181.0, 185.0, 174.0]",0.19693683087825775,-0.06776054948568344,0.001190185546875,0.0010967254638671875,-27.957321166992188
1743599778.756938,-0.1355210933344245,-0.0,"[174.0, 185.0, 181.0, 156.0, 154.0, 154.0, 156.0, 181.0, 185.0, 174.0]",0.10551388561725616,-0.06776054948568344,0.00128173828125,0.0011692047119140625,-27.959434509277344
1743599778.7889223,-0.1355210933344245,-0.0,"[174.0, 185.0, 181.0, 156.0, 154.0, 154.0, 156.0, 181.0, 185.0, 174.0]",0.18864096701145172,-0.06776054948568344,0.001129150390625,0.00119781494140625,-27.955657958984375
1743599778.7931554,-0.1355210933344245,-0.0,"[174.0, 185.0, 181.0, 156.0, 154.0, 154.0, 156.0, 181.0, 185.0, 174.0]",0.12461579591035843,-0.06776054948568344,0.001007080078125,0.0011882781982421875,-27.953163146972656
1743599778.8242655,-0.1355210933344245,-0.0,"[174.0, 185.0, 181.0, 156.0, 154.0, 154.0, 156.0, 181.0, 185.0, 174.0]",0.14422020316123962,-0.06776054948568344,0.001129150390625,0.001148223876953125,-27.9560546875
1743599778.8291447,-0.1355210933344245,-0.0,"[174.0, 185.0, 181.0, 156.0, 154.0, 154.0, 156.0, 181.0, 185.0, 174.0]",0.009633172303438187,-0.06776054948568344,0.001129150390625,0.0010833740234375,-27.95587158203125
1743599778.8616135,-0.1355210933344245,-0.0,"[174.0, 185.0, 181.0, 156.0, 154.0, 154.0, 156.0, 181.0, 185.0, 174.0]",0.0657622292637825,-0.06776054948568344,0.001190185546875,0.00099945068359375,-27.957183837890625
1743599778.8663032,-0.1355210933344245,-0.0,"[174.0, 185.0, 181.0, 156.0, 154.0, 154.0, 156.0, 181.0, 185.0, 174.0]",0.17293821275234222,-0.06776054948568344,0.00103759765625,0.0009002685546875,-27.953720092773438
1743599778.8983564,-0.1355210933344245,-0.0,"[174.0, 185.0, 181.0, 156.0, 154.0, 154.0, 156.0, 181.0, 185.0, 174.0]",0.11520744860172272,-0.06776054948568344,0.00091552734375,0.0007915496826171875,-27.951416015625
1743599778.9326336,-0.1355210933344245,-0.0,"[174.0, 185.0, 181.0, 156.0, 154.0, 154.0, 156.0, 181.0, 185.0, 174.0]",0.18645277619361877,-0.06776054948568344,0.0010986328125,0.00067901611328125,-27.955154418945312
1743599778.936135,-0.1355210933344245,-0.0,"[174.0, 185.0, 181.0, 156.0, 154.0, 154.0, 156.0, 181.0, 185.0, 174.0]",0.13213182985782623,-0.06776054948568344,0.001190185546875,0.0005645751953125,-27.957794189453125
1743599778.9680068,-0.1355210933344245,-0.0,"[174.0, 185.0, 181.0, 156.0, 154.0, 154.0, 156.0, 181.0, 185.0, 174.0]",0.10882259905338287,-0.06776054948568344,0.001129150390625,0.0004520416259765625,-27.95561981201172
1743599778.9724853,-0.1355210933344245,-0.0,"[174.0, 185.0, 181.0, 156.0, 154.0, 154.0, 156.0, 181.0, 185.0, 174.0]",0.18158704042434692,-0.06776054948568344,0.00128173828125,0.00034332275390625,-27.959251403808594
1743599779.0040624,-0.1355210933344245,-0.0,"[174.0, 185.0, 181.0, 156.0, 154.0, 154.0, 156.0, 181.0, 185.0, 174.0]",0.1323941946029663,-0.06776054948568344,0.00140380859375,0.0002384185791015625,-27.961898803710938
1743599779.0090232,-0.1355210933344245,-0.0,"[174.0, 185.0, 181.0, 156.0, 154.0, 154.0, 156.0, 181.0, 185.0, 174.0]",0.10773647576570511,-0.06776054948568344,0.001312255859375,0.0001430511474609375,-27.959747314453125
1743599779.0445275,-0.1355210933344245,-0.0,"[174.0, 185.0, 181.0, 156.0, 154.0, 154.0, 156.0, 181.0, 185.0, 174.0]",0.18449173867702484,-0.06776054948568344,0.001495361328125,5.53131103515625e-05,-27.96343994140625
1743599779.0793192,-0.1355210933344245,-0.0,"[174.0, 185.0, 181.0, 156.0, 154.0, 154.0, 156.0, 181.0, 185.0, 174.0]",0.1343124806880951,-0.06776054948568344,0.001617431640625,-2.288818359375e-05,-27.96612548828125
1743599779.0872195,-0.1355210933344245,-0.0,"[174.0, 185.0, 181.0, 156.0, 154.0, 154.0, 156.0, 181.0, 185.0, 174.0]",0.09500101953744888,-0.06776054948568344,0.00152587890625,-9.34600830078125e-05,-27.96422576904297
1743599779.117956,-0.1355210933344245,-0.0,"[174.0, 185.0, 181.0, 156.0, 154.0, 154.0, 156.0, 181.0, 185.0, 174.0]",0.2077084332704544,-0.06776054948568344,0.001708984375,-0.000152587890625,-27.9683837890625
1743599779.1219141,-0.1355210933344245,-0.0,"[174.0, 185.0, 181.0, 156.0, 154.0, 154.0, 156.0, 181.0, 185.0, 174.0]",0.06355193257331848,-0.06776054948568344,0.00177001953125,-0.0002040863037109375,-27.969650268554688
1743599779.1533957,-0.1355210933344245,-0.0,"[174.0, 185.0, 181.0, 156.0, 154.0, 154.0, 156.0, 181.0, 185.0, 174.0]",0.17278754711151123,-0.06776054948568344,0.001617431640625,-0.000244140625,-27.96619415283203
1743599779.1571333,-0.1355210933344245,-0.0,"[174.0, 185.0, 181.0, 156.0, 154.0, 154.0, 156.0, 181.0, 185.0, 174.0]",0.1174415647983551,-0.06776054948568344,0.00152587890625,-0.000278472900390625,-27.963844299316406
1743599779.1900308,-0.1355210933344245,-0.0,"[174.0, 185.0, 181.0, 156.0, 154.0, 154.0, 156.0, 181.0, 185.0, 174.0]",0.17883464694023132,-0.06776054948568344,0.001678466796875,-0.0003032684326171875,-27.967422485351562
1743599779.193362,-0.1355210933344245,-0.0,"[174.0, 185.0, 181.0, 156.0, 154.0, 154.0, 156.0, 181.0, 185.0, 174.0]",0.1297193169593811,-0.06776054948568344,0.001800537109375,-0.0003204345703125,-27.97002410888672
1743599779.2255094,-0.1355210933344245,-0.0,"[174.0, 185.0, 181.0, 156.0, 154.0, 154.0, 156.0, 181.0, 185.0, 174.0]",0.12237711995840073,-0.06776054948568344,0.001708984375,-0.000331878662109375,-27.967575073242188
1743599779.2281842,-0.1355210933344245,-0.0,"[174.0, 185.0, 181.0, 156.0, 154.0, 154.0, 156.0, 181.0, 185.0, 174.0]",0.20120589435100555,-0.06776054948568344,0.001861572265625,-0.000339508056640625,-27.971603393554688
1743599779.2609727,-0.1355210933344245,-0.0,"[174.0, 185.0, 181.0, 156.0, 154.0, 154.0, 156.0, 181.0, 185.0, 174.0]",0.09686339646577835,-0.06776054948568344,0.001953125,-0.000339508056640625,-27.973541259765625
1743599779.2933917,-0.1355210933344245,-0.0,"[174.0, 185.0, 181.0, 156.0, 154.0, 154.0, 156.0, 181.0, 185.0, 174.0]",0.204408660531044,-0.06776054948568344,0.001800537109375,-0.0003376007080078125,-27.969451904296875
1743599779.2963474,-0.1355210933344245,-0.0,"[174.0, 185.0, 181.0, 156.0, 154.0, 154.0, 156.0, 181.0, 185.0, 174.0]",0.08014988899230957,-0.06776054948568344,0.001708984375,-0.000331878662109375,-27.967849731445312
1743599779.325803,-0.1355210933344245,-0.0,"[174.0, 185.0, 181.0, 156.0, 154.0, 154.0, 156.0, 181.0, 185.0, 174.0]",0.18885023891925812,-0.06776054948568344,0.00189208984375,-0.0003223419189453125,-27.97162628173828
1743599779.3287506,-0.1355210933344245,-0.0,"[174.0, 185.0, 181.0, 156.0, 154.0, 154.0, 156.0, 181.0, 185.0, 174.0]",0.13140736520290375,-0.06776054948568344,0.001983642578125,-0.00031280517578125,-27.974258422851562
1743599779.3604662,-0.1355210933344245,-0.0,"[174.0, 185.0, 181.0, 156.0, 154.0, 154.0, 156.0, 181.0, 185.0, 174.0]",0.11293783038854599,-0.06776054948568344,0.001922607421875,-0.0002994537353515625,-27.972000122070312
1743599779.393139,-0.1355210933344245,-0.0,"[174.0, 185.0, 181.0, 156.0, 154.0, 154.0, 156.0, 181.0, 185.0, 174.0]",0.17743080854415894,-0.06776054948568344,0.0020751953125,-0.0002880096435546875,-27.975547790527344
1743599779.396182,-0.1355210933344245,-0.0,"[174.0, 185.0, 181.0, 156.0, 154.0, 154.0, 156.0, 181.0, 185.0, 174.0]",0.12703880667686462,-0.06776054948568344,0.002197265625,-0.000274658203125,-27.97808837890625
1743599779.4256897,-0.1355210933344245,-0.0,"[174.0, 185.0, 181.0, 156.0, 154.0, 154.0, 156.0, 181.0, 185.0, 174.0]",0.13497638702392578,-0.06776054948568344,0.0020751953125,-0.0002613067626953125,-27.975387573242188
1743599779.4287288,-0.1355210933344245,-0.0,"[174.0, 185.0, 181.0, 156.0, 154.0, 154.0, 156.0, 181.0, 185.0, 174.0]",0.08437436819076538,-0.06776054948568344,0.002166748046875,-0.000247955322265625,-27.977081298828125
1743599779.4622676,-0.1355210933344245,-0.0,"[174.0, 185.0, 181.0, 156.0, 154.0, 154.0, 156.0, 181.0, 185.0, 174.0]",0.20084817707538605,-0.06776054948568344,0.001983642578125,-0.00023651123046875,-27.973052978515625
1743599779.4944766,-0.1355210933344245,-0.0,"[174.0, 185.0, 181.0, 156.0, 154.0, 154.0, 156.0, 181.0, 185.0, 174.0]",0.09766463935375214,-0.06776054948568344,0.00189208984375,-0.0002231597900390625,-27.971099853515625
1743599779.4973583,-0.1355210933344245,-0.0,"[174.0, 185.0, 181.0, 156.0, 154.0, 154.0, 156.0, 181.0, 185.0, 174.0]",0.20288419723510742,-0.06776054948568344,0.0020751953125,-0.000213623046875,-27.97515869140625
1743599779.5265777,-0.1355210933344245,-0.0,"[174.0, 185.0, 181.0, 156.0, 154.0, 154.0, 156.0, 181.0, 185.0, 174.0]",0.08765491098165512,-0.06776054948568344,0.00213623046875,-0.0002040863037109375,-27.976913452148438
1743599779.5293703,-0.1355210933344245,-0.0,"[174.0, 185.0, 181.0, 156.0, 154.0, 154.0, 156.0, 181.0, 185.0, 174.0]",0.20345757901668549,-0.06776054948568344,0.001983642578125,-0.000194549560546875,-27.97284698486328
1743599779.5595803,-0.1355210933344245,-0.0,"[174.0, 185.0, 181.0, 156.0, 154.0, 154.0, 156.0, 181.0, 185.0, 174.0]",0.08465338498353958,-0.06776054948568344,0.00189208984375,-0.000186920166015625,-27.971153259277344
1743599779.589328,-0.1355210933344245,-0.0,"[174.0, 185.0, 181.0, 156.0, 154.0, 154.0, 156.0, 181.0, 185.0, 174.0]",0.19842849671840668,-0.06776054948568344,0.0020751953125,-0.0001811981201171875,-27.975120544433594
1743599779.5922294,-0.1355210933344245,-0.0,"[174.0, 185.0, 181.0, 156.0, 154.0, 154.0, 156.0, 181.0, 185.0, 174.0]",0.10800198465585709,-0.06776054948568344,0.002166748046875,-0.00017547607421875,-27.977279663085938
1743599779.6211276,-0.1355210933344245,-0.0,"[174.0, 185.0, 181.0, 156.0, 154.0, 154.0, 156.0, 181.0, 185.0, 174.0]",0.1902054399251938,-0.06776054948568344,0.00201416015625,-0.0001697540283203125,-27.973480224609375
1743599779.62384,-0.1355210933344245,-0.0,"[174.0, 185.0, 181.0, 156.0, 154.0, 154.0, 156.0, 181.0, 185.0, 174.0]",0.1290465146303177,-0.06776054948568344,0.00189208984375,-0.0001678466796875,-27.97089385986328
1743599779.6561556,-0.1355210933344245,-0.0,"[174.0, 185.0, 181.0, 156.0, 154.0, 154.0, 156.0, 181.0, 185.0, 174.0]",0.12591157853603363,-0.06776054948568344,0.001983642578125,-0.000164031982421875,-27.973411560058594
1743599779.6883838,-0.1355210933344245,-0.0,"[174.0, 185.0, 181.0, 156.0, 154.0, 154.0, 156.0, 181.0, 185.0, 174.0]",0.18862465023994446,-0.06776054948568344,0.001800537109375,-0.0001621246337890625,-27.969635009765625
1743599779.691292,-0.1355210933344245,-0.0,"[174.0, 185.0, 181.0, 156.0, 154.0, 154.0, 156.0, 181.0, 185.0, 174.0]",0.13106867671012878,-0.06776054948568344,0.001678466796875,-0.0001621246337890625,-27.967010498046875
1743599779.7230446,-0.1355210933344245,-0.0,"[174.0, 185.0, 181.0, 156.0, 154.0, 154.0, 156.0, 181.0, 185.0, 174.0]",0.11465713381767273,-0.06776054948568344,0.00177001953125,-0.00016021728515625,-27.96930694580078
1743599779.7259345,-0.1355210933344245,-0.0,"[174.0, 185.0, 181.0, 156.0, 154.0, 154.0, 156.0, 181.0, 185.0, 174.0]",0.18066631257534027,-0.06776054948568344,0.001617431640625,-0.00016021728515625,-27.96569061279297
1743599779.7556145,-0.1355210933344245,-0.0,"[174.0, 185.0, 181.0, 156.0, 154.0, 154.0, 156.0, 181.0, 185.0, 174.0]",0.13129164278507233,-0.06776054948568344,0.001495361328125,-0.0001621246337890625,-27.963058471679688
1743599779.7853882,-0.1355210933344245,-0.0,"[174.0, 185.0, 181.0, 156.0, 154.0, 154.0, 156.0, 181.0, 185.0, 174.0]",0.11307449638843536,-0.06776054948568344,0.0015869140625,-0.0001621246337890625,-27.96532440185547
1743599779.788481,-0.1355210933344245,-0.0,"[174.0, 185.0, 181.0, 156.0, 154.0, 154.0, 156.0, 181.0, 185.0, 174.0]",0.17781855165958405,-0.06776054948568344,0.001434326171875,-0.000164031982421875,-27.961761474609375
1743599779.8173668,-0.1355210933344245,-0.0,"[174.0, 185.0, 181.0, 156.0, 154.0, 154.0, 156.0, 181.0, 185.0, 174.0]",0.12757740914821625,-0.06776054948568344,0.001312255859375,-0.000164031982421875,-27.959213256835938
1743599779.858236,-0.1355210933344245,-0.0,"[174.0, 185.0, 181.0, 156.0, 154.0, 154.0, 156.0, 181.0, 185.0, 174.0]",0.1322934925556183,-0.06776054948568344,0.00140380859375,-0.0001659393310546875,-27.96186065673828
1743599779.861018,-0.1355210933344245,-0.0,"[174.0, 185.0, 181.0, 156.0, 154.0, 154.0, 156.0, 181.0, 185.0, 174.0]",0.11917547136545181,-0.06776054948568344,0.001312255859375,-0.0001678466796875,-27.95947265625
1743599779.893908,-0.1355210933344245,-0.0,"[174.0, 185.0, 181.0, 156.0, 154.0, 154.0, 156.0, 181.0, 185.0, 174.0]",0.18669167160987854,-0.06776054948568344,0.00146484375,-0.0001697540283203125,-27.963211059570312
1743599779.8981037,-0.1355210933344245,-0.0,"[174.0, 185.0, 181.0, 156.0, 154.0, 154.0, 156.0, 181.0, 185.0, 174.0]",0.13252705335617065,-0.06776054948568344,0.0015869140625,-0.000171661376953125,-27.965866088867188
1743599779.9280722,-0.1355210933344245,-0.0,"[174.0, 185.0, 181.0, 156.0, 154.0, 154.0, 156.0, 181.0, 185.0, 174.0]",0.10538814216852188,-0.06776054948568344,0.00152587890625,-0.000171661376953125,-27.96375274658203
1743599779.9307644,-0.1355210933344245,-0.0,"[174.0, 185.0, 181.0, 156.0, 154.0, 154.0, 156.0, 181.0, 185.0, 174.0]",0.18950282037258148,-0.06776054948568344,0.001678466796875,-0.0001735687255859375,-27.967544555664062
1743599779.95976,-0.1355210933344245,-0.0,"[174.0, 185.0, 181.0, 156.0, 154.0, 154.0, 156.0, 181.0, 185.0, 174.0]",0.1303761899471283,-0.06776054948568344,0.001800537109375,-0.00017547607421875,-27.97015380859375
1743599779.964357,-0.1355210933344245,-0.0,"[174.0, 185.0, 181.0, 156.0, 154.0, 154.0, 156.0, 181.0, 185.0, 174.0]",0.11898311227560043,-0.06776054948568344,0.001708984375,-0.00017547607421875,-27.9677734375
1743599779.9938731,-0.1355210933344245,-0.0,"[174.0, 185.0, 181.0, 156.0, 154.0, 154.0, 156.0, 181.0, 185.0, 174.0]",0.19494479894638062,-0.06776054948568344,0.00189208984375,-0.0001773834228515625,-27.9716796875
1743599780.0242183,-0.1355210933344245,-0.0,"[174.0, 185.0, 181.0, 156.0, 154.0, 154.0, 156.0, 181.0, 185.0, 174.0]",0.11918210238218307,-0.06776054948568344,0.001983642578125,-0.0001773834228515625,-27.97406005859375
1743599780.0270536,-0.1355210933344245,-0.0,"[174.0, 185.0, 181.0, 156.0, 154.0, 154.0, 156.0, 181.0, 185.0, 174.0]",0.17161054909229279,-0.06776054948568344,0.0018310546875,-0.000179290771484375,-27.970626831054688
1743599780.0641365,-0.1355210933344245,-0.0,"[174.0, 185.0, 181.0, 156.0, 154.0, 154.0, 156.0, 181.0, 185.0, 174.0]",0.11301300674676895,-0.06776054948568344,0.001739501953125,-0.000179290771484375,-27.968368530273438
1743599780.0965328,-0.1355210933344245,-0.0,"[174.0, 185.0, 181.0, 156.0, 154.0, 154.0, 156.0, 181.0, 185.0, 174.0]",0.19054508209228516,-0.06776054948568344,0.00189208984375,-0.0001811981201171875,-27.972183227539062
1743599780.0995576,-0.1355210933344245,-0.0,"[174.0, 185.0, 181.0, 156.0, 154.0, 154.0, 156.0, 181.0, 185.0, 174.0]",0.12900428473949432,-0.06776054948568344,0.00201416015625,-0.0001811981201171875,-27.974761962890625
1743599780.1299024,-0.1355210933344245,-0.0,"[174.0, 185.0, 181.0, 156.0, 154.0, 154.0, 156.0, 181.0, 185.0, 174.0]",0.12681153416633606,-0.06776054948568344,0.001922607421875,-0.0001811981201171875,-27.97222900390625
1743599780.1329591,-0.1355210933344245,-0.0,"[174.0, 185.0, 181.0, 156.0, 154.0, 154.0, 156.0, 181.0, 185.0, 174.0]",0.1820586621761322,-0.06776054948568344,0.0020751953125,-0.0001811981201171875,-27.975868225097656
1743599780.1627586,-0.1355210933344245,-0.0,"[174.0, 185.0, 181.0, 156.0, 154.0, 154.0, 156.0, 181.0, 185.0, 174.0]",0.1315350979566574,-0.06776054948568344,0.002197265625,-0.0001811981201171875,-27.978500366210938
1743599780.1653848,-0.1355210933344245,-0.0,"[174.0, 185.0, 181.0, 156.0, 154.0, 154.0, 156.0, 181.0, 185.0, 174.0]",0.11155697703361511,-0.06776054948568344,0.00213623046875,-0.0001811981201171875,-27.976272583007812
1743599780.1952245,-0.1355210933344245,-0.0,"[174.0, 185.0, 181.0, 156.0, 154.0, 154.0, 156.0, 181.0, 185.0, 174.0]",0.17717304825782776,-0.06776054948568344,0.002288818359375,-0.0001811981201171875,-27.979812622070312
1743599780.2264569,-0.1355210933344245,-0.0,"[174.0, 185.0, 181.0, 156.0, 154.0, 154.0, 156.0, 181.0, 185.0, 174.0]",0.1263260692358017,-0.06776054948568344,0.00238037109375,-0.0001811981201171875,-27.982345581054688
1743599780.2291417,-0.1355210933344245,-0.0,"[174.0, 185.0, 181.0, 156.0, 154.0, 154.0, 156.0, 181.0, 185.0, 174.0]",0.13774338364601135,-0.06776054948568344,0.002288818359375,-0.0001811981201171875,-27.979591369628906
1743599780.260754,-0.1355210933344245,-0.0,"[174.0, 185.0, 181.0, 156.0, 154.0, 154.0, 156.0, 181.0, 185.0, 174.0]",0.053316764533519745,-0.06776054948568344,0.0023193359375,-0.0001811981201171875,-27.98065948486328
1743599780.2951741,-0.1355210933344245,-0.0,"[174.0, 185.0, 181.0, 156.0, 154.0, 154.0, 156.0, 181.0, 185.0, 174.0]",0.18121187388896942,-0.06776054948568344,0.002166748046875,-0.0001811981201171875,-27.977027893066406
1743599780.29824,-0.1355210933344245,-0.0,"[174.0, 185.0, 181.0, 156.0, 154.0, 154.0, 156.0, 181.0, 185.0, 174.0]",0.13166704773902893,-0.06776054948568344,0.002044677734375,-0.0001811981201171875,-27.974395751953125
1743599780.332327,-0.1355210933344245,-0.0,"[174.0, 185.0, 181.0, 156.0, 154.0, 154.0, 156.0, 181.0, 185.0, 174.0]",0.11089859902858734,-0.06776054948568344,0.00213623046875,-0.0001811981201171875,-27.97661590576172
1743599780.3354766,-0.1355210933344245,-0.0,"[174.0, 185.0, 181.0, 156.0, 154.0, 154.0, 156.0, 181.0, 185.0, 174.0]",0.1774042546749115,-0.06776054948568344,0.001983642578125,-0.0001811981201171875,-27.973060607910156
1743599780.4193218,-0.1355210933344245,-0.0,"[174.0, 185.0, 181.0, 156.0, 154.0, 154.0, 156.0, 181.0, 185.0, 174.0]",0.1265757530927658,-0.06776054948568344,0.001861572265625,-0.0001811981201171875,-27.97052764892578
1743599780.4223037,-0.1355210933344245,-0.0,"[174.0, 185.0, 181.0, 156.0, 154.0, 154.0, 156.0, 181.0, 185.0, 174.0]",0.13661330938339233,-0.06776054948568344,0.001983642578125,-0.0001811981201171875,-27.9732666015625
1743599780.425139,-0.1355210933344245,-0.0,"[174.0, 185.0, 181.0, 156.0, 154.0, 154.0, 156.0, 181.0, 185.0, 174.0]",0.06524484604597092,-0.06776054948568344,0.001922607421875,-0.0001811981201171875,-27.971954345703125
1743599780.4279616,-0.1355210933344245,-0.0,"[174.0, 185.0, 181.0, 156.0, 154.0, 154.0, 156.0, 181.0, 185.0, 174.0]",0.1727018654346466,-0.06776054948568344,0.0020751953125,-0.0001811981201171875,-27.97541046142578
1743599780.4577062,-0.1355210933344245,-0.0,"[174.0, 185.0, 181.0, 156.0, 154.0, 154.0, 156.0, 181.0, 185.0, 174.0]",0.11601919680833817,-0.06776054948568344,0.002166748046875,-0.0001811981201171875,-27.977737426757812
1743599780.4606385,-0.1355210933344245,-0.0,"[174.0, 185.0, 181.0, 156.0, 154.0, 154.0, 156.0, 181.0, 185.0, 174.0]",0.18358410894870758,-0.06776054948568344,0.00201416015625,-0.000179290771484375,-27.97406005859375
1743599780.492719,-0.1355210933344245,-0.0,"[174.0, 185.0, 181.0, 156.0, 154.0, 154.0, 156.0, 181.0, 185.0, 174.0]",0.13259631395339966,-0.06776054948568344,0.00189208984375,-0.000179290771484375,-27.971405029296875
1743599780.496899,-0.1355210933344245,-0.0,"[174.0, 185.0, 181.0, 156.0, 154.0, 154.0, 156.0, 181.0, 185.0, 174.0]",0.10494568198919296,-0.06776054948568344,0.001953125,-0.000179290771484375,-27.97350311279297
1743599780.5272956,-0.1355210933344245,-0.0,"[174.0, 185.0, 181.0, 156.0, 154.0, 154.0, 156.0, 181.0, 185.0, 174.0]",0.1906663328409195,-0.06776054948568344,0.001800537109375,-0.000179290771484375,-27.969688415527344
1743599780.5302906,-0.1355210933344245,-0.0,"[174.0, 185.0, 181.0, 156.0, 154.0, 154.0, 156.0, 181.0, 185.0, 174.0]",0.12875232100486755,-0.06776054948568344,0.001678466796875,-0.000179290771484375,-27.96710968017578
1743599780.5605733,-0.1355210933344245,-0.0,"[174.0, 185.0, 181.0, 156.0, 154.0, 154.0, 156.0, 181.0, 185.0, 174.0]",0.12799842655658722,-0.06776054948568344,0.00177001953125,-0.000179290771484375,-27.96967315673828
1743599780.56371,-0.1355210933344245,-0.0,"[174.0, 185.0, 181.0, 156.0, 154.0, 154.0, 156.0, 181.0, 185.0, 174.0]",0.17119276523590088,-0.06776054948568344,0.001617431640625,-0.000179290771484375,-27.96624755859375
1743599780.5935943,-0.1355210933344245,-0.0,"[174.0, 185.0, 181.0, 156.0, 154.0, 154.0, 156.0, 181.0, 185.0, 174.0]",0.11018086969852448,-0.06776054948568344,0.00152587890625,-0.000179290771484375,-27.96404266357422
1743599780.6236947,-0.1355210933344245,-0.0,"[174.0, 185.0, 181.0, 156.0, 154.0, 154.0, 156.0, 181.0, 185.0, 174.0]",0.1934174746274948,-0.06776054948568344,0.001678466796875,-0.000179290771484375,-27.967910766601562
1743599780.6269057,-0.1355210933344245,-0.0,"[174.0, 185.0, 181.0, 156.0, 154.0, 154.0, 156.0, 181.0, 185.0, 174.0]",0.12335958331823349,-0.06776054948568344,0.001800537109375,-0.000179290771484375,-27.970382690429688
1743599780.6591647,-0.1355210933344245,-0.0,"[174.0, 185.0, 181.0, 156.0, 154.0, 154.0, 156.0, 181.0, 185.0, 174.0]",0.15234200656414032,-0.06776054948568344,0.001678466796875,-0.000179290771484375,-27.967330932617188
1743599780.690831,-0.1355210933344245,-0.0,"[174.0, 185.0, 181.0, 156.0, 154.0, 154.0, 156.0, 181.0, 185.0, 174.0]",0.02194090001285076,-0.06776054948568344,0.00164794921875,-0.000179290771484375,-27.966896057128906
1743599780.6935863,-0.1355210933344245,-0.0,"[174.0, 185.0, 181.0, 156.0, 154.0, 154.0, 156.0, 181.0, 185.0, 174.0]",0.19558392465114594,-0.06776054948568344,0.0018310546875,-0.000179290771484375,-27.970809936523438
1743599780.724543,-0.1355210933344245,-0.0,"[174.0, 185.0, 181.0, 156.0, 154.0, 154.0, 156.0, 181.0, 185.0, 174.0]",0.11721830815076828,-0.06776054948568344,0.001922607421875,-0.000179290771484375,-27.973159790039062
1743599780.7277076,-0.1355210933344245,-0.0,"[174.0, 185.0, 181.0, 156.0, 154.0, 154.0, 156.0, 181.0, 185.0, 174.0]",0.17994369566440582,-0.06776054948568344,0.00177001953125,-0.000179290771484375,-27.969558715820312
1743599780.7574682,-0.1355210933344245,-0.0,"[174.0, 185.0, 181.0, 156.0, 154.0, 154.0, 156.0, 181.0, 185.0, 174.0]",0.1299830675125122,-0.06776054948568344,0.00164794921875,-0.000179290771484375,-27.966949462890625
1743599780.7876039,-0.1355210933344245,-0.0,"[174.0, 185.0, 181.0, 156.0, 154.0, 154.0, 156.0, 181.0, 185.0, 174.0]",0.12012200057506561,-0.06776054948568344,0.001739501953125,-0.000179290771484375,-27.9693603515625
1743599780.7904112,-0.1355210933344245,-0.0,"[174.0, 185.0, 181.0, 156.0, 154.0, 154.0, 156.0, 181.0, 185.0, 174.0]",0.1980002522468567,-0.06776054948568344,0.0015869140625,-0.000179290771484375,-27.96539306640625
1743599780.8192096,-0.1355210933344245,-0.0,"[174.0, 185.0, 181.0, 156.0, 154.0, 154.0, 156.0, 181.0, 185.0, 174.0]",0.10944057255983353,-0.06776054948568344,0.00146484375,-0.000179290771484375,-27.96320343017578
1743599780.8223124,-0.1355210933344245,-0.0,"[174.0, 185.0, 181.0, 156.0, 154.0, 154.0, 156.0, 181.0, 185.0, 174.0]",0.19077622890472412,-0.06776054948568344,0.00164794921875,-0.000179290771484375,-27.967018127441406
1743599780.8545928,-0.1355210933344245,-0.0,"[174.0, 185.0, 181.0, 156.0, 154.0, 154.0, 156.0, 181.0, 185.0, 174.0]",0.12839612364768982,-0.06776054948568344,0.00177001953125,-0.000179290771484375,-27.969589233398438
1743599780.8864727,-0.1355210933344245,-0.0,"[174.0, 185.0, 181.0, 156.0, 154.0, 154.0, 156.0, 181.0, 185.0, 174.0]",0.1295126974582672,-0.06776054948568344,0.00164794921875,-0.000179290771484375,-27.966995239257812
1743599780.8902235,-0.1355210933344245,-0.0,"[174.0, 185.0, 181.0, 156.0, 154.0, 154.0, 156.0, 181.0, 185.0, 174.0]",0.15434008836746216,-0.06776054948568344,0.001800537109375,-0.000179290771484375,-27.9700927734375
1743599780.919703,-0.1355210933344245,-0.0,"[174.0, 185.0, 181.0, 156.0, 154.0, 154.0, 156.0, 181.0, 185.0, 174.0]",0.038010094314813614,-0.06776054948568344,0.0018310546875,-0.000179290771484375,-27.970848083496094
1743599780.9232259,-0.1355210933344245,-0.0,"[174.0, 185.0, 181.0, 156.0, 154.0, 154.0, 156.0, 181.0, 185.0, 174.0]",0.20439358055591583,-0.06776054948568344,0.00164794921875,-0.000179290771484375,-27.966758728027344
1743599780.9523213,-0.1355210933344245,-0.0,"[174.0, 185.0, 181.0, 156.0, 154.0, 154.0, 156.0, 181.0, 185.0, 174.0]",0.07988209277391434,-0.06776054948568344,0.0015869140625,-0.000179290771484375,-27.965164184570312
1743599780.9822242,-0.1355210933344245,-0.0,"[174.0, 185.0, 181.0, 156.0, 154.0, 154.0, 156.0, 181.0, 185.0, 174.0]",0.18827949464321136,-0.06776054948568344,0.001739501953125,-0.000179290771484375,-27.96893310546875
1743599780.9850688,-0.1355210933344245,-0.0,"[174.0, 185.0, 181.0, 156.0, 154.0, 154.0, 156.0, 181.0, 185.0, 174.0]",0.1315682828426361,-0.06776054948568344,0.001861572265625,-0.000179290771484375,-27.97156524658203
1743599781.0139222,-0.1355210933344245,-0.0,"[174.0, 185.0, 181.0, 156.0, 154.0, 154.0, 156.0, 181.0, 185.0, 174.0]",0.11167590320110321,-0.06776054948568344,0.001800537109375,-0.000179290771484375,-27.969329833984375
1743599781.0432222,-0.1355210933344245,-0.0,"[174.0, 185.0, 181.0, 156.0, 154.0, 154.0, 156.0, 181.0, 185.0, 174.0]",0.176963672041893,-0.06776054948568344,0.001922607421875,-0.000179290771484375,-27.972869873046875
1743599781.0461888,-0.1355210933344245,-0.0,"[174.0, 185.0, 181.0, 156.0, 154.0, 154.0, 156.0, 181.0, 185.0, 174.0]",0.12592850625514984,-0.06776054948568344,0.002044677734375,-0.000179290771484375,-27.975387573242188
1743599781.0818782,-0.1355210933344245,-0.0,"[174.0, 185.0, 181.0, 156.0, 154.0, 154.0, 156.0, 181.0, 185.0, 174.0]",0.1394055038690567,-0.06776054948568344,0.001953125,-0.000179290771484375,-27.97260284423828
1743599781.1160555,-0.1355210933344245,-0.0,"[174.0, 185.0, 181.0, 156.0, 154.0, 154.0, 156.0, 181.0, 185.0, 174.0]",0.03828089311718941,-0.06776054948568344,0.001983642578125,-0.000179290771484375,-27.973365783691406
1743599781.1188018,-0.1355210933344245,-0.0,"[174.0, 185.0, 181.0, 156.0, 154.0, 154.0, 156.0, 181.0, 185.0, 174.0]",0.20702536404132843,-0.06776054948568344,0.001800537109375,-0.000179290771484375,-27.969223022460938
1743599781.1493952,-0.1355210933344245,-0.0,"[174.0, 185.0, 181.0, 156.0, 154.0, 154.0, 156.0, 181.0, 185.0, 174.0]",0.06601885706186295,-0.06776054948568344,0.001739501953125,-0.000179290771484375,-27.96790313720703
1743599781.152674,-0.1355210933344245,-0.0,"[174.0, 185.0, 181.0, 156.0, 154.0, 154.0, 156.0, 181.0, 185.0, 174.0]",0.17260541021823883,-0.06776054948568344,0.00189208984375,-0.000179290771484375,-27.971359252929688
1743599781.182769,-0.1355210933344245,-0.0,"[174.0, 185.0, 181.0, 156.0, 154.0, 154.0, 156.0, 181.0, 185.0, 174.0]",0.11573992669582367,-0.06776054948568344,0.001983642578125,-0.000179290771484375,-27.973670959472656
1743599781.1867929,-0.1355210933344245,-0.0,"[174.0, 185.0, 181.0, 156.0, 154.0, 154.0, 156.0, 181.0, 185.0, 174.0]",0.1845424771308899,-0.06776054948568344,0.0018310546875,-0.000179290771484375,-27.96997833251953
1743599781.217222,-0.1355210933344245,-0.0,"[174.0, 185.0, 181.0, 156.0, 154.0, 154.0, 156.0, 181.0, 185.0, 174.0]",0.13283663988113403,-0.06776054948568344,0.001708984375,-0.000179290771484375,-27.967315673828125
1743599781.2465394,-0.1355210933344245,-0.0,"[174.0, 185.0, 181.0, 156.0, 154.0, 154.0, 156.0, 181.0, 185.0, 174.0]",0.10343410819768906,-0.06776054948568344,0.00177001953125,-0.000179290771484375,-27.969390869140625
1743599781.2495177,-0.1355210933344245,-0.0,"[174.0, 185.0, 181.0, 156.0, 154.0, 154.0, 156.0, 181.0, 185.0, 174.0]",0.19487828016281128,-0.06776054948568344,0.001617431640625,-0.000179290771484375,-27.965484619140625
1743599781.285397,-0.1355210933344245,-0.0,"[174.0, 185.0, 181.0, 156.0, 154.0, 154.0, 156.0, 181.0, 185.0, 174.0]",0.12002597004175186,-0.06776054948568344,0.001495361328125,-0.000179290771484375,-27.963088989257812
1743599781.2892716,-0.1355210933344245,-0.0,"[174.0, 185.0, 181.0, 156.0, 154.0, 154.0, 156.0, 181.0, 185.0, 174.0]",0.16895171999931335,-0.06776054948568344,0.00164794921875,-0.000179290771484375,-27.966468811035156
1743599781.320371,-0.1355210933344245,-0.0,"[174.0, 185.0, 181.0, 156.0, 154.0, 154.0, 156.0, 181.0, 185.0, 174.0]",0.1042238399386406,-0.06776054948568344,0.001739501953125,-0.000179290771484375,-27.968551635742188
1743599781.324554,-0.1355210933344245,-0.0,"[174.0, 185.0, 181.0, 156.0, 154.0, 154.0, 156.0, 181.0, 185.0, 174.0]",0.1918918341398239,-0.06776054948568344,0.0015869140625,-0.000179290771484375,-27.96471405029297
1743599781.3530555,-0.1355210933344245,-0.0,"[174.0, 185.0, 181.0, 156.0, 154.0, 154.0, 156.0, 181.0, 185.0, 174.0]",0.12621966004371643,-0.06776054948568344,0.00146484375,-0.000179290771484375,-27.962188720703125
1743599781.3825533,-0.1355210933344245,-0.0,"[174.0, 185.0, 181.0, 156.0, 154.0, 154.0, 156.0, 181.0, 185.0, 174.0]",0.1393813192844391,-0.06776054948568344,0.0015869140625,-0.000179290771484375,-27.96497344970703
1743599781.3851972,-0.1355210933344245,-0.0,"[174.0, 185.0, 181.0, 156.0, 154.0, 154.0, 156.0, 181.0, 185.0, 174.0]",0.03848378732800484,-0.06776054948568344,0.001556396484375,-0.000179290771484375,-27.964202880859375
1743599781.4145918,-0.1355210933344245,-0.0,"[174.0, 185.0, 181.0, 156.0, 154.0, 154.0, 156.0, 181.0, 185.0, 174.0]",0.2070545107126236,-0.06776054948568344,0.001708984375,-0.000179290771484375,-27.968353271484375
1743599781.4454339,-0.1355210933344245,-0.0,"[174.0, 185.0, 181.0, 156.0, 154.0, 154.0, 156.0, 181.0, 185.0, 174.0]",0.06581584364175797,-0.06776054948568344,0.00177001953125,-0.000179290771484375,-27.96966552734375
1743599781.4482064,-0.1355210933344245,-0.0,"[174.0, 185.0, 181.0, 156.0, 154.0, 154.0, 156.0, 181.0, 185.0, 174.0]",0.17262773215770721,-0.06776054948568344,0.00164794921875,-0.000179290771484375,-27.966209411621094
1743599781.4806457,-0.1355210933344245,-0.0,"[174.0, 185.0, 181.0, 156.0, 154.0, 154.0, 156.0, 181.0, 185.0, 174.0]",0.11579375714063644,-0.06776054948568344,0.00152587890625,-0.000179290771484375,-27.963897705078125
1743599781.5119853,-0.1355210933344245,-0.0,"[174.0, 185.0, 181.0, 156.0, 154.0, 154.0, 156.0, 181.0, 185.0, 174.0]",0.18436548113822937,-0.06776054948568344,0.001678466796875,-0.000179290771484375,-27.96758270263672
1743599781.5148292,-0.1355210933344245,-0.0,"[174.0, 185.0, 181.0, 156.0, 154.0, 154.0, 156.0, 181.0, 185.0, 174.0]",0.1327550858259201,-0.06776054948568344,0.001800537109375,-0.000179290771484375,-27.970245361328125
1743599781.5448773,-0.1355210933344245,-0.0,"[174.0, 185.0, 181.0, 156.0, 154.0, 154.0, 156.0, 181.0, 185.0, 174.0]",0.10388537496328354,-0.06776054948568344,0.001739501953125,-0.000179290771484375,-27.968162536621094
1743599781.547691,-0.1355210933344245,-0.0,"[174.0, 185.0, 181.0, 156.0, 154.0, 154.0, 156.0, 181.0, 185.0, 174.0]",0.19359008967876434,-0.06776054948568344,0.00189208984375,-0.000179290771484375,-27.97203826904297
1743599781.5777853,-0.1355210933344245,-0.0,"[174.0, 185.0, 181.0, 156.0, 154.0, 154.0, 156.0, 181.0, 185.0, 174.0]",0.12331470847129822,-0.06776054948568344,0.00201416015625,-0.000179290771484375,-27.974502563476562
1743599781.6075509,-0.1355210933344245,-0.0,"[174.0, 185.0, 181.0, 156.0, 154.0, 154.0, 156.0, 181.0, 185.0, 174.0]",0.153395414352417,-0.06776054948568344,0.00189208984375,-0.000179290771484375,-27.971435546875
1743599781.6100347,-0.1355210933344245,-0.0,"[174.0, 185.0, 181.0, 156.0, 154.0, 154.0, 156.0, 181.0, 185.0, 174.0]",0.026935506612062454,-0.06776054948568344,0.001861572265625,-0.000179290771484375,-27.97089385986328
1743599781.639175,-0.1355210933344245,-0.0,"[174.0, 185.0, 181.0, 156.0, 154.0, 154.0, 156.0, 181.0, 185.0, 174.0]",0.1764603704214096,-0.06776054948568344,0.00201416015625,-0.000179290771484375,-27.97442626953125
1743599781.6420014,-0.1355210933344245,-0.0,"[174.0, 185.0, 181.0, 156.0, 154.0, 154.0, 156.0, 181.0, 185.0, 174.0]",0.1251150369644165,-0.06776054948568344,0.00213623046875,-0.000179290771484375,-27.9769287109375
1743599781.6756659,-0.1355210933344245,-0.0,"[174.0, 185.0, 181.0, 156.0, 154.0, 154.0, 156.0, 181.0, 185.0, 174.0]",0.14296241104602814,-0.06776054948568344,0.00201416015625,-0.000179290771484375,-27.974075317382812
1743599781.7075758,-0.1355210933344245,-0.0,"[174.0, 185.0, 181.0, 156.0, 154.0, 154.0, 156.0, 181.0, 185.0, 174.0]",0.015310799703001976,-0.06776054948568344,0.00201416015625,-0.000179290771484375,-27.974380493164062
1743599781.7108903,-0.1355210933344245,-0.0,"[174.0, 185.0, 181.0, 156.0, 154.0, 154.0, 156.0, 181.0, 185.0, 174.0]",0.17367924749851227,-0.06776054948568344,0.00189208984375,-0.000179290771484375,-27.970901489257812
1743599781.74183,-0.1355210933344245,-0.0,"[174.0, 185.0, 181.0, 156.0, 154.0, 154.0, 156.0, 181.0, 185.0, 174.0]",0.11910979449748993,-0.06776054948568344,0.00177001953125,-0.000179290771484375,-27.968521118164062
1743599781.7449331,-0.1355210933344245,-0.0,"[174.0, 185.0, 181.0, 156.0, 154.0, 154.0, 156.0, 181.0, 185.0, 174.0]",0.17118094861507416,-0.06776054948568344,0.001922607421875,-0.000179290771484375,-27.971939086914062
1743599781.7744582,-0.1355210933344245,-0.0,"[174.0, 185.0, 181.0, 156.0, 154.0, 154.0, 156.0, 181.0, 185.0, 174.0]",0.11162896454334259,-0.06776054948568344,0.00201416015625,-0.000179290771484375,-27.97418212890625
1743599781.8048267,-0.1355210933344245,-0.0,"[174.0, 185.0, 181.0, 156.0, 154.0, 154.0, 156.0, 181.0, 185.0, 174.0]",0.1916806846857071,-0.06776054948568344,0.001861572265625,-0.000179290771484375,-27.9703369140625
1743599781.8077447,-0.1355210933344245,-0.0,"[174.0, 185.0, 181.0, 156.0, 154.0, 154.0, 156.0, 181.0, 185.0, 174.0]",0.127151221036911,-0.06776054948568344,0.001739501953125,-0.000179290771484375,-27.967796325683594
1743599781.8365593,-0.1355210933344245,-0.0,"[174.0, 185.0, 181.0, 156.0, 154.0, 154.0, 156.0, 181.0, 185.0, 174.0]",0.13604570925235748,-0.06776054948568344,0.0018310546875,-0.000179290771484375,-27.97052001953125
1743599781.868782,-0.1355210933344245,-0.0,"[174.0, 185.0, 181.0, 156.0, 154.0, 154.0, 156.0, 181.0, 185.0, 174.0]",0.07168097794055939,-0.06776054948568344,0.00177001953125,-0.000179290771484375,-27.969085693359375
1743599781.8738952,-0.1355210933344245,-0.0,"[174.0, 185.0, 181.0, 156.0, 154.0, 154.0, 156.0, 181.0, 185.0, 174.0]",0.17292867600917816,-0.06776054948568344,0.001922607421875,-0.000179290771484375,-27.972549438476562
1743599781.903333,-0.1355210933344245,-0.0,"[174.0, 185.0, 181.0, 156.0, 154.0, 154.0, 156.0, 181.0, 185.0, 174.0]",0.11659374833106995,-0.06776054948568344,0.002044677734375,-0.000179290771484375,-27.974884033203125
1743599781.9069808,-0.1355210933344245,-0.0,"[174.0, 185.0, 181.0, 156.0, 154.0, 154.0, 156.0, 181.0, 185.0, 174.0]",0.18152934312820435,-0.06776054948568344,0.00189208984375,-0.000179290771484375,-27.97125244140625
1743599781.935804,-0.1355210933344245,-0.0,"[174.0, 185.0, 181.0, 156.0, 154.0, 154.0, 156.0, 181.0, 185.0, 174.0]",0.1315859854221344,-0.06776054948568344,0.00177001953125,-0.000179290771484375,-27.968612670898438
1743599781.967123,-0.1355210933344245,-0.0,"[174.0, 185.0, 181.0, 156.0, 154.0, 154.0, 156.0, 181.0, 185.0, 174.0]",0.11121539026498795,-0.06776054948568344,0.0018310546875,-0.000179290771484375,-27.970840454101562
1743599781.9696505,-0.1355210933344245,-0.0,"[174.0, 185.0, 181.0, 156.0, 154.0, 154.0, 156.0, 181.0, 185.0, 174.0]",0.17728503048419952,-0.06776054948568344,0.001678466796875,-0.000179290771484375,-27.96729278564453
1743599781.9993646,-0.1355210933344245,-0.0,"[174.0, 185.0, 181.0, 156.0, 154.0, 154.0, 156.0, 181.0, 185.0, 174.0]",0.12640447914600372,-0.06776054948568344,0.0015869140625,-0.000179290771484375,-27.964759826660156
1743599782.0018506,-0.1355210933344245,-0.0,"[174.0, 185.0, 181.0, 156.0, 154.0, 154.0, 156.0, 181.0, 185.0, 174.0]",0.13715507090091705,-0.06776054948568344,0.001678466796875,-0.000179290771484375,-27.967506408691406
1743599782.030588,-0.1355210933344245,-0.0,"[174.0, 185.0, 181.0, 156.0, 154.0, 154.0, 156.0, 181.0, 185.0, 174.0]",0.059360720217227936,-0.06776054948568344,0.001617431640625,-0.000179290771484375,-27.96631622314453
1743599782.0633464,-0.1355210933344245,-0.0,"[174.0, 185.0, 181.0, 156.0, 154.0, 154.0, 156.0, 181.0, 185.0, 174.0]",0.17303317785263062,-0.06776054948568344,0.00177001953125,-0.000179290771484375,-27.96977996826172
1743599782.06738,-0.1355210933344245,-0.0,"[174.0, 185.0, 181.0, 156.0, 154.0, 154.0, 156.0, 181.0, 185.0, 174.0]",0.11691036820411682,-0.06776054948568344,0.00189208984375,-0.000179290771484375,-27.972122192382812
1743599782.1009982,-0.1355210933344245,-0.0,"[174.0, 185.0, 181.0, 156.0, 154.0, 154.0, 156.0, 181.0, 185.0, 174.0]",0.18031957745552063,-0.06776054948568344,0.001739501953125,-0.000179290771484375,-27.96851348876953
1743599782.1335888,-0.1355210933344245,-0.0,"[174.0, 185.0, 181.0, 156.0, 154.0, 154.0, 156.0, 181.0, 185.0, 174.0]",0.130341574549675,-0.06776054948568344,0.001617431640625,-0.000179290771484375,-27.965904235839844
1743599782.136371,-0.1355210933344245,-0.0,"[174.0, 185.0, 181.0, 156.0, 154.0, 154.0, 156.0, 181.0, 185.0, 174.0]",0.11832597851753235,-0.06776054948568344,0.001708984375,-0.000179290771484375,-27.96826934814453
1743599782.1663606,-0.1355210933344245,-0.0,"[174.0, 185.0, 181.0, 156.0, 154.0, 154.0, 156.0, 181.0, 185.0, 174.0]",0.19280125200748444,-0.06776054948568344,0.00152587890625,-0.000179290771484375,-27.96441650390625
1743599782.169519,-0.1355210933344245,-0.0,"[174.0, 185.0, 181.0, 156.0, 154.0, 154.0, 156.0, 181.0, 185.0, 174.0]",0.12443449348211288,-0.06776054948568344,0.001434326171875,-0.000179290771484375,-27.96192169189453
1743599782.199273,-0.1355210933344245,-0.0,"[174.0, 185.0, 181.0, 156.0, 154.0, 154.0, 156.0, 181.0, 185.0, 174.0]",0.14693473279476166,-0.06776054948568344,0.00152587890625,-0.000179290771484375,-27.964859008789062
1743599782.2020915,-0.1355210933344245,-0.0,"[174.0, 185.0, 181.0, 156.0, 154.0, 154.0, 156.0, 181.0, 185.0, 174.0]",0.00015416664246004075,-0.06776054948568344,0.00152587890625,-0.000179290771484375,-27.964866638183594
1743599782.2329583,-0.1355210933344245,-0.0,"[174.0, 185.0, 181.0, 156.0, 154.0, 154.0, 156.0, 181.0, 185.0, 174.0]",0.00041150953620672226,-0.06776054948568344,0.00152587890625,-0.000179290771484375,-27.964859008789062
1743599782.265343,-0.1355210933344245,-0.0,"[174.0, 185.0, 181.0, 156.0, 154.0, 154.0, 156.0, 181.0, 185.0, 174.0]",0.0012158413883298635,-0.06776054948568344,0.00152587890625,-0.000179290771484375,-27.964881896972656
1743599782.269362,-0.1355210933344245,-0.0,"[174.0, 185.0, 181.0, 156.0, 154.0, 154.0, 156.0, 181.0, 185.0, 174.0]",0.003924488089978695,-0.06776054948568344,0.00152587890625,-0.000179290771484375,-27.964805603027344
1743599782.299193,-0.1355210933344245,-0.0,"[174.0, 185.0, 181.0, 156.0, 154.0, 154.0, 156.0, 181.0, 185.0, 174.0]",0.017083976417779922,-0.06776054948568344,0.001556396484375,-0.000179290771484375,-27.96514892578125
1743599782.328742,-0.1355210933344245,-0.0,"[174.0, 185.0, 181.0, 156.0, 154.0, 154.0, 156.0, 181.0, 185.0, 174.0]",0.1958191841840744,-0.06776054948568344,0.001373291015625,-0.000179290771484375,-27.961227416992188
1743599782.3314872,-0.1355210933344245,-0.0,"[174.0, 185.0, 181.0, 156.0, 154.0, 154.0, 156.0, 181.0, 185.0, 174.0]",0.11701962351799011,-0.06776054948568344,0.00128173828125,-0.000179290771484375,-27.958885192871094
1743599782.3641381,-0.1355210933344245,-0.0,"[174.0, 185.0, 181.0, 156.0, 154.0, 154.0, 156.0, 181.0, 185.0, 174.0]",0.18110692501068115,-0.06776054948568344,0.001434326171875,-0.000179290771484375,-27.962509155273438
1743599782.3673005,-0.1355210933344245,-0.0,"[174.0, 185.0, 181.0, 156.0, 154.0, 154.0, 156.0, 181.0, 185.0, 174.0]",0.13107284903526306,-0.06776054948568344,0.001556396484375,-0.000179290771484375,-27.965133666992188
1743599782.3998044,-0.1355210933344245,-0.0,"[174.0, 185.0, 181.0, 156.0, 154.0, 154.0, 156.0, 181.0, 185.0, 174.0]",0.11425890773534775,-0.06776054948568344,0.00146484375,-0.000179290771484375,-27.962844848632812
1743599782.4293618,-0.1355210933344245,-0.0,"[174.0, 185.0, 181.0, 156.0, 154.0, 154.0, 156.0, 181.0, 185.0, 174.0]",0.17996573448181152,-0.06776054948568344,0.001617431640625,-0.000179290771484375,-27.966445922851562
1743599782.4323337,-0.1355210933344245,-0.0,"[174.0, 185.0, 181.0, 156.0, 154.0, 154.0, 156.0, 181.0, 185.0, 174.0]",0.13062943518161774,-0.06776054948568344,0.001739501953125,-0.000179290771484375,-27.96906280517578
1743599782.4641416,-0.1355210933344245,-0.0,"[174.0, 185.0, 181.0, 156.0, 154.0, 154.0, 156.0, 181.0, 185.0, 174.0]",0.11710727959871292,-0.06776054948568344,0.00164794921875,-0.000179290771484375,-27.966720581054688
1743599782.468153,-0.1355210933344245,-0.0,"[174.0, 185.0, 181.0, 156.0, 154.0, 154.0, 156.0, 181.0, 185.0, 174.0]",0.18872763216495514,-0.06776054948568344,0.001800537109375,-0.000179290771484375,-27.970497131347656
1743599782.4981437,-0.1355210933344245,-0.0,"[174.0, 185.0, 181.0, 156.0, 154.0, 154.0, 156.0, 181.0, 185.0, 174.0]",0.13091734051704407,-0.06776054948568344,0.001922607421875,-0.000179290771484375,-27.973121643066406
1743599782.5281029,-0.1355210933344245,-0.0,"[174.0, 185.0, 181.0, 156.0, 154.0, 154.0, 156.0, 181.0, 185.0, 174.0]",0.11561192572116852,-0.06776054948568344,0.001861572265625,-0.000179290771484375,-27.970809936523438
1743599782.5308652,-0.1355210933344245,-0.0,"[174.0, 185.0, 181.0, 156.0, 154.0, 154.0, 156.0, 181.0, 185.0, 174.0]",0.1835271418094635,-0.06776054948568344,0.00201416015625,-0.000179290771484375,-27.97447967529297
1743599782.5607288,-0.1355210933344245,-0.0,"[174.0, 185.0, 181.0, 156.0, 154.0, 154.0, 156.0, 181.0, 185.0, 174.0]",0.13312479853630066,-0.06776054948568344,0.00213623046875,-0.000179290771484375,-27.977142333984375
1743599782.564727,-0.1355210933344245,-0.0,"[174.0, 185.0, 181.0, 156.0, 154.0, 154.0, 156.0, 181.0, 185.0, 174.0]",0.10144481807947159,-0.06776054948568344,0.002044677734375,-0.000179290771484375,-27.975112915039062
1743599782.594188,-0.1355210933344245,-0.0,"[174.0, 185.0, 181.0, 156.0, 154.0, 154.0, 156.0, 181.0, 185.0, 174.0]",0.20001287758350372,-0.06776054948568344,0.002227783203125,-0.000179290771484375,-27.97911834716797
1743599782.623199,-0.1355210933344245,-0.0,"[174.0, 185.0, 181.0, 156.0, 154.0, 154.0, 156.0, 181.0, 185.0, 174.0]",0.10158897191286087,-0.06776054948568344,0.0023193359375,-0.000179290771484375,-27.981155395507812
1743599782.6262796,-0.1355210933344245,-0.0,"[174.0, 185.0, 181.0, 156.0, 154.0, 154.0, 156.0, 181.0, 185.0, 174.0]",0.19555194675922394,-0.06776054948568344,0.002166748046875,-0.000179290771484375,-27.97723388671875
1743599782.6583774,-0.1355210933344245,-0.0,"[174.0, 185.0, 181.0, 156.0, 154.0, 154.0, 156.0, 181.0, 185.0, 174.0]",0.11735347658395767,-0.06776054948568344,0.002044677734375,-0.000179290771484375,-27.974884033203125
1743599782.6912048,-0.1355210933344245,-0.0,"[174.0, 185.0, 181.0, 156.0, 154.0, 154.0, 156.0, 181.0, 185.0, 174.0]",0.17948460578918457,-0.06776054948568344,0.002197265625,-0.000179290771484375,-27.978485107421875
1743599782.6937718,-0.1355210933344245,-0.0,"[174.0, 185.0, 181.0, 156.0, 154.0, 154.0, 156.0, 181.0, 185.0, 174.0]",0.12945875525474548,-0.06776054948568344,0.0023193359375,-0.000179290771484375,-27.98107147216797
1743599782.724616,-0.1355210933344245,-0.0,"[174.0, 185.0, 181.0, 156.0, 154.0, 154.0, 156.0, 181.0, 185.0, 174.0]",0.12298459559679031,-0.06776054948568344,0.002227783203125,-0.000179290771484375,-27.978614807128906
1743599782.7276216,-0.1355210933344245,-0.0,"[174.0, 185.0, 181.0, 156.0, 154.0, 154.0, 156.0, 181.0, 185.0, 174.0]",0.20043037831783295,-0.06776054948568344,0.002410888671875,-0.000179290771484375,-27.982620239257812
1743599782.7568438,-0.1355210933344245,-0.0,"[174.0, 185.0, 181.0, 156.0, 154.0, 154.0, 156.0, 181.0, 185.0, 174.0]",0.09979311376810074,-0.06776054948568344,0.00250244140625,-0.000179290771484375,-27.984619140625
1743599782.7829504,-0.1355210933344245,-0.0,"[174.0, 185.0, 181.0, 156.0, 154.0, 154.0, 156.0, 181.0, 185.0, 174.0]",0.1991625428199768,-0.06776054948568344,0.0023193359375,-0.000179290771484375,-27.980636596679688
1743599782.7856758,-0.1355210933344245,-0.0,"[174.0, 185.0, 181.0, 156.0, 154.0, 154.0, 156.0, 181.0, 185.0, 174.0]",0.10484859347343445,-0.06776054948568344,0.002227783203125,-0.000179290771484375,-27.978538513183594
1743599782.8102663,-0.1355210933344245,-0.0,"[174.0, 185.0, 181.0, 156.0, 154.0, 154.0, 156.0, 181.0, 185.0, 174.0]",0.19146142899990082,-0.06776054948568344,0.00238037109375,-0.000179290771484375,-27.98236846923828
1743599782.833461,-0.1355210933344245,-0.0,"[174.0, 185.0, 181.0, 156.0, 154.0, 154.0, 156.0, 181.0, 185.0, 174.0]",0.12702083587646484,-0.06776054948568344,0.00250244140625,-0.000179290771484375,-27.984909057617188
1743599782.836231,-0.1355210933344245,-0.0,"[174.0, 185.0, 181.0, 156.0, 154.0, 154.0, 156.0, 181.0, 185.0, 174.0]",0.13575954735279083,-0.06776054948568344,0.002410888671875,-0.000179290771484375,-27.982192993164062
1743599782.8620803,-0.1355210933344245,-0.0,"[174.0, 185.0, 181.0, 156.0, 154.0, 154.0, 156.0, 181.0, 185.0, 174.0]",0.0750289112329483,-0.06776054948568344,0.002471923828125,-0.000179290771484375,-27.98369598388672
1743599782.8879542,-0.1355210933344245,-0.0,"[174.0, 185.0, 181.0, 156.0, 154.0, 154.0, 156.0, 181.0, 185.0, 174.0]",0.17582832276821136,-0.06776054948568344,0.0023193359375,-0.000179290771484375,-27.980178833007812
1743599782.9127238,-0.1355210933344245,-0.0,"[174.0, 185.0, 181.0, 156.0, 154.0, 154.0, 156.0, 181.0, 185.0, 174.0]",0.12357829511165619,-0.06776054948568344,0.002197265625,-0.000179290771484375,-27.977699279785156
1743599782.9360955,-0.1355210933344245,-0.0,"[174.0, 185.0, 181.0, 156.0, 154.0, 154.0, 156.0, 181.0, 185.0, 174.0]",0.14880813658237457,-0.06776054948568344,0.0023193359375,-0.000179290771484375,-27.980682373046875
1743599782.9390714,-0.1355210933344245,-0.0,"[174.0, 185.0, 181.0, 156.0, 154.0, 154.0, 156.0, 181.0, 185.0, 174.0]",0.007179058622568846,-0.06776054948568344,0.0023193359375,-0.000179290771484375,-27.980819702148438
1743599782.9627426,-0.1355210933344245,-0.0,"[174.0, 185.0, 181.0, 156.0, 154.0, 154.0, 156.0, 181.0, 185.0, 174.0]",0.04457229748368263,-0.06776054948568344,0.002288818359375,-0.000179290771484375,-27.979934692382812
1743599782.9858212,-0.1355210933344245,-0.0,"[174.0, 185.0, 181.0, 156.0, 154.0, 154.0, 156.0, 181.0, 185.0, 174.0]",0.20603160560131073,-0.06776054948568344,0.002471923828125,-0.000179290771484375,-27.984054565429688
1743599783.00901,-0.1355210933344245,-0.0,"[174.0, 185.0, 181.0, 156.0, 154.0, 154.0, 156.0, 181.0, 185.0, 174.0]",0.07115985453128815,-0.06776054948568344,0.002532958984375,-0.000179290771484375,-27.98548126220703
1743599783.0326133,-0.1355210933344245,-0.0,"[174.0, 185.0, 181.0, 156.0, 154.0, 154.0, 156.0, 181.0, 185.0, 174.0]",0.17352934181690216,-0.06776054948568344,0.00238037109375,-0.000179290771484375,-27.982009887695312
1743599783.0585632,-0.1355210933344245,-0.0,"[174.0, 185.0, 181.0, 156.0, 154.0, 154.0, 156.0, 181.0, 185.0, 174.0]",0.11824561655521393,-0.06776054948568344,0.00225830078125,-0.000179290771484375,-27.979637145996094
1743599783.0629165,-0.1355210933344245,-0.0,"[174.0, 185.0, 181.0, 156.0, 154.0, 154.0, 156.0, 181.0, 185.0, 174.0]",0.17456422746181488,-0.06776054948568344,0.002410888671875,-0.000179290771484375,-27.983131408691406
1743599783.0872571,-0.1355210933344245,-0.0,"[174.0, 185.0, 181.0, 156.0, 154.0, 154.0, 156.0, 181.0, 185.0, 174.0]",0.12076796591281891,-0.06776054948568344,0.002532958984375,-0.000179290771484375,-27.985549926757812
1743599783.1125867,-0.1355210933344245,-0.0,"[174.0, 185.0, 181.0, 156.0, 154.0, 154.0, 156.0, 181.0, 185.0, 174.0]",0.16198237240314484,-0.06776054948568344,0.002410888671875,-0.000179290771484375,-27.98230743408203
1743599783.1388686,-0.1355210933344245,-0.0,"[174.0, 185.0, 181.0, 156.0, 154.0, 154.0, 156.0, 181.0, 185.0, 174.0]",0.07316040247678757,-0.06776054948568344,0.0023193359375,-0.000179290771484375,-27.98084259033203
1743599783.1428502,-0.1355210933344245,-0.0,"[174.0, 185.0, 181.0, 156.0, 154.0, 154.0, 156.0, 181.0, 185.0, 174.0]",0.17546908557415009,-0.06776054948568344,0.002471923828125,-0.000179290771484375,-27.984352111816406
1743599783.1671495,-0.1355210933344245,-0.0,"[174.0, 185.0, 181.0, 156.0, 154.0, 154.0, 156.0, 181.0, 185.0, 174.0]",0.12280239164829254,-0.06776054948568344,0.002593994140625,-0.000179290771484375,-27.98681640625
1743599783.1903741,-0.1355210933344245,-0.0,"[174.0, 185.0, 181.0, 156.0, 154.0, 154.0, 156.0, 181.0, 185.0, 174.0]",0.15206396579742432,-0.06776054948568344,0.002471923828125,-0.000179290771484375,-27.9837646484375
1743599783.214214,-0.1355210933344245,-0.0,"[174.0, 185.0, 181.0, 156.0, 154.0, 154.0, 156.0, 181.0, 185.0, 174.0]",0.02098224312067032,-0.06776054948568344,0.00244140625,-0.000179290771484375,-27.983352661132812
1743599783.2181778,-0.1355210933344245,-0.0,"[174.0, 185.0, 181.0, 156.0, 154.0, 154.0, 156.0, 181.0, 185.0, 174.0]",0.19900129735469818,-0.06776054948568344,0.00262451171875,-0.000179290771484375,-27.987335205078125
1743599783.2447262,-0.1355210933344245,-0.0,"[174.0, 185.0, 181.0, 156.0, 154.0, 154.0, 156.0, 181.0, 185.0, 174.0]",0.10549885034561157,-0.06776054948568344,0.002716064453125,-0.000179290771484375,-27.98944091796875
1743599783.2697685,-0.1355210933344245,-0.0,"[174.0, 185.0, 181.0, 156.0, 154.0, 154.0, 156.0, 181.0, 185.0, 174.0]",0.19113029539585114,-0.06776054948568344,0.0025634765625,-0.000179290771484375,-27.985618591308594
1743599783.2940252,-0.1355210933344245,-0.0,"[174.0, 185.0, 181.0, 156.0, 154.0, 154.0, 156.0, 181.0, 185.0, 174.0]",0.12763263285160065,-0.06776054948568344,0.00244140625,-0.000179290771484375,-27.983062744140625
1743599783.2964675,-0.1355210933344245,-0.0,"[174.0, 185.0, 181.0, 156.0, 154.0, 154.0, 156.0, 181.0, 185.0, 174.0]",0.13292615115642548,-0.06776054948568344,0.002532958984375,-0.000179290771484375,-27.98572540283203
1743599783.320504,-0.1355210933344245,-0.0,"[174.0, 185.0, 181.0, 156.0, 154.0, 154.0, 156.0, 181.0, 185.0, 174.0]",0.11080076545476913,-0.06776054948568344,0.00244140625,-0.000179290771484375,-27.983505249023438
1743599783.3441453,-0.1355210933344245,-0.0,"[174.0, 185.0, 181.0, 156.0, 154.0, 154.0, 156.0, 181.0, 185.0, 174.0]",0.18064694106578827,-0.06776054948568344,0.002593994140625,-0.000179290771484375,-27.98712158203125
1743599783.3673294,-0.1355210933344245,-0.0,"[174.0, 185.0, 181.0, 156.0, 154.0, 154.0, 156.0, 181.0, 185.0, 174.0]",0.1309853345155716,-0.06776054948568344,0.002716064453125,-0.000179290771484375,-27.98974609375
