timestamp,steering_input,acceleration_input,raycasts,speed,steering,position_x,position_y,position_z
1743585517.0752249,-0.13691231228773681,-0.0,"[174.0, 185.0, 227.0, 295.0, 259.0, 259.0, 295.0, 227.0, 185.0, 174.0]",0.0,0.0,0.0,0.10000038146972656,-27.93000030517578
1743585517.2822258,-0.13691231228773681,-0.0,"[174.0, 185.0, 178.0, 155.0, 154.0, 154.0, 156.0, 179.0, 185.0, 174.0]",0.1431841105222702,-0.06845615804195404,0.0,0.097137451171875,-27.93000030517578
1743585517.328816,-0.13691231228773681,-0.0,"[174.0, 185.0, 178.0, 155.0, 154.0, 154.0, 156.0, 179.0, 185.0, 174.0]",0.2360968291759491,-0.06845615804195404,0.0,0.09241485595703125,-27.93000030517578
1743585517.332619,-0.13691231228773681,-0.0,"[174.0, 185.0, 178.0, 155.0, 154.0, 154.0, 156.0, 179.0, 185.0, 174.0]",0.30777978897094727,-0.06845615804195404,0.0,0.08625984191894531,-27.93000030517578
1743585517.3649514,-0.13691231228773681,-0.0,"[174.0, 185.0, 179.0, 155.0, 154.0, 154.0, 156.0, 179.0, 185.0, 174.0]",0.36006513237953186,-0.06845615804195404,0.0,0.07905769348144531,-27.93000030517578
1743585517.3703394,-0.13691231228773681,-0.0,"[174.0, 185.0, 179.0, 155.0, 154.0, 154.0, 156.0, 179.0, 185.0, 174.0]",0.39494791626930237,-0.06845615804195404,0.0,0.07115936279296875,-27.93000030517578
1743585517.4046595,-0.13691231228773681,-0.0,"[174.0, 185.0, 179.0, 155.0, 154.0, 154.0, 156.0, 180.0, 185.0, 174.0]",0.4145027697086334,-0.06845615804195404,0.0,0.06286811828613281,-27.93000030517578
1743585517.4078655,-0.13691231228773681,-0.0,"[174.0, 185.0, 179.0, 155.0, 154.0, 154.0, 156.0, 180.0, 185.0, 174.0]",0.4208291471004486,-0.06845615804195404,0.0,0.05445289611816406,-27.93000030517578
1743585517.4371686,-0.13691231228773681,-0.0,"[174.0, 185.0, 179.0, 155.0, 154.0, 154.0, 156.0, 181.0, 185.0, 174.0]",0.41598930954933167,-0.06845615804195404,0.0,0.04613304138183594,-27.93000030517578
1743585517.466462,-0.13691231228773681,-0.0,"[174.0, 185.0, 179.0, 155.0, 154.0, 154.0, 156.0, 181.0, 185.0, 174.0]",0.40197139978408813,-0.06845615804195404,0.0,0.03809356689453125,-27.93000030517578
1743585517.4692616,-0.13691231228773681,-0.0,"[174.0, 185.0, 179.0, 155.0, 154.0, 154.0, 156.0, 181.0, 185.0, 174.0]",0.3806491196155548,-0.06845615804195404,0.0,0.03047943115234375,-27.93000030517578
1743585517.504057,-0.13691231228773681,-0.0,"[174.0, 185.0, 180.0, 156.0, 154.0, 154.0, 156.0, 181.0, 185.0, 174.0]",0.35375669598579407,-0.06845615804195404,0.0,0.023405075073242188,-27.93000030517578
1743585517.5097623,-0.13691231228773681,-0.0,"[174.0, 185.0, 180.0, 156.0, 154.0, 154.0, 156.0, 181.0, 185.0, 174.0]",0.3228750228881836,-0.06845615804195404,0.0,0.016946792602539062,-27.92999267578125
1743585517.5393953,-0.13691231228773681,-0.0,"[174.0, 185.0, 180.0, 156.0, 154.0, 154.0, 156.0, 181.0, 185.0, 174.0]",0.28943440318107605,-0.06845615804195404,0.0,0.011159896850585938,-27.930068969726562
1743585517.5420208,-0.13691231228773681,-0.0,"[174.0, 185.0, 180.0, 156.0, 154.0, 154.0, 156.0, 181.0, 185.0, 174.0]",0.26177287101745605,-0.06845615804195404,-6.103515625e-05,0.0060672760009765625,-27.928848266601562
1743585517.5709858,-0.13691231228773681,-0.0,"[174.0, 185.0, 181.0, 156.0, 154.0, 154.0, 156.0, 181.0, 185.0, 174.0]",0.2847135663032532,-0.06845615804195404,9.1552734375e-05,0.0016765594482421875,-27.932479858398438
1743585517.603789,-0.13691231228773681,-0.0,"[174.0, 185.0, 181.0, 156.0, 154.0, 154.0, 156.0, 181.0, 185.0, 174.0]",0.2943432033061981,-0.06845615804195404,0.00030517578125,-0.0020236968994140625,-27.937057495117188
1743585517.6067524,-0.13691231228773681,-0.0,"[174.0, 185.0, 181.0, 156.0, 154.0, 154.0, 156.0, 181.0, 185.0, 174.0]",0.15324538946151733,-0.06845615804195404,0.00030517578125,-0.0050601959228515625,-27.9366455078125
1743585517.6375818,-0.13691231228773681,-0.0,"[174.0, 185.0, 181.0, 156.0, 154.0, 154.0, 156.0, 181.0, 185.0, 174.0]",0.22005143761634827,-0.06845615804195404,0.000457763671875,-0.007472991943359375,-27.940330505371094
1743585517.6674156,-0.13691231228773681,-0.0,"[174.0, 185.0, 181.0, 156.0, 154.0, 154.0, 156.0, 181.0, 185.0, 174.0]",0.24427276849746704,-0.06845615804195404,0.000640869140625,-0.009307861328125,-27.944862365722656
1743585517.6701725,-0.13691231228773681,-0.0,"[174.0, 185.0, 181.0, 156.0, 154.0, 154.0, 156.0, 181.0, 185.0, 174.0]",0.06562575697898865,-0.06845615804195404,0.000640869140625,-0.010616302490234375,-27.94476318359375
1743585517.7056477,-0.13691231228773681,-0.0,"[174.0, 185.0, 181.0, 156.0, 154.0, 154.0, 156.0, 181.0, 185.0, 174.0]",0.08037394285202026,-0.06845615804195404,0.000701904296875,-0.011455535888671875,-27.946136474609375
1743585517.7126138,-0.13691231228773681,-0.0,"[174.0, 185.0, 181.0, 156.0, 154.0, 154.0, 156.0, 181.0, 185.0, 174.0]",0.16945192217826843,-0.06845615804195404,0.00054931640625,-0.011884689331054688,-27.942764282226562
1743585517.7516904,-0.13691231228773681,-0.0,"[174.0, 185.0, 181.0, 156.0, 154.0, 154.0, 156.0, 181.0, 185.0, 174.0]",0.15197177231311798,-0.06845615804195404,0.000396728515625,-0.011960983276367188,-27.939727783203125
1743585517.7574835,-0.13691231228773681,-0.0,"[174.0, 185.0, 181.0, 156.0, 154.0, 154.0, 156.0, 181.0, 185.0, 174.0]",0.03913164883852005,-0.06845615804195404,0.0003662109375,-0.011743545532226562,-27.93897247314453
1743585517.7979045,-0.13691231228773681,-0.0,"[174.0, 185.0, 181.0, 156.0, 154.0, 154.0, 156.0, 181.0, 185.0, 174.0]",0.22852903604507446,-0.06845615804195404,0.00054931640625,-0.01128387451171875,-27.943527221679688
1743585517.8084128,-0.13691231228773681,-0.0,"[174.0, 185.0, 181.0, 156.0, 154.0, 154.0, 156.0, 181.0, 185.0, 174.0]",0.035718437284231186,-0.06845615804195404,0.00054931640625,-0.010637283325195312,-27.943222045898438
1743585517.8415096,-0.13691231228773681,-0.0,"[174.0, 185.0, 181.0, 156.0, 154.0, 154.0, 156.0, 181.0, 185.0, 174.0]",0.1986561268568039,-0.06845615804195404,0.000701904296875,-0.009845733642578125,-27.947120666503906
1743585517.8470829,-0.13691231228773681,-0.0,"[174.0, 185.0, 181.0, 156.0, 154.0, 154.0, 156.0, 181.0, 185.0, 174.0]",0.1439654678106308,-0.06845615804195404,0.000823974609375,-0.0089569091796875,-27.949859619140625
1743585517.8807423,-0.13691231228773681,-0.0,"[174.0, 185.0, 181.0, 156.0, 154.0, 154.0, 156.0, 181.0, 185.0, 174.0]",0.09530533850193024,-0.06845615804195404,0.00079345703125,-0.008007049560546875,-27.948204040527344
1743585517.8841045,-0.13691231228773681,-0.0,"[174.0, 185.0, 181.0, 156.0, 154.0, 154.0, 156.0, 181.0, 185.0, 174.0]",0.20263145864009857,-0.06845615804195404,0.000946044921875,-0.00702667236328125,-27.95214080810547
1743585517.9185119,-0.13691231228773681,-0.0,"[174.0, 185.0, 181.0, 156.0, 154.0, 154.0, 156.0, 181.0, 185.0, 174.0]",0.12456465512514114,-0.06845615804195404,0.00103759765625,-0.006046295166015625,-27.954437255859375
1743585517.922642,-0.13691231228773681,-0.0,"[174.0, 185.0, 181.0, 156.0, 154.0, 154.0, 156.0, 181.0, 185.0, 174.0]",0.1909356415271759,-0.06845615804195404,0.000885009765625,-0.0050907135009765625,-27.95073699951172
1743585517.9558723,-0.13691231228773681,-0.0,"[174.0, 185.0, 181.0, 156.0, 154.0, 154.0, 156.0, 181.0, 185.0, 174.0]",0.1340610682964325,-0.06845615804195404,0.000762939453125,-0.004177093505859375,-27.948211669921875
1743585517.959759,-0.13691231228773681,-0.0,"[174.0, 185.0, 181.0, 156.0, 154.0, 154.0, 156.0, 181.0, 185.0, 174.0]",0.14202366769313812,-0.06845615804195404,0.000885009765625,-0.0033206939697265625,-27.95092010498047
1743585517.9944043,-0.13691231228773681,-0.0,"[174.0, 185.0, 181.0, 156.0, 154.0, 154.0, 156.0, 181.0, 185.0, 174.0]",0.07856930047273636,-0.06845615804195404,0.000823974609375,-0.0025310516357421875,-27.949562072753906
1743585518.0020626,-0.13691231228773681,-0.0,"[174.0, 185.0, 181.0, 156.0, 154.0, 154.0, 156.0, 181.0, 185.0, 174.0]",0.17644906044006348,-0.06845615804195404,0.0009765625,-0.0018177032470703125,-27.953018188476562
1743585518.03681,-0.13691231228773681,-0.0,"[174.0, 185.0, 181.0, 156.0, 154.0, 154.0, 156.0, 181.0, 185.0, 174.0]",0.10939573496580124,-0.06845615804195404,0.001068115234375,-0.0011844635009765625,-27.955116271972656
1743585518.040865,-0.13691231228773681,-0.0,"[174.0, 185.0, 181.0, 156.0, 154.0, 154.0, 156.0, 181.0, 185.0, 174.0]",0.18947255611419678,-0.06845615804195404,0.00091552734375,-0.00063323974609375,-27.951370239257812
1743585518.0718307,-0.13691231228773681,-0.0,"[174.0, 185.0, 181.0, 156.0, 154.0, 154.0, 156.0, 181.0, 185.0, 174.0]",0.12088614702224731,-0.06845615804195404,0.00079345703125,-0.0001621246337890625,-27.948989868164062
1743585518.0747771,-0.13691231228773681,-0.0,"[174.0, 185.0, 181.0, 156.0, 154.0, 154.0, 156.0, 181.0, 185.0, 174.0]",0.16832882165908813,-0.06845615804195404,0.000946044921875,0.0002288818359375,-27.95233917236328
1743585518.10797,-0.13691231228773681,-0.0,"[174.0, 185.0, 181.0, 156.0, 154.0, 154.0, 156.0, 181.0, 185.0, 174.0]",0.08955536037683487,-0.06845615804195404,0.00103759765625,0.0005435943603515625,-27.9541015625
1743585518.11509,-0.13691231228773681,-0.0,"[174.0, 185.0, 181.0, 156.0, 154.0, 154.0, 156.0, 181.0, 185.0, 174.0]",0.1990838348865509,-0.06845615804195404,0.0008544921875,0.000789642333984375,-27.95012664794922
1743585518.1497734,-0.13691231228773681,-0.0,"[174.0, 185.0, 181.0, 156.0, 154.0, 154.0, 156.0, 181.0, 185.0, 174.0]",0.09753654152154922,-0.06845615804195404,0.000762939453125,0.000972747802734375,-27.94818115234375
1743585518.15326,-0.13691231228773681,-0.0,"[174.0, 185.0, 181.0, 156.0, 154.0, 154.0, 156.0, 181.0, 185.0, 174.0]",0.19777627289295197,-0.06845615804195404,0.000946044921875,0.0010967254638671875,-27.95214080810547
1743585518.1860595,-0.13691231228773681,-0.0,"[174.0, 185.0, 181.0, 156.0, 154.0, 154.0, 156.0, 181.0, 185.0, 174.0]",0.10266003012657166,-0.06845615804195404,0.00103759765625,0.0011692047119140625,-27.954193115234375
1743585518.1908104,-0.13691231228773681,-0.0,"[174.0, 185.0, 181.0, 156.0, 154.0, 154.0, 156.0, 181.0, 185.0, 174.0]",0.19026941061019897,-0.06845615804195404,0.0008544921875,0.00119781494140625,-27.95038604736328
1743585518.2219963,-0.13691231228773681,-0.0,"[174.0, 185.0, 181.0, 156.0, 154.0, 154.0, 156.0, 181.0, 185.0, 174.0]",0.12241925299167633,-0.06845615804195404,0.000762939453125,0.0011882781982421875,-27.94793701171875
1743585518.2248917,-0.13691231228773681,-0.0,"[174.0, 185.0, 181.0, 156.0, 154.0, 154.0, 156.0, 181.0, 185.0, 174.0]",0.15389874577522278,-0.06845615804195404,0.000885009765625,0.001148223876953125,-27.951019287109375
1743585518.2559738,-0.13691231228773681,-0.0,"[174.0, 185.0, 181.0, 156.0, 154.0, 154.0, 156.0, 181.0, 185.0, 174.0]",0.029179807752370834,-0.06845615804195404,0.00091552734375,0.0010833740234375,-27.95159912109375
1743585518.290554,-0.13691231228773681,-0.0,"[174.0, 185.0, 181.0, 156.0, 154.0, 154.0, 156.0, 181.0, 185.0, 174.0]",0.17926281690597534,-0.06845615804195404,0.000762939453125,0.00099945068359375,-27.94800567626953
1743585518.2938924,-0.13691231228773681,-0.0,"[174.0, 185.0, 181.0, 156.0, 154.0, 154.0, 156.0, 181.0, 185.0, 174.0]",0.12669861316680908,-0.06845615804195404,0.000640869140625,0.0009002685546875,-27.945472717285156
1743585518.330066,-0.13691231228773681,-0.0,"[174.0, 185.0, 181.0, 156.0, 154.0, 154.0, 156.0, 181.0, 185.0, 174.0]",0.13565991818904877,-0.06845615804195404,0.000732421875,0.0007915496826171875,-27.94818115234375
1743585518.3361726,-0.13691231228773681,-0.0,"[174.0, 185.0, 181.0, 156.0, 154.0, 154.0, 156.0, 181.0, 185.0, 174.0]",0.07692934572696686,-0.06845615804195404,0.00067138671875,0.00067901611328125,-27.94664764404297
1743585518.3706641,-0.13691231228773681,-0.0,"[174.0, 185.0, 181.0, 156.0, 154.0, 154.0, 156.0, 181.0, 185.0, 174.0]",0.17917291820049286,-0.06845615804195404,0.000823974609375,0.0005645751953125,-27.950233459472656
1743585518.3752983,-0.13691231228773681,-0.0,"[174.0, 185.0, 181.0, 156.0, 154.0, 154.0, 156.0, 181.0, 185.0, 174.0]",0.12907429039478302,-0.06845615804195404,0.000946044921875,0.0004520416259765625,-27.95281219482422
1743585518.4107108,-0.13691231228773681,-0.0,"[174.0, 185.0, 181.0, 156.0, 154.0, 154.0, 156.0, 181.0, 185.0, 174.0]",0.12586231529712677,-0.06845615804195404,0.0008544921875,0.00034332275390625,-27.950302124023438
1743585518.4168875,-0.13691231228773681,-0.0,"[174.0, 185.0, 181.0, 156.0, 154.0, 154.0, 156.0, 181.0, 185.0, 174.0]",0.1907365620136261,-0.06845615804195404,0.001007080078125,0.0002384185791015625,-27.954116821289062
1743585518.4563966,-0.13691231228773681,-0.0,"[174.0, 185.0, 181.0, 156.0, 154.0, 154.0, 156.0, 181.0, 185.0, 174.0]",0.12986817955970764,-0.06845615804195404,0.001129150390625,0.0001430511474609375,-27.956710815429688
1743585518.4592423,-0.13691231228773681,-0.0,"[174.0, 185.0, 181.0, 156.0, 154.0, 154.0, 156.0, 181.0, 185.0, 174.0]",0.12334737181663513,-0.06845615804195404,0.00103759765625,5.53131103515625e-05,-27.954246520996094
1743585518.4933355,-0.13691231228773681,-0.0,"[174.0, 185.0, 181.0, 156.0, 154.0, 154.0, 156.0, 181.0, 185.0, 174.0]",0.20083074271678925,-0.06845615804195404,0.001220703125,-2.288818359375e-05,-27.958267211914062
1743585518.5005898,-0.13691231228773681,-0.0,"[174.0, 185.0, 181.0, 156.0, 154.0, 154.0, 156.0, 181.0, 185.0, 174.0]",0.0994611382484436,-0.06845615804195404,0.001312255859375,-9.34600830078125e-05,-27.960250854492188
1743585518.5387151,-0.13691231228773681,-0.0,"[174.0, 185.0, 181.0, 156.0, 154.0, 154.0, 156.0, 181.0, 185.0, 174.0]",0.20098060369491577,-0.06845615804195404,0.001129150390625,-0.000152587890625,-27.95623016357422
1743585518.5413647,-0.13691231228773681,-0.0,"[174.0, 185.0, 181.0, 156.0, 154.0, 154.0, 156.0, 181.0, 185.0, 174.0]",0.09852627664804459,-0.06845615804195404,0.00103759765625,-0.0002040863037109375,-27.954261779785156
1743585518.5726526,-0.13691231228773681,-0.0,"[174.0, 185.0, 181.0, 156.0, 154.0, 154.0, 156.0, 181.0, 185.0, 174.0]",0.20227152109146118,-0.06845615804195404,0.001220703125,-0.000244140625,-27.95831298828125
1743585518.5753853,-0.13691231228773681,-0.0,"[174.0, 185.0, 181.0, 156.0, 154.0, 154.0, 156.0, 181.0, 185.0, 174.0]",0.09201500564813614,-0.06845615804195404,0.001312255859375,-0.000278472900390625,-27.96015167236328
1743585518.6086702,-0.13691231228773681,-0.0,"[174.0, 185.0, 181.0, 156.0, 154.0, 154.0, 156.0, 181.0, 185.0, 174.0]",0.2072916030883789,-0.06845615804195404,0.001129150390625,-0.0003032684326171875,-27.95600128173828
1743585518.6144404,-0.13691231228773681,-0.0,"[174.0, 185.0, 181.0, 156.0, 154.0, 154.0, 156.0, 181.0, 185.0, 174.0]",0.06527039408683777,-0.06845615804195404,0.001068115234375,-0.0003204345703125,-27.954696655273438
1743585518.646216,-0.13691231228773681,-0.0,"[174.0, 185.0, 181.0, 156.0, 154.0, 154.0, 156.0, 181.0, 185.0, 174.0]",0.17256809771060944,-0.06845615804195404,0.001220703125,-0.000331878662109375,-27.958152770996094
1743585518.6491427,-0.13691231228773681,-0.0,"[174.0, 185.0, 181.0, 156.0, 154.0, 154.0, 156.0, 181.0, 185.0, 174.0]",0.11621860414743423,-0.06845615804195404,0.001312255859375,-0.000339508056640625,-27.960479736328125
1743585518.6835372,-0.13691231228773681,-0.0,"[174.0, 185.0, 181.0, 156.0, 154.0, 154.0, 156.0, 181.0, 185.0, 174.0]",0.18320515751838684,-0.06845615804195404,0.00115966796875,-0.000339508056640625,-27.956809997558594
1743585518.6891692,-0.13691231228773681,-0.0,"[174.0, 185.0, 181.0, 156.0, 154.0, 154.0, 156.0, 181.0, 185.0, 174.0]",0.13313214480876923,-0.06845615804195404,0.00103759765625,-0.0003376007080078125,-27.954147338867188
1743585518.7204206,-0.13691231228773681,-0.0,"[174.0, 185.0, 181.0, 156.0, 154.0, 154.0, 156.0, 181.0, 185.0, 174.0]",0.10197985917329788,-0.06845615804195404,0.001129150390625,-0.000331878662109375,-27.95618438720703
1743585518.723278,-0.13691231228773681,-0.0,"[174.0, 185.0, 181.0, 156.0, 154.0, 154.0, 156.0, 181.0, 185.0, 174.0]",0.19893190264701843,-0.06845615804195404,0.000946044921875,-0.0003223419189453125,-27.95220184326172
1743585518.752302,-0.13691231228773681,-0.0,"[174.0, 185.0, 181.0, 156.0, 154.0, 154.0, 156.0, 181.0, 185.0, 174.0]",0.10638192296028137,-0.06845615804195404,0.0008544921875,-0.00031280517578125,-27.9500732421875
1743585518.7826748,-0.13691231228773681,-0.0,"[174.0, 185.0, 181.0, 156.0, 154.0, 154.0, 156.0, 181.0, 185.0, 174.0]",0.1906648874282837,-0.06845615804195404,0.001007080078125,-0.000301361083984375,-27.953887939453125
1743585518.785878,-0.13691231228773681,-0.0,"[174.0, 185.0, 181.0, 156.0, 154.0, 154.0, 156.0, 181.0, 185.0, 174.0]",0.12848806381225586,-0.06845615804195404,0.001129150390625,-0.0002880096435546875,-27.956466674804688
1743585518.8161101,-0.13691231228773681,-0.0,"[174.0, 185.0, 181.0, 156.0, 154.0, 154.0, 156.0, 181.0, 185.0, 174.0]",0.12890180945396423,-0.06845615804195404,0.00103759765625,-0.000274658203125,-27.953887939453125
1743585518.8454409,-0.13691231228773681,-0.0,"[174.0, 185.0, 181.0, 156.0, 154.0, 154.0, 156.0, 181.0, 185.0, 174.0]",0.16164836287498474,-0.06845615804195404,0.00115966796875,-0.0002613067626953125,-27.957122802734375
1743585518.848256,-0.13691231228773681,-0.0,"[174.0, 185.0, 181.0, 156.0, 154.0, 154.0, 156.0, 181.0, 185.0, 174.0]",0.0723152682185173,-0.06845615804195404,0.001251220703125,-0.000247955322265625,-27.958572387695312
1743585518.8846173,-0.13691231228773681,-0.0,"[174.0, 185.0, 181.0, 156.0, 154.0, 154.0, 156.0, 181.0, 185.0, 174.0]",0.17515182495117188,-0.06845615804195404,0.0010986328125,-0.00023651123046875,-27.955062866210938
1743585518.890581,-0.13691231228773681,-0.0,"[174.0, 185.0, 181.0, 156.0, 154.0, 154.0, 156.0, 181.0, 185.0, 174.0]",0.12185585498809814,-0.06845615804195404,0.0009765625,-0.000225067138671875,-27.952621459960938
1743585518.9710386,-0.13691231228773681,-0.0,"[174.0, 185.0, 181.0, 156.0, 154.0, 154.0, 156.0, 181.0, 185.0, 174.0]",0.15650637447834015,-0.06845615804195404,0.0010986328125,-0.000213623046875,-27.95575714111328
1743585518.9740458,-0.13691231228773681,-0.0,"[174.0, 185.0, 181.0, 156.0, 154.0, 154.0, 156.0, 181.0, 185.0, 174.0]",0.043548040091991425,-0.06845615804195404,0.00115966796875,-0.0002040863037109375,-27.956626892089844
1743585518.9768205,-0.13691231228773681,-0.0,"[174.0, 185.0, 181.0, 156.0, 154.0, 154.0, 156.0, 181.0, 185.0, 174.0]",0.20590080320835114,-0.06845615804195404,0.0009765625,-0.000194549560546875,-27.95250701904297
1743585518.9798508,-0.13691231228773681,-0.0,"[174.0, 185.0, 181.0, 156.0, 154.0, 154.0, 156.0, 181.0, 185.0, 174.0]",0.07158824056386948,-0.06845615804195404,0.00091552734375,-0.000186920166015625,-27.951072692871094
1743585519.0151885,-0.13691231228773681,-0.0,"[174.0, 185.0, 181.0, 156.0, 154.0, 154.0, 156.0, 181.0, 185.0, 174.0]",0.1738075315952301,-0.06845615804195404,0.001068115234375,-0.0001811981201171875,-27.954551696777344
1743585519.0205555,-0.13691231228773681,-0.0,"[174.0, 185.0, 181.0, 156.0, 154.0, 154.0, 156.0, 181.0, 185.0, 174.0]",0.11865083873271942,-0.06845615804195404,0.00115966796875,-0.00017547607421875,-27.956924438476562
1743585519.0504103,-0.13691231228773681,-0.0,"[174.0, 185.0, 181.0, 156.0, 154.0, 154.0, 156.0, 181.0, 185.0, 174.0]",0.17254982888698578,-0.06845615804195404,0.001007080078125,-0.000171661376953125,-27.953475952148438
1743585519.0532513,-0.13691231228773681,-0.0,"[174.0, 185.0, 181.0, 156.0, 154.0, 154.0, 156.0, 181.0, 185.0, 174.0]",0.11531049013137817,-0.06845615804195404,0.00091552734375,-0.0001678466796875,-27.95116424560547
1743585519.087551,-0.13691231228773681,-0.0,"[174.0, 185.0, 181.0, 156.0, 154.0, 154.0, 156.0, 181.0, 185.0, 174.0]",0.18577241897583008,-0.06845615804195404,0.001068115234375,-0.000164031982421875,-27.954879760742188
1743585519.0944405,-0.13691231228773681,-0.0,"[174.0, 185.0, 181.0, 156.0, 154.0, 154.0, 156.0, 181.0, 185.0, 174.0]",0.13250744342803955,-0.06845615804195404,0.001190185546875,-0.0001621246337890625,-27.957534790039062
1743585519.12478,-0.13691231228773681,-0.0,"[174.0, 185.0, 181.0, 156.0, 154.0, 154.0, 156.0, 181.0, 185.0, 174.0]",0.10546580702066422,-0.06845615804195404,0.001129150390625,-0.0001621246337890625,-27.955429077148438
1743585519.1274142,-0.13691231228773681,-0.0,"[174.0, 185.0, 181.0, 156.0, 154.0, 154.0, 156.0, 181.0, 185.0, 174.0]",0.18923132121562958,-0.06845615804195404,0.00128173828125,-0.0001621246337890625,-27.959213256835938
1743585519.1565187,-0.13691231228773681,-0.0,"[174.0, 185.0, 181.0, 156.0, 154.0, 154.0, 156.0, 181.0, 185.0, 174.0]",0.1303885132074356,-0.06845615804195404,0.00140380859375,-0.0001621246337890625,-27.961822509765625
1743585519.187643,-0.13691231228773681,-0.0,"[174.0, 185.0, 181.0, 156.0, 154.0, 154.0, 156.0, 181.0, 185.0, 174.0]",0.11877727508544922,-0.06845615804195404,0.001312255859375,-0.0001621246337890625,-27.959442138671875
1743585519.191086,-0.13691231228773681,-0.0,"[174.0, 185.0, 181.0, 156.0, 154.0, 154.0, 156.0, 181.0, 185.0, 174.0]",0.19423748552799225,-0.06845615804195404,0.00146484375,-0.0001621246337890625,-27.963333129882812
1743585519.2214558,-0.13691231228773681,-0.0,"[174.0, 185.0, 181.0, 156.0, 154.0, 154.0, 156.0, 181.0, 185.0, 174.0]",0.1208510473370552,-0.06845615804195404,0.0015869140625,-0.000164031982421875,-27.96575164794922
1743585519.2243676,-0.13691231228773681,-0.0,"[174.0, 185.0, 181.0, 156.0, 154.0, 154.0, 156.0, 181.0, 185.0, 174.0]",0.16352006793022156,-0.06845615804195404,0.001434326171875,-0.000164031982421875,-27.962478637695312
1743585519.2563314,-0.13691231228773681,-0.0,"[174.0, 185.0, 181.0, 156.0, 154.0, 154.0, 156.0, 181.0, 185.0, 174.0]",0.08063365519046783,-0.06845615804195404,0.001373291015625,-0.0001659393310546875,-27.960861206054688
1743585519.293954,-0.13691231228773681,-0.0,"[174.0, 185.0, 181.0, 156.0, 154.0, 154.0, 156.0, 181.0, 185.0, 174.0]",0.18979258835315704,-0.06845615804195404,0.00152587890625,-0.0001678466796875,-27.96466064453125
1743585519.3003438,-0.13691231228773681,-0.0,"[174.0, 185.0, 181.0, 156.0, 154.0, 154.0, 156.0, 181.0, 185.0, 174.0]",0.1297781616449356,-0.06845615804195404,0.00164794921875,-0.0001697540283203125,-27.967262268066406
1743585519.3299456,-0.13691231228773681,-0.0,"[174.0, 185.0, 181.0, 156.0, 154.0, 154.0, 156.0, 181.0, 185.0, 174.0]",0.12227028608322144,-0.06845615804195404,0.001556396484375,-0.000171661376953125,-27.964813232421875
1743585519.3323991,-0.13691231228773681,-0.0,"[174.0, 185.0, 181.0, 156.0, 154.0, 154.0, 156.0, 181.0, 185.0, 174.0]",0.20115147531032562,-0.06845615804195404,0.001739501953125,-0.000171661376953125,-27.968841552734375
1743585519.3616395,-0.13691231228773681,-0.0,"[174.0, 185.0, 181.0, 156.0, 154.0, 154.0, 156.0, 181.0, 185.0, 174.0]",0.09634261578321457,-0.06845615804195404,0.0018310546875,-0.0001735687255859375,-27.97077178955078
1743585519.3642783,-0.13691231228773681,-0.0,"[174.0, 185.0, 181.0, 156.0, 154.0, 154.0, 156.0, 181.0, 185.0, 174.0]",0.2045133262872696,-0.06845615804195404,0.00164794921875,-0.00017547607421875,-27.9666748046875
1743585519.396079,-0.13691231228773681,-0.0,"[174.0, 185.0, 181.0, 156.0, 154.0, 154.0, 156.0, 181.0, 185.0, 174.0]",0.07923723757266998,-0.06845615804195404,0.0015869140625,-0.00017547607421875,-27.965087890625
1743585519.425556,-0.13691231228773681,-0.0,"[174.0, 185.0, 181.0, 156.0, 154.0, 154.0, 156.0, 181.0, 185.0, 174.0]",0.18677644431591034,-0.06845615804195404,0.001739501953125,-0.0001773834228515625,-27.968826293945312
1743585519.4283853,-0.13691231228773681,-0.0,"[174.0, 185.0, 181.0, 156.0, 154.0, 154.0, 156.0, 181.0, 185.0, 174.0]",0.13232648372650146,-0.06845615804195404,0.001861572265625,-0.0001773834228515625,-27.971481323242188
1743585519.4586499,-0.13691231228773681,-0.0,"[174.0, 185.0, 181.0, 156.0, 154.0, 154.0, 156.0, 181.0, 185.0, 174.0]",0.10677789151668549,-0.06845615804195404,0.00177001953125,-0.000179290771484375,-27.969345092773438
1743585519.4614575,-0.13691231228773681,-0.0,"[174.0, 185.0, 181.0, 156.0, 154.0, 154.0, 156.0, 181.0, 185.0, 174.0]",0.18581756949424744,-0.06845615804195404,0.001953125,-0.000179290771484375,-27.973060607910156
1743585519.4953783,-0.13691231228773681,-0.0,"[174.0, 185.0, 181.0, 156.0, 154.0, 154.0, 156.0, 181.0, 185.0, 174.0]",0.1327001005411148,-0.06845615804195404,0.0020751953125,-0.000179290771484375,-27.97571563720703
1743585519.5273345,-0.13691231228773681,-0.0,"[174.0, 185.0, 181.0, 156.0, 154.0, 154.0, 156.0, 181.0, 185.0, 174.0]",0.10433999449014664,-0.06845615804195404,0.001983642578125,-0.0001811981201171875,-27.9736328125
1743585519.5303898,-0.13691231228773681,-0.0,"[174.0, 185.0, 181.0, 156.0, 154.0, 154.0, 156.0, 181.0, 185.0, 174.0]",0.19235549867153168,-0.06845615804195404,0.002166748046875,-0.0001811981201171875,-27.97747802734375
1743585519.559352,-0.13691231228773681,-0.0,"[174.0, 185.0, 181.0, 156.0, 154.0, 154.0, 156.0, 181.0, 185.0, 174.0]",0.1258019059896469,-0.06845615804195404,0.002288818359375,-0.0001811981201171875,-27.979995727539062
1743585519.5622284,-0.13691231228773681,-0.0,"[174.0, 185.0, 181.0, 156.0, 154.0, 154.0, 156.0, 181.0, 185.0, 174.0]",0.1424763798713684,-0.06845615804195404,0.002166748046875,-0.0001811981201171875,-27.977142333984375
1743585519.5936306,-0.13691231228773681,-0.0,"[174.0, 185.0, 181.0, 156.0, 154.0, 154.0, 156.0, 181.0, 185.0, 174.0]",0.01777324266731739,-0.06845615804195404,0.002166748046875,-0.0001811981201171875,-27.977500915527344
1743585519.6240804,-0.13691231228773681,-0.0,"[174.0, 185.0, 181.0, 156.0, 154.0, 154.0, 156.0, 181.0, 185.0, 174.0]",0.2014368772506714,-0.06845615804195404,0.00201416015625,-0.0001811981201171875,-27.973472595214844
1743585519.626917,-0.13691231228773681,-0.0,"[174.0, 185.0, 181.0, 156.0, 154.0, 154.0, 156.0, 181.0, 185.0, 174.0]",0.09489303827285767,-0.06845615804195404,0.001922607421875,-0.0001811981201171875,-27.971572875976562
1743585519.656799,-0.13691231228773681,-0.0,"[174.0, 185.0, 181.0, 156.0, 154.0, 154.0, 156.0, 181.0, 185.0, 174.0]",0.20567233860492706,-0.06845615804195404,0.0020751953125,-0.0001811981201171875,-27.975685119628906
1743585519.691514,-0.13691231228773681,-0.0,"[174.0, 185.0, 181.0, 156.0, 154.0, 154.0, 156.0, 181.0, 185.0, 174.0]",0.07297889143228531,-0.06845615804195404,0.002166748046875,-0.0001811981201171875,-27.977149963378906
1743585519.6972542,-0.13691231228773681,-0.0,"[174.0, 185.0, 181.0, 156.0, 154.0, 154.0, 156.0, 181.0, 185.0, 174.0]",0.17512300610542297,-0.06845615804195404,0.00201416015625,-0.0001811981201171875,-27.97364044189453
1743585519.7391603,-0.13691231228773681,-0.0,"[174.0, 185.0, 227.0, 295.0, 259.0, 160.0, 295.0, 190.0, 185.0, 174.0]",0.0,0.0,0.0,0.10000038146972656,-27.93000030517578
1743585519.742643,-0.13691231228773681,-0.0,"[174.0, 185.0, 227.0, 295.0, 259.0, 160.0, 295.0, 190.0, 185.0, 174.0]",0.8976293206214905,-0.06845615804195404,0.0,0.08204841613769531,-27.930015563964844
1743585519.7457035,-0.13691231228773681,-0.0,"[174.0, 185.0, 227.0, 295.0, 259.0, 160.0, 295.0, 190.0, 185.0, 174.0]",0.846252977848053,-0.06845615804195404,0.0,0.06512641906738281,-27.929672241210938
1743585519.7770524,-0.13691231228773681,-0.0,"[174.0, 185.0, 179.0, 155.0, 154.0, 154.0, 156.0, 181.0, 185.0, 174.0]",0.8149538040161133,-0.06845615804195404,0.00018310546875,0.049468994140625,-27.9342041015625
1743585519.8132257,-0.13691231228773681,-0.0,"[174.0, 185.0, 179.0, 156.0, 154.0, 154.0, 156.0, 181.0, 185.0, 174.0]",0.7131955027580261,-0.06845615804195404,0.000244140625,0.03524208068847656,-27.935226440429688
1743585519.8158805,-0.13691231228773681,-0.0,"[174.0, 185.0, 179.0, 156.0, 154.0, 154.0, 156.0, 181.0, 185.0, 174.0]",0.678209662437439,-0.06845615804195404,3.0517578125e-05,0.02254486083984375,-27.930442810058594
1743585519.846996,-0.13691231228773681,-0.0,"[174.0, 185.0, 181.0, 156.0, 154.0, 154.0, 156.0, 181.0, 185.0, 174.0]",0.576147198677063,-0.06845615804195404,0.000152587890625,0.0114288330078125,-27.93347930908203
1743585519.8500667,-0.13691231228773681,-0.0,"[174.0, 185.0, 181.0, 156.0, 154.0, 154.0, 156.0, 181.0, 185.0, 174.0]",0.48907890915870667,-0.06845615804195404,0.000274658203125,0.001895904541015625,-27.9356689453125
1743585519.8848145,-0.13691231228773681,-0.0,"[174.0, 185.0, 181.0, 156.0, 154.0, 154.0, 156.0, 181.0, 185.0, 174.0]",0.46559327840805054,-0.06845615804195404,9.1552734375e-05,-0.0060939788818359375,-27.930877685546875
1743585519.8910015,-0.13691231228773681,-0.0,"[174.0, 185.0, 181.0, 156.0, 154.0, 154.0, 156.0, 181.0, 185.0, 174.0]",0.36116042733192444,-0.06845615804195404,0.00018310546875,-0.012601852416992188,-27.93401336669922
1743585519.9227655,-0.13691231228773681,-0.0,"[174.0, 185.0, 181.0, 156.0, 154.0, 154.0, 158.0, 181.0, 185.0, 174.0]",0.3103466033935547,-0.06845615804195404,0.000335693359375,-0.017724990844726562,-27.937515258789062
1743585519.9256968,-0.13691231228773681,-0.0,"[174.0, 185.0, 181.0, 156.0, 154.0, 154.0, 158.0, 181.0, 185.0, 174.0]",0.3292718529701233,-0.06845615804195404,0.00054931640625,-0.02156829833984375,-27.94287109375
1743585519.9557831,-0.13691231228773681,-0.0,"[174.0, 185.0, 181.0, 156.0, 154.0, 154.0, 158.0, 181.0, 185.0, 174.0]",0.19622492790222168,-0.06845615804195404,0.00042724609375,-0.024255752563476562,-27.94001007080078
1743585519.9864798,-0.13691231228773681,-0.0,"[174.0, 185.0, 181.0, 156.0, 154.0, 154.0, 158.0, 181.0, 185.0, 174.0]",0.12892422080039978,-0.06845615804195404,0.00048828125,-0.025915145874023438,-27.941986083984375
1743585519.989229,-0.13691231228773681,-0.0,"[174.0, 185.0, 181.0, 156.0, 154.0, 154.0, 158.0, 181.0, 185.0, 174.0]",0.27379900217056274,-0.06845615804195404,0.000274658203125,-0.02667999267578125,-27.936553955078125
1743585520.022832,-0.13691231228773681,-0.0,"[174.0, 185.0, 181.0, 156.0, 154.0, 154.0, 156.0, 181.0, 185.0, 174.0]",0.16034001111984253,-0.06845615804195404,0.000396728515625,-0.026681900024414062,-27.93976593017578
1743585520.0261736,-0.13691231228773681,-0.0,"[174.0, 185.0, 181.0, 156.0, 154.0, 154.0, 156.0, 181.0, 185.0, 174.0]",0.1409163922071457,-0.06845615804195404,0.00054931640625,-0.0260467529296875,-27.94251251220703
1743585520.055591,-0.13691231228773681,-0.0,"[174.0, 185.0, 181.0, 156.0, 154.0, 154.0, 156.0, 181.0, 185.0, 174.0]",0.13767977058887482,-0.06845615804195404,0.000457763671875,-0.024898529052734375,-27.94001007080078
1743585520.08983,-0.13691231228773681,-0.0,"[174.0, 185.0, 181.0, 156.0, 154.0, 154.0, 156.0, 181.0, 185.0, 174.0]",0.2134554535150528,-0.06845615804195404,0.0006103515625,-0.023349761962890625,-27.943992614746094
1743585520.0967374,-0.13691231228773681,-0.0,"[174.0, 185.0, 181.0, 156.0, 154.0, 154.0, 156.0, 181.0, 185.0, 174.0]",0.18389402329921722,-0.06845615804195404,0.000762939453125,-0.021505355834960938,-27.947174072265625
1743585520.1267574,-0.13691231228773681,-0.0,"[174.0, 185.0, 181.0, 156.0, 154.0, 154.0, 156.0, 181.0, 185.0, 174.0]",0.12696687877178192,-0.06845615804195404,0.000823974609375,-0.019458770751953125,-27.94867706298828
1743585520.1296122,-0.13691231228773681,-0.0,"[174.0, 185.0, 181.0, 156.0, 154.0, 154.0, 156.0, 181.0, 185.0, 174.0]",0.20899170637130737,-0.06845615804195404,0.00067138671875,-0.017292022705078125,-27.945098876953125
1743585520.1582835,-0.13691231228773681,-0.0,"[174.0, 185.0, 181.0, 156.0, 154.0, 154.0, 156.0, 181.0, 185.0, 174.0]",0.17664538323879242,-0.06845615804195404,0.00054931640625,-0.015077590942382812,-27.942344665527344
1743585520.161201,-0.13691231228773681,-0.0,"[174.0, 185.0, 181.0, 156.0, 154.0, 154.0, 156.0, 181.0, 185.0, 174.0]",0.1293654888868332,-0.06845615804195404,0.0006103515625,-0.012876510620117188,-27.943710327148438
1743585520.1927326,-0.13691231228773681,-0.0,"[174.0, 185.0, 181.0, 156.0, 154.0, 154.0, 156.0, 181.0, 185.0, 174.0]",0.20245443284511566,-0.06845615804195404,0.000457763671875,-0.010740280151367188,-27.940261840820312
1743585520.2218854,-0.13691231228773681,-0.0,"[174.0, 185.0, 181.0, 156.0, 154.0, 154.0, 156.0, 181.0, 185.0, 174.0]",0.14167803525924683,-0.06845615804195404,0.0003662109375,-0.008707046508789062,-27.93828582763672
1743585520.2248864,-0.13691231228773681,-0.0,"[174.0, 185.0, 181.0, 156.0, 154.0, 154.0, 156.0, 181.0, 185.0, 174.0]",0.2102452665567398,-0.06845615804195404,0.000518798828125,-0.0068111419677734375,-27.942047119140625
1743585520.2550159,-0.13691231228773681,-0.0,"[174.0, 185.0, 181.0, 156.0, 154.0, 154.0, 156.0, 181.0, 185.0, 174.0]",0.13769316673278809,-0.06845615804195404,0.0006103515625,-0.0050716400146484375,-27.944183349609375
1743585520.2885652,-0.13691231228773681,-0.0,"[174.0, 185.0, 181.0, 156.0, 154.0, 154.0, 156.0, 181.0, 185.0, 174.0]",0.19867496192455292,-0.06845615804195404,0.000457763671875,-0.0035076141357421875,-27.940521240234375
1743585520.2956712,-0.13691231228773681,-0.0,"[174.0, 185.0, 181.0, 156.0, 154.0, 154.0, 156.0, 181.0, 185.0, 174.0]",0.12477921694517136,-0.06845615804195404,0.0003662109375,-0.002124786376953125,-27.938446044921875
1743585520.3251944,-0.13691231228773681,-0.0,"[174.0, 185.0, 181.0, 156.0, 154.0, 154.0, 156.0, 181.0, 185.0, 174.0]",0.19218647480010986,-0.06845615804195404,0.000518798828125,-0.000926971435546875,-27.942100524902344
1743585520.3280325,-0.13691231228773681,-0.0,"[174.0, 185.0, 181.0, 156.0, 154.0, 154.0, 156.0, 181.0, 185.0, 174.0]",0.11571736633777618,-0.06845615804195404,0.0006103515625,8.7738037109375e-05,-27.944183349609375
1743585520.3577516,-0.13691231228773681,-0.0,"[174.0, 185.0, 181.0, 156.0, 154.0, 154.0, 156.0, 181.0, 185.0, 174.0]",0.18754929304122925,-0.06845615804195404,0.000457763671875,0.000926971435546875,-27.940521240234375
1743585520.3884137,-0.13691231228773681,-0.0,"[174.0, 185.0, 181.0, 156.0, 154.0, 154.0, 156.0, 181.0, 185.0, 174.0]",0.11141549050807953,-0.06845615804195404,0.0003662109375,0.0016002655029296875,-27.938400268554688
1743585520.39288,-0.13691231228773681,-0.0,"[174.0, 185.0, 181.0, 156.0, 154.0, 154.0, 156.0, 181.0, 185.0, 174.0]",0.18567714095115662,-0.06845615804195404,0.000518798828125,0.002117156982421875,-27.94207763671875
1743585520.4277012,-0.13691231228773681,-0.0,"[174.0, 185.0, 181.0, 156.0, 154.0, 154.0, 156.0, 181.0, 185.0, 174.0]",0.11180875450372696,-0.06845615804195404,0.0006103515625,0.0024929046630859375,-27.944290161132812
1743585520.4309363,-0.13691231228773681,-0.0,"[174.0, 185.0, 181.0, 156.0, 154.0, 154.0, 156.0, 181.0, 185.0, 174.0]",0.1848239302635193,-0.06845615804195404,0.000457763671875,0.002742767333984375,-27.940597534179688
1743585520.4616973,-0.13691231228773681,-0.0,"[174.0, 185.0, 181.0, 156.0, 154.0, 154.0, 156.0, 181.0, 185.0, 174.0]",0.11476283520460129,-0.06845615804195404,0.0003662109375,0.002880096435546875,-27.93830108642578
1743585520.464431,-0.13691231228773681,-0.0,"[174.0, 185.0, 181.0, 156.0, 154.0, 154.0, 156.0, 181.0, 185.0, 174.0]",0.1803896278142929,-0.06845615804195404,0.000518798828125,0.00292205810546875,-27.941909790039062
1743585520.4977539,-0.13691231228773681,-0.0,"[174.0, 185.0, 181.0, 156.0, 154.0, 154.0, 156.0, 181.0, 185.0, 174.0]",0.11724689602851868,-0.06845615804195404,0.0006103515625,0.0028820037841796875,-27.944259643554688
1743585520.5293648,-0.13691231228773681,-0.0,"[174.0, 185.0, 181.0, 156.0, 154.0, 154.0, 156.0, 181.0, 185.0, 174.0]",0.1740238219499588,-0.06845615804195404,0.00048828125,0.002777099609375,-27.940780639648438
1743585520.532266,-0.13691231228773681,-0.0,"[174.0, 185.0, 181.0, 156.0, 154.0, 154.0, 156.0, 181.0, 185.0, 174.0]",0.11165916174650192,-0.06845615804195404,0.0003662109375,0.00261688232421875,-27.93854522705078
1743585520.5622187,-0.13691231228773681,-0.0,"[174.0, 185.0, 181.0, 156.0, 154.0, 154.0, 156.0, 181.0, 185.0, 174.0]",0.18977639079093933,-0.06845615804195404,0.000518798828125,0.00241851806640625,-27.942337036132812
1743585520.5652103,-0.13691231228773681,-0.0,"[174.0, 185.0, 181.0, 156.0, 154.0, 154.0, 156.0, 181.0, 185.0, 174.0]",0.1253649741411209,-0.06845615804195404,0.000640869140625,0.00218963623046875,-27.944839477539062
1743585520.5985281,-0.13691231228773681,-0.0,"[174.0, 185.0, 181.0, 156.0, 154.0, 154.0, 156.0, 181.0, 185.0, 174.0]",0.14466945827007294,-0.06845615804195404,0.000518798828125,0.0019435882568359375,-27.94195556640625
1743585520.62792,-0.13691231228773681,-0.0,"[174.0, 185.0, 181.0, 156.0, 154.0, 154.0, 156.0, 181.0, 185.0, 174.0]",0.01610218919813633,-0.06845615804195404,0.00054931640625,0.0016880035400390625,-27.942153930664062
1743585520.6317077,-0.13691231228773681,-0.0,"[174.0, 185.0, 181.0, 156.0, 154.0, 154.0, 156.0, 181.0, 185.0, 174.0]",0.07987664639949799,-0.06845615804195404,0.00048828125,0.001430511474609375,-27.940574645996094
1743585520.6654904,-0.13691231228773681,-0.0,"[174.0, 185.0, 181.0, 156.0, 154.0, 154.0, 156.0, 181.0, 185.0, 174.0]",0.18530510365962982,-0.06845615804195404,0.000640869140625,0.0011768341064453125,-27.94427490234375
1743585520.668303,-0.13691231228773681,-0.0,"[174.0, 185.0, 181.0, 156.0, 154.0, 154.0, 156.0, 181.0, 185.0, 174.0]",0.13463278114795685,-0.06845615804195404,0.000762939453125,0.000934600830078125,-27.94696044921875
1743585520.7027135,-0.13691231228773681,-0.0,"[174.0, 185.0, 181.0, 156.0, 154.0, 154.0, 156.0, 181.0, 185.0, 174.0]",0.09725472331047058,-0.06845615804195404,0.000701904296875,0.000705718994140625,-27.945022583007812
1743585520.7363427,-0.13691231228773681,-0.0,"[174.0, 185.0, 181.0, 156.0, 154.0, 154.0, 156.0, 181.0, 185.0, 174.0]",0.20800502598285675,-0.06845615804195404,0.0008544921875,0.0004940032958984375,-27.949180603027344
1743585520.739242,-0.13691231228773681,-0.0,"[174.0, 185.0, 181.0, 156.0, 154.0, 154.0, 156.0, 181.0, 185.0, 174.0]",0.06515706330537796,-0.06845615804195404,0.00091552734375,0.000301361083984375,-27.950469970703125
1743585520.7691867,-0.13691231228773681,-0.0,"[174.0, 185.0, 181.0, 156.0, 154.0, 154.0, 156.0, 181.0, 185.0, 174.0]",0.17281419038772583,-0.06845615804195404,0.00079345703125,0.00012969970703125,-27.947021484375
1743585520.7717776,-0.13691231228773681,-0.0,"[174.0, 185.0, 181.0, 156.0, 154.0, 154.0, 156.0, 181.0, 185.0, 174.0]",0.11881399899721146,-0.06845615804195404,0.00067138671875,-2.09808349609375e-05,-27.94464111328125
1743585520.804194,-0.13691231228773681,-0.0,"[174.0, 185.0, 181.0, 156.0, 154.0, 154.0, 156.0, 181.0, 185.0, 174.0]",0.17503875494003296,-0.06845615804195404,0.000823974609375,-0.0001506805419921875,-27.948143005371094
1743585520.8079033,-0.13691231228773681,-0.0,"[174.0, 185.0, 181.0, 156.0, 154.0, 154.0, 156.0, 181.0, 185.0, 174.0]",0.12466783821582794,-0.06845615804195404,0.000946044921875,-0.0002593994140625,-27.950637817382812
1743585520.8366663,-0.13691231228773681,-0.0,"[174.0, 185.0, 181.0, 156.0, 154.0, 154.0, 156.0, 181.0, 185.0, 174.0]",0.14511337876319885,-0.06845615804195404,0.000823974609375,-0.000347137451171875,-27.947738647460938
1743585520.8662376,-0.13691231228773681,-0.0,"[174.0, 185.0, 181.0, 156.0, 154.0, 154.0, 156.0, 181.0, 185.0, 174.0]",0.008014808408915997,-0.06845615804195404,0.000823974609375,-0.000415802001953125,-27.9478759765625
1743585520.8694618,-0.13691231228773681,-0.0,"[174.0, 185.0, 181.0, 156.0, 154.0, 154.0, 156.0, 181.0, 185.0, 174.0]",0.047250498086214066,-0.06845615804195404,0.00079345703125,-0.000469207763671875,-27.946937561035156
1743585520.9034815,-0.13691231228773681,-0.0,"[174.0, 185.0, 181.0, 156.0, 154.0, 154.0, 156.0, 181.0, 185.0, 174.0]",0.20276838541030884,-0.06845615804195404,0.000946044921875,-0.0005054473876953125,-27.95099639892578
1743585520.9091954,-0.13691231228773681,-0.0,"[174.0, 185.0, 181.0, 156.0, 154.0, 154.0, 156.0, 181.0, 185.0, 174.0]",0.09025926142930984,-0.06845615804195404,0.00103759765625,-0.0005283355712890625,-27.952804565429688
1743585520.9392085,-0.13691231228773681,-0.0,"[174.0, 185.0, 181.0, 156.0, 154.0, 154.0, 156.0, 181.0, 185.0, 174.0]",0.2071341872215271,-0.06845615804195404,0.0008544921875,-0.000537872314453125,-27.948654174804688
1743585520.9425426,-0.13691231228773681,-0.0,"[174.0, 185.0, 181.0, 156.0, 154.0, 154.0, 156.0, 181.0, 185.0, 174.0]",0.06629794836044312,-0.06845615804195404,0.00079345703125,-0.0005397796630859375,-27.94732666015625
1743585520.9715586,-0.13691231228773681,-0.0,"[174.0, 185.0, 181.0, 156.0, 154.0, 154.0, 156.0, 181.0, 185.0, 174.0]",0.17247283458709717,-0.06845615804195404,0.000946044921875,-0.000530242919921875,-27.950775146484375
1743585521.0043433,-0.13691231228773681,-0.0,"[174.0, 185.0, 181.0, 156.0, 154.0, 154.0, 156.0, 181.0, 185.0, 174.0]",0.11618230491876602,-0.06845615804195404,0.001068115234375,-0.000514984130859375,-27.953102111816406
1743585521.0081525,-0.13691231228773681,-0.0,"[174.0, 185.0, 181.0, 156.0, 154.0, 154.0, 156.0, 181.0, 185.0, 174.0]",0.1833173930644989,-0.06845615804195404,0.000885009765625,-0.00049591064453125,-27.949432373046875
1743585521.0372944,-0.13691231228773681,-0.0,"[174.0, 185.0, 181.0, 156.0, 154.0, 154.0, 156.0, 181.0, 185.0, 174.0]",0.13315632939338684,-0.06845615804195404,0.000762939453125,-0.0004711151123046875,-27.94676971435547
1743585521.0668075,-0.13691231228773681,-0.0,"[174.0, 185.0, 181.0, 156.0, 154.0, 154.0, 156.0, 181.0, 185.0, 174.0]",0.10185505449771881,-0.06845615804195404,0.0008544921875,-0.0004425048828125,-27.948806762695312
1743585521.070083,-0.13691231228773681,-0.0,"[174.0, 185.0, 181.0, 156.0, 154.0, 154.0, 156.0, 181.0, 185.0, 174.0]",0.19916662573814392,-0.06845615804195404,0.00067138671875,-0.0004138946533203125,-27.94482421875
1743585521.1046567,-0.13691231228773681,-0.0,"[174.0, 185.0, 181.0, 156.0, 154.0, 154.0, 156.0, 181.0, 185.0, 174.0]",0.10528018325567245,-0.06845615804195404,0.000579833984375,-0.0003833770751953125,-27.942718505859375
1743585521.1102374,-0.13691231228773681,-0.0,"[174.0, 185.0, 181.0, 156.0, 154.0, 154.0, 156.0, 181.0, 185.0, 174.0]",0.19116847217082977,-0.06845615804195404,0.000732421875,-0.000354766845703125,-27.94654083251953
1743585521.1405494,-0.13691231228773681,-0.0,"[174.0, 185.0, 181.0, 156.0, 154.0, 154.0, 156.0, 181.0, 185.0, 174.0]",0.12735307216644287,-0.06845615804195404,0.0008544921875,-0.0003261566162109375,-27.94908905029297
1743585521.1434972,-0.13691231228773681,-0.0,"[174.0, 185.0, 181.0, 156.0, 154.0, 154.0, 156.0, 181.0, 185.0, 174.0]",0.13434813916683197,-0.06845615804195404,0.000762939453125,-0.00029754638671875,-27.94640350341797
1743585521.1725402,-0.13691231228773681,-0.0,"[174.0, 185.0, 181.0, 156.0, 154.0, 154.0, 156.0, 181.0, 185.0, 174.0]",0.09209325909614563,-0.06845615804195404,0.000823974609375,-0.0002727508544921875,-27.9482421875
1743585521.2052526,-0.13691231228773681,-0.0,"[174.0, 185.0, 181.0, 156.0, 154.0, 154.0, 156.0, 181.0, 185.0, 174.0]",0.20681750774383545,-0.06845615804195404,0.00067138671875,-0.000247955322265625,-27.944107055664062
1743585521.2083666,-0.13691231228773681,-0.0,"[174.0, 185.0, 181.0, 156.0, 154.0, 154.0, 156.0, 181.0, 185.0, 174.0]",0.06665395200252533,-0.06845615804195404,0.000579833984375,-0.0002269744873046875,-27.942771911621094
1743585521.2383318,-0.13691231228773681,-0.0,"[174.0, 185.0, 181.0, 156.0, 154.0, 154.0, 156.0, 181.0, 185.0, 174.0]",0.17257750034332275,-0.06845615804195404,0.000732421875,-0.0002079010009765625,-27.94622802734375
1743585521.2674687,-0.13691231228773681,-0.0,"[174.0, 185.0, 181.0, 156.0, 154.0, 154.0, 156.0, 181.0, 185.0, 174.0]",0.115151047706604,-0.06845615804195404,0.0008544921875,-0.0001926422119140625,-27.948532104492188
1743585521.270244,-0.13691231228773681,-0.0,"[174.0, 185.0, 181.0, 156.0, 154.0, 154.0, 156.0, 181.0, 185.0, 174.0]",0.18605828285217285,-0.06845615804195404,0.000701904296875,-0.0001773834228515625,-27.944808959960938
1743585521.3068995,-0.13691231228773681,-0.0,"[174.0, 185.0, 181.0, 156.0, 154.0, 154.0, 156.0, 181.0, 185.0, 174.0]",0.13217362761497498,-0.06845615804195404,0.000579833984375,-0.0001659393310546875,-27.942161560058594
1743585521.3117573,-0.13691231228773681,-0.0,"[174.0, 185.0, 181.0, 156.0, 154.0, 154.0, 156.0, 181.0, 185.0, 174.0]",0.10746423900127411,-0.06845615804195404,0.000640869140625,-0.000156402587890625,-27.944313049316406
1743585521.3462312,-0.13691231228773681,-0.0,"[174.0, 185.0, 181.0, 156.0, 154.0, 154.0, 156.0, 181.0, 185.0, 174.0]",0.18386879563331604,-0.06845615804195404,0.00048828125,-0.0001506805419921875,-27.940628051757812
1743585521.348626,-0.13691231228773681,-0.0,"[174.0, 185.0, 181.0, 156.0, 154.0, 154.0, 156.0, 181.0, 185.0, 174.0]",0.13222377002239227,-0.06845615804195404,0.0003662109375,-0.00014495849609375,-27.93798828125
1743585521.3778088,-0.13691231228773681,-0.0,"[174.0, 185.0, 181.0, 156.0, 154.0, 154.0, 156.0, 181.0, 185.0, 174.0]",0.10707906633615494,-0.06845615804195404,0.00042724609375,-0.000141143798828125,-27.94012451171875
1743585521.4109187,-0.13691231228773681,-0.0,"[174.0, 185.0, 181.0, 156.0, 154.0, 154.0, 156.0, 181.0, 185.0, 174.0]",0.18493999540805817,-0.06845615804195404,0.000274658203125,-0.0001392364501953125,-27.936424255371094
1743585521.4140308,-0.13691231228773681,-0.0,"[174.0, 185.0, 181.0, 156.0, 154.0, 154.0, 156.0, 181.0, 185.0, 174.0]",0.13238583505153656,-0.06845615804195404,0.000152587890625,-0.0001373291015625,-27.93377685546875
1743585521.4446542,-0.13691231228773681,-0.0,"[174.0, 185.0, 181.0, 156.0, 154.0, 154.0, 156.0, 181.0, 185.0, 174.0]",0.10616863518953323,-0.06845615804195404,0.000244140625,-0.0001392364501953125,-27.935897827148438
1743585521.4477594,-0.13691231228773681,-0.0,"[174.0, 185.0, 181.0, 156.0, 154.0, 154.0, 156.0, 181.0, 185.0, 174.0]",0.18734975159168243,-0.06845615804195404,9.1552734375e-05,-0.0001392364501953125,-27.932151794433594
1743585521.483436,-0.13691231228773681,-0.0,"[174.0, 185.0, 180.0, 156.0, 154.0, 154.0, 156.0, 181.0, 185.0, 174.0]",0.13182401657104492,-0.06845615804195404,-3.0517578125e-05,-0.000141143798828125,-27.92951202392578
1743585521.5176654,-0.13691231228773681,-0.0,"[174.0, 185.0, 180.0, 156.0, 154.0, 154.0, 156.0, 181.0, 185.0, 174.0]",0.10984647274017334,-0.06845615804195404,3.0517578125e-05,-0.00014495849609375,-27.93170928955078
1743585521.5218263,-0.13691231228773681,-0.0,"[174.0, 185.0, 180.0, 156.0, 154.0, 154.0, 156.0, 181.0, 185.0, 174.0]",0.17857502400875092,-0.06845615804195404,-0.0001220703125,-0.0001468658447265625,-27.928138732910156
1743585521.553726,-0.13691231228773681,-0.0,"[174.0, 185.0, 180.0, 156.0, 154.0, 154.0, 156.0, 181.0, 185.0, 174.0]",0.12800410389900208,-0.06845615804195404,-0.000244140625,-0.0001506805419921875,-27.925575256347656
1743585521.5572174,-0.13691231228773681,-0.0,"[174.0, 185.0, 180.0, 156.0, 154.0, 154.0, 156.0, 181.0, 185.0, 174.0]",0.1298028975725174,-0.06845615804195404,-0.000152587890625,-0.0001544952392578125,-27.928176879882812
1743585521.5911717,-0.13691231228773681,-0.0,"[174.0, 185.0, 180.0, 156.0, 154.0, 154.0, 156.0, 181.0, 185.0, 174.0]",0.151275172829628,-0.06845615804195404,-0.000274658203125,-0.000156402587890625,-27.925140380859375
1743585521.59587,-0.13691231228773681,-0.0,"[174.0, 185.0, 180.0, 156.0, 154.0, 154.0, 156.0, 181.0, 185.0, 174.0]",0.02307901531457901,-0.06845615804195404,-0.00030517578125,-0.00016021728515625,-27.9246826171875
1743585521.6262343,-0.13691231228773681,-0.0,"[174.0, 185.0, 180.0, 156.0, 154.0, 154.0, 156.0, 181.0, 185.0, 174.0]",0.19005312025547028,-0.06845615804195404,-0.0001220703125,-0.000164031982421875,-27.928489685058594
1743585521.6293714,-0.13691231228773681,-0.0,"[174.0, 185.0, 180.0, 156.0, 154.0, 154.0, 156.0, 181.0, 185.0, 174.0]",0.12903176248073578,-0.06845615804195404,-3.0517578125e-05,-0.0001659393310546875,-27.931068420410156
1743585521.6597524,-0.13691231228773681,-0.0,"[174.0, 185.0, 180.0, 156.0, 154.0, 154.0, 156.0, 181.0, 185.0, 174.0]",0.12595234811306,-0.06845615804195404,-0.0001220703125,-0.0001697540283203125,-27.928550720214844
1743585521.663047,-0.13691231228773681,-0.0,"[174.0, 185.0, 180.0, 156.0, 154.0, 154.0, 156.0, 181.0, 185.0, 174.0]",0.1883910596370697,-0.06845615804195404,6.103515625e-05,-0.000171661376953125,-27.93231964111328
1743585521.700539,-0.13691231228773681,-0.0,"[174.0, 185.0, 181.0, 156.0, 154.0, 154.0, 156.0, 181.0, 185.0, 174.0]",0.1312858611345291,-0.06845615804195404,0.00018310546875,-0.00017547607421875,-27.934951782226562
1743585521.7336557,-0.13691231228773681,-0.0,"[174.0, 185.0, 181.0, 156.0, 154.0, 154.0, 156.0, 181.0, 185.0, 174.0]",0.11348661035299301,-0.06845615804195404,9.1552734375e-05,-0.0001773834228515625,-27.93267822265625
1743585521.7369044,-0.13691231228773681,-0.0,"[174.0, 185.0, 181.0, 156.0, 154.0, 154.0, 156.0, 181.0, 185.0, 174.0]",0.17823509871959686,-0.06845615804195404,0.000244140625,-0.000179290771484375,-27.936248779296875
1743585521.7681658,-0.13691231228773681,-0.0,"[174.0, 185.0, 181.0, 156.0, 154.0, 154.0, 156.0, 181.0, 185.0, 174.0]",0.12811018526554108,-0.06845615804195404,0.0003662109375,-0.000179290771484375,-27.938812255859375
1743585521.7707927,-0.13691231228773681,-0.0,"[174.0, 185.0, 181.0, 156.0, 154.0, 154.0, 156.0, 181.0, 185.0, 174.0]",0.13022419810295105,-0.06845615804195404,0.000244140625,-0.0001811981201171875,-27.936203002929688
1743585521.803598,-0.13691231228773681,-0.0,"[174.0, 185.0, 181.0, 156.0, 154.0, 154.0, 156.0, 181.0, 185.0, 174.0]",0.14604692161083221,-0.06845615804195404,0.000396728515625,-0.00018310546875,-27.939132690429688
1743585521.8074973,-0.13691231228773681,-0.0,"[174.0, 185.0, 181.0, 156.0, 154.0, 154.0, 156.0, 181.0, 185.0, 174.0]",0.005025389138609171,-0.06845615804195404,0.000396728515625,-0.00018310546875,-27.93902587890625
1743585521.843477,-0.13691231228773681,-0.0,"[174.0, 185.0, 181.0, 156.0, 154.0, 154.0, 156.0, 181.0, 185.0, 174.0]",0.026907965540885925,-0.06845615804195404,0.000396728515625,-0.00018310546875,-27.93956756591797
1743585521.8467271,-0.13691231228773681,-0.0,"[174.0, 185.0, 181.0, 156.0, 154.0, 154.0, 156.0, 181.0, 185.0, 174.0]",0.1736196130514145,-0.06845615804195404,0.000244140625,-0.0001850128173828125,-27.93608856201172
1743585521.8813825,-0.13691231228773681,-0.0,"[174.0, 185.0, 181.0, 156.0, 154.0, 154.0, 156.0, 181.0, 185.0, 174.0]",0.11827777326107025,-0.06845615804195404,0.000152587890625,-0.0001850128173828125,-27.93372344970703
1743585521.916037,-0.13691231228773681,-0.0,"[174.0, 185.0, 181.0, 156.0, 154.0, 154.0, 156.0, 181.0, 185.0, 174.0]",0.17425966262817383,-0.06845615804195404,0.00030517578125,-0.0001850128173828125,-27.937210083007812
1743585521.9195771,-0.13691231228773681,-0.0,"[174.0, 185.0, 181.0, 156.0, 154.0, 154.0, 156.0, 181.0, 185.0, 174.0]",0.11989999562501907,-0.06845615804195404,0.000396728515625,-0.0001850128173828125,-27.939613342285156
1743585521.9501507,-0.13691231228773681,-0.0,"[174.0, 185.0, 181.0, 156.0, 154.0, 154.0, 156.0, 181.0, 185.0, 174.0]",0.16638344526290894,-0.06845615804195404,0.000274658203125,-0.0001850128173828125,-27.936279296875
1743585521.9531116,-0.13691231228773681,-0.0,"[174.0, 185.0, 181.0, 156.0, 154.0, 154.0, 156.0, 181.0, 185.0, 174.0]",0.09378708899021149,-0.06845615804195404,0.00018310546875,-0.0001850128173828125,-27.934402465820312
1743585521.9832664,-0.13691231228773681,-0.0,"[174.0, 185.0, 181.0, 156.0, 154.0, 154.0, 156.0, 181.0, 185.0, 174.0]",0.20616234838962555,-0.06845615804195404,0.0003662109375,-0.00018310546875,-27.93852996826172
1743585521.987248,-0.13691231228773681,-0.0,"[174.0, 185.0, 181.0, 156.0, 154.0, 154.0, 156.0, 181.0, 185.0, 174.0]",0.07037654519081116,-0.06845615804195404,0.00042724609375,-0.00018310546875,-27.93994140625
1743585522.0245614,-0.13691231228773681,-0.0,"[174.0, 185.0, 181.0, 156.0, 154.0, 154.0, 156.0, 181.0, 185.0, 174.0]",0.17307212948799133,-0.06845615804195404,0.000274658203125,-0.00018310546875,-27.936477661132812
1743585522.029875,-0.13691231228773681,-0.0,"[174.0, 185.0, 181.0, 156.0, 154.0, 154.0, 156.0, 181.0, 185.0, 174.0]",0.11680300533771515,-0.06845615804195404,0.000152587890625,-0.00018310546875,-27.93414306640625
1743585522.060608,-0.13691231228773681,-0.0,"[174.0, 185.0, 181.0, 156.0, 154.0, 154.0, 156.0, 181.0, 185.0, 174.0]",0.18071475625038147,-0.06845615804195404,0.000335693359375,-0.00018310546875,-27.937759399414062
1743585522.063654,-0.13691231228773681,-0.0,"[174.0, 185.0, 181.0, 156.0, 154.0, 154.0, 156.0, 181.0, 185.0, 174.0]",0.13060341775417328,-0.06845615804195404,0.00042724609375,-0.00018310546875,-27.94036865234375
1743585522.0980172,-0.13691231228773681,-0.0,"[174.0, 185.0, 181.0, 156.0, 154.0, 154.0, 156.0, 181.0, 185.0, 174.0]",0.11691837012767792,-0.06845615804195404,0.0003662109375,-0.0001811981201171875,-27.938034057617188
1743585522.130355,-0.13691231228773681,-0.0,"[174.0, 185.0, 181.0, 156.0, 154.0, 154.0, 156.0, 181.0, 185.0, 174.0]",0.1880287379026413,-0.06845615804195404,0.000518798828125,-0.0001811981201171875,-27.941795349121094
1743585522.133552,-0.13691231228773681,-0.0,"[174.0, 185.0, 181.0, 156.0, 154.0, 154.0, 156.0, 181.0, 185.0, 174.0]",0.13161127269268036,-0.06845615804195404,0.000640869140625,-0.0001811981201171875,-27.944427490234375
1743585522.1637847,-0.13691231228773681,-0.0,"[174.0, 185.0, 181.0, 156.0, 154.0, 154.0, 156.0, 181.0, 185.0, 174.0]",0.11132311820983887,-0.06845615804195404,0.00054931640625,-0.0001811981201171875,-27.94219970703125
1743585522.1672165,-0.13691231228773681,-0.0,"[174.0, 185.0, 181.0, 156.0, 154.0, 154.0, 156.0, 181.0, 185.0, 174.0]",0.17699632048606873,-0.06845615804195404,0.000701904296875,-0.0001811981201171875,-27.94574737548828
1743585522.201033,-0.13691231228773681,-0.0,"[174.0, 185.0, 181.0, 156.0, 154.0, 154.0, 156.0, 181.0, 185.0, 174.0]",0.12580327689647675,-0.06845615804195404,0.000823974609375,-0.000179290771484375,-27.948265075683594
1743585522.2324688,-0.13691231228773681,-0.0,"[174.0, 185.0, 181.0, 156.0, 154.0, 154.0, 156.0, 181.0, 185.0, 174.0]",0.13974979519844055,-0.06845615804195404,0.000701904296875,-0.000179290771484375,-27.945465087890625
1743585522.2356422,-0.13691231228773681,-0.0,"[174.0, 185.0, 181.0, 156.0, 154.0, 154.0, 156.0, 181.0, 185.0, 174.0]",0.035642124712467194,-0.06845615804195404,0.000732421875,-0.000179290771484375,-27.946182250976562
1743585522.2666512,-0.13691231228773681,-0.0,"[174.0, 185.0, 181.0, 156.0, 154.0, 154.0, 156.0, 181.0, 185.0, 174.0]",0.20531705021858215,-0.06845615804195404,0.000579833984375,-0.000179290771484375,-27.94207000732422
1743585522.2693548,-0.13691231228773681,-0.0,"[174.0, 185.0, 181.0, 156.0, 154.0, 154.0, 156.0, 181.0, 185.0, 174.0]",0.07478972524404526,-0.06845615804195404,0.00048828125,-0.000179290771484375,-27.940574645996094
1743585522.303881,-0.13691231228773681,-0.0,"[174.0, 185.0, 181.0, 156.0, 154.0, 154.0, 156.0, 181.0, 185.0, 174.0]",0.17753943800926208,-0.06845615804195404,0.000640869140625,-0.000179290771484375,-27.944122314453125
1743585522.3080046,-0.13691231228773681,-0.0,"[174.0, 185.0, 181.0, 156.0, 154.0, 154.0, 156.0, 181.0, 185.0, 174.0]",0.12656956911087036,-0.06845615804195404,0.000762939453125,-0.000179290771484375,-27.9466552734375
1743585522.3409832,-0.13691231228773681,-0.0,"[174.0, 185.0, 181.0, 156.0, 154.0, 154.0, 156.0, 181.0, 185.0, 174.0]",0.13635966181755066,-0.06845615804195404,0.00067138671875,-0.000179290771484375,-27.943931579589844
1743585522.3441043,-0.13691231228773681,-0.0,"[174.0, 185.0, 181.0, 156.0, 154.0, 154.0, 156.0, 181.0, 185.0, 174.0]",0.06817811727523804,-0.06845615804195404,0.000732421875,-0.000179290771484375,-27.945297241210938
1743585522.3743765,-0.13691231228773681,-0.0,"[174.0, 185.0, 181.0, 156.0, 154.0, 154.0, 156.0, 181.0, 185.0, 174.0]",0.17258870601654053,-0.06845615804195404,0.000579833984375,-0.000179290771484375,-27.94184112548828
1743585522.4075925,-0.13691231228773681,-0.0,"[174.0, 185.0, 181.0, 156.0, 154.0, 154.0, 156.0, 181.0, 185.0, 174.0]",0.11549113690853119,-0.06845615804195404,0.000457763671875,-0.000179290771484375,-27.939529418945312
1743585522.4123616,-0.13691231228773681,-0.0,"[174.0, 185.0, 181.0, 156.0, 154.0, 154.0, 156.0, 181.0, 185.0, 174.0]",0.18530486524105072,-0.06845615804195404,0.0006103515625,-0.000179290771484375,-27.9432373046875
1743585522.4431183,-0.13691231228773681,-0.0,"[174.0, 185.0, 181.0, 156.0, 154.0, 154.0, 156.0, 181.0, 185.0, 174.0]",0.13257139921188354,-0.06845615804195404,0.000732421875,-0.000179290771484375,-27.945892333984375
1743585522.446704,-0.13691231228773681,-0.0,"[174.0, 185.0, 181.0, 156.0, 154.0, 154.0, 156.0, 181.0, 185.0, 174.0]",0.10513612627983093,-0.06845615804195404,0.00067138671875,-0.000179290771484375,-27.94378662109375
1743585522.4840505,-0.13691231228773681,-0.0,"[174.0, 185.0, 181.0, 156.0, 154.0, 154.0, 156.0, 181.0, 185.0, 174.0]",0.19014839828014374,-0.06845615804195404,0.000823974609375,-0.000179290771484375,-27.947593688964844
1743585522.493435,-0.13691231228773681,-0.0,"[174.0, 185.0, 181.0, 156.0, 154.0, 154.0, 156.0, 181.0, 185.0, 174.0]",0.12937867641448975,-0.06845615804195404,0.000946044921875,-0.000179290771484375,-27.95018768310547
1743585522.5004125,-0.13691231228773681,-0.0,"[174.0, 185.0, 181.0, 156.0, 154.0, 154.0, 156.0, 181.0, 185.0, 174.0]",0.12457180768251419,-0.06845615804195404,0.0008544921875,-0.000179290771484375,-27.94769287109375
1743585522.505205,-0.13691231228773681,-0.0,"[174.0, 185.0, 181.0, 156.0, 154.0, 154.0, 156.0, 181.0, 185.0, 174.0]",0.19625765085220337,-0.06845615804195404,0.00103759765625,-0.000179290771484375,-27.951622009277344
1743585522.5160031,-0.13691231228773681,-0.0,"[174.0, 185.0, 181.0, 156.0, 154.0, 154.0, 156.0, 181.0, 185.0, 174.0]",0.11582325398921967,-0.06845615804195404,0.001129150390625,-0.000179290771484375,-27.953941345214844
1743585522.5341396,-0.13691231228773681,-0.0,"[174.0, 185.0, 181.0, 156.0, 154.0, 154.0, 156.0, 181.0, 185.0, 174.0]",0.18501538038253784,-0.06845615804195404,0.0009765625,-0.000179290771484375,-27.950241088867188
1743585522.554282,-0.13691231228773681,-0.0,"[174.0, 185.0, 181.0, 156.0, 154.0, 154.0, 156.0, 181.0, 185.0, 174.0]",0.13270479440689087,-0.06845615804195404,0.0008544921875,-0.000179290771484375,-27.94757843017578
1743585522.5738657,-0.13691231228773681,-0.0,"[174.0, 185.0, 181.0, 156.0, 154.0, 154.0, 156.0, 181.0, 185.0, 174.0]",0.10433418303728104,-0.06845615804195404,0.00091552734375,-0.000179290771484375,-27.949668884277344
1743585522.5962665,-0.13691231228773681,-0.0,"[174.0, 185.0, 181.0, 156.0, 154.0, 154.0, 156.0, 181.0, 185.0, 174.0]",0.19232884049415588,-0.06845615804195404,0.000762939453125,-0.000179290771484375,-27.945816040039062
1743585522.6139896,-0.13691231228773681,-0.0,"[174.0, 185.0, 181.0, 156.0, 154.0, 154.0, 156.0, 181.0, 185.0, 174.0]",0.12579677999019623,-0.06845615804195404,0.000640869140625,-0.000179290771484375,-27.94329833984375
1743585522.6357586,-0.13691231228773681,-0.0,"[174.0, 185.0, 181.0, 156.0, 154.0, 154.0, 156.0, 181.0, 185.0, 174.0]",0.14251460134983063,-0.06845615804195404,0.000762939453125,-0.000179290771484375,-27.946151733398438
1743585522.6537151,-0.13691231228773681,-0.0,"[174.0, 185.0, 181.0, 156.0, 154.0, 154.0, 156.0, 181.0, 185.0, 174.0]",0.017578864470124245,-0.06845615804195404,0.000732421875,-0.000179290771484375,-27.94580078125
1743585522.6737669,-0.13691231228773681,-0.0,"[174.0, 185.0, 181.0, 156.0, 154.0, 154.0, 156.0, 181.0, 185.0, 174.0]",0.20003019273281097,-0.06845615804195404,0.00091552734375,-0.000179290771484375,-27.949806213378906
1743585522.6976151,-0.13691231228773681,-0.0,"[174.0, 185.0, 181.0, 156.0, 154.0, 154.0, 156.0, 181.0, 185.0, 174.0]",0.10127118974924088,-0.06845615804195404,0.001007080078125,-0.000179290771484375,-27.951828002929688
1743585522.7136981,-0.13691231228773681,-0.0,"[174.0, 185.0, 181.0, 156.0, 154.0, 154.0, 156.0, 181.0, 185.0, 174.0]",0.19585363566875458,-0.06845615804195404,0.0008544921875,-0.000179290771484375,-27.947914123535156
1743585522.7342827,-0.13691231228773681,-0.0,"[174.0, 185.0, 181.0, 156.0, 154.0, 154.0, 156.0, 181.0, 185.0, 174.0]",0.11633189022541046,-0.06845615804195404,0.000732421875,-0.000179290771484375,-27.945587158203125
