timestamp,steering_input,acceleration_input,raycasts,speed,steering,position_x,position_y,position_z
1743581278.8132231,0.0,-0.0,"[174.0, 185.0, 227.0, 295.0, 259.0, 259.0, 295.0, 227.0, 185.0, 174.0]",0.0,0.0,0.0,0.10000038146972656,-27.93000030517578
1743581279.0616822,0.0,-0.0,"[174.0, 185.0, 178.0, 155.0, 154.0, 154.0, 156.0, 179.0, 185.0, 174.0]",0.1431841105222702,0.0,0.0,0.097137451171875,-27.93000030517578
1743581279.116669,0.0,-0.0,"[174.0, 185.0, 178.0, 155.0, 154.0, 154.0, 156.0, 179.0, 185.0, 174.0]",0.2360968291759491,0.0,0.0,0.09241485595703125,-27.93000030517578
1743581279.1214924,0.0,-0.0,"[174.0, 185.0, 178.0, 155.0, 154.0, 154.0, 156.0, 179.0, 185.0, 174.0]",0.30777978897094727,0.0,0.0,0.08625984191894531,-27.93000030517578
1743581279.1247468,0.0,-0.0,"[174.0, 185.0, 178.0, 155.0, 154.0, 154.0, 156.0, 179.0, 185.0, 174.0]",0.36006540060043335,0.0,0.0,0.07905769348144531,-27.93000030517578
1743581279.1565535,0.0,-0.0,"[174.0, 185.0, 179.0, 155.0, 154.0, 154.0, 156.0, 179.0, 185.0, 174.0]",0.3949472904205322,0.0,0.0,0.07115936279296875,-27.93000030517578
1743581279.1597428,0.0,-0.0,"[174.0, 185.0, 179.0, 155.0, 154.0, 154.0, 156.0, 179.0, 185.0, 174.0]",0.41450235247612,0.0,0.0,0.06286811828613281,-27.93000030517578
1743581279.1916163,0.0,-0.0,"[174.0, 185.0, 179.0, 155.0, 154.0, 154.0, 156.0, 180.0, 185.0, 174.0]",0.42082807421684265,0.0,0.0,0.05445289611816406,-27.93000030517578
1743581279.1948574,0.0,-0.0,"[174.0, 185.0, 179.0, 155.0, 154.0, 154.0, 156.0, 180.0, 185.0, 174.0]",0.41598936915397644,0.0,0.0,0.04613304138183594,-27.93000030517578
1743581279.2261682,0.0,-0.0,"[174.0, 185.0, 179.0, 155.0, 154.0, 154.0, 156.0, 181.0, 185.0, 174.0]",0.4019714593887329,0.0,0.0,0.03809356689453125,-27.93000030517578
1743581279.2615771,0.0,-0.0,"[174.0, 185.0, 179.0, 156.0, 154.0, 154.0, 156.0, 181.0, 185.0, 174.0]",0.3806484043598175,0.0,0.0,0.03047943115234375,-27.93000030517578
1743581279.265621,0.0,-0.0,"[174.0, 185.0, 179.0, 156.0, 154.0, 154.0, 156.0, 181.0, 185.0, 174.0]",0.3537571132183075,0.0,0.0,0.023405075073242188,-27.93000030517578
1743581279.297841,0.0,-0.0,"[174.0, 185.0, 180.0, 156.0, 154.0, 154.0, 156.0, 181.0, 185.0, 174.0]",0.3228750228881836,0.0,0.0,0.016946792602539062,-27.92999267578125
1743581279.300825,0.0,-0.0,"[174.0, 185.0, 180.0, 156.0, 154.0, 154.0, 156.0, 181.0, 185.0, 174.0]",0.28941938281059265,0.0,0.0,0.011159896850585938,-27.930038452148438
1743581279.3305924,0.0,-0.0,"[174.0, 185.0, 180.0, 156.0, 154.0, 154.0, 156.0, 181.0, 185.0, 174.0]",0.2562173306941986,0.0,0.0,0.0060672760009765625,-27.929466247558594
1743581279.3346074,0.0,-0.0,"[174.0, 185.0, 180.0, 156.0, 154.0, 154.0, 156.0, 181.0, 185.0, 174.0]",0.34839218854904175,0.0,0.0,0.0016765594482421875,-27.93487548828125
1743581279.3658617,0.0,-0.0,"[174.0, 185.0, 181.0, 156.0, 154.0, 154.0, 156.0, 181.0, 185.0, 174.0]",0.255353718996048,0.0,0.0,-0.0020236968994140625,-27.931358337402344
1743581279.3973284,0.0,-0.0,"[174.0, 185.0, 181.0, 156.0, 154.0, 154.0, 156.0, 181.0, 185.0, 174.0]",0.2815416157245636,0.0,0.0,-0.0050601959228515625,-27.926612854003906
1743581279.4008334,0.0,-0.0,"[174.0, 185.0, 181.0, 156.0, 154.0, 154.0, 156.0, 181.0, 185.0, 174.0]",0.15634490549564362,0.0,0.0,-0.007472991943359375,-27.928604125976562
1743581279.4317353,0.0,-0.0,"[174.0, 185.0, 181.0, 156.0, 154.0, 154.0, 156.0, 181.0, 185.0, 174.0]",0.27455902099609375,0.0,0.0,-0.009307861328125,-27.923431396484375
1743581279.434622,0.0,-0.0,"[174.0, 185.0, 181.0, 156.0, 154.0, 154.0, 156.0, 181.0, 185.0, 174.0]",0.2245660424232483,0.0,0.0,-0.010616302490234375,-27.92772674560547
1743581279.4668214,0.0,-0.0,"[174.0, 185.0, 181.0, 156.0, 154.0, 154.0, 156.0, 181.0, 185.0, 174.0]",0.08891011029481888,0.0,0.0,-0.011455535888671875,-27.929290771484375
1743581279.503636,0.0,-0.0,"[174.0, 185.0, 181.0, 156.0, 154.0, 154.0, 156.0, 181.0, 185.0, 174.0]",0.1896505206823349,0.0,0.0,-0.011884689331054688,-27.925521850585938
1743581279.511167,0.0,-0.0,"[174.0, 185.0, 181.0, 156.0, 154.0, 154.0, 156.0, 181.0, 185.0, 174.0]",0.2066076397895813,0.0,0.0,-0.011960983276367188,-27.92139434814453
1743581279.545239,0.0,-0.0,"[174.0, 185.0, 181.0, 156.0, 154.0, 154.0, 156.0, 181.0, 185.0, 174.0]",0.12101753056049347,0.0,0.0,-0.011743545532226562,-27.918983459472656
1743581279.5496306,0.0,-0.0,"[174.0, 185.0, 181.0, 156.0, 154.0, 154.0, 156.0, 181.0, 185.0, 174.0]",0.19259010255336761,0.0,0.0,-0.011285781860351562,-27.922805786132812
1743581279.5810118,0.0,-0.0,"[174.0, 185.0, 181.0, 156.0, 154.0, 154.0, 156.0, 181.0, 185.0, 174.0]",0.17800575494766235,0.0,0.0,-0.010637283325195312,-27.926307678222656
1743581279.586491,0.0,-0.0,"[174.0, 185.0, 181.0, 156.0, 154.0, 154.0, 156.0, 181.0, 185.0, 174.0]",0.16013549268245697,0.0,0.0,-0.009847640991210938,-27.929412841796875
1743581279.6189075,0.0,-0.0,"[174.0, 185.0, 181.0, 156.0, 154.0, 154.0, 156.0, 181.0, 185.0, 174.0]",0.07219173014163971,0.0,0.0,-0.0089569091796875,-27.9305419921875
1743581279.626774,0.0,-0.0,"[174.0, 185.0, 181.0, 156.0, 154.0, 154.0, 156.0, 181.0, 185.0, 174.0]",0.1852148175239563,0.0,0.0,-0.008007049560546875,-27.926963806152344
1743581279.660897,0.0,-0.0,"[174.0, 185.0, 181.0, 156.0, 154.0, 154.0, 156.0, 181.0, 185.0, 174.0]",0.15632963180541992,0.0,0.0,-0.00702667236328125,-27.923995971679688
1743581279.6650498,0.0,-0.0,"[174.0, 185.0, 181.0, 156.0, 154.0, 154.0, 156.0, 181.0, 185.0, 174.0]",0.051327187567949295,0.0,0.0,-0.0060482025146484375,-27.923690795898438
1743581279.6973958,0.0,-0.0,"[174.0, 185.0, 181.0, 156.0, 154.0, 154.0, 156.0, 181.0, 185.0, 174.0]",0.15988554060459137,0.0,0.0,-0.0050907135009765625,-27.926742553710938
1743581279.7013023,0.0,-0.0,"[174.0, 185.0, 181.0, 156.0, 154.0, 154.0, 156.0, 181.0, 185.0, 174.0]",0.05791441351175308,0.0,0.0,-0.004177093505859375,-27.927452087402344
1743581279.7400532,0.0,-0.0,"[174.0, 185.0, 181.0, 156.0, 154.0, 154.0, 156.0, 181.0, 185.0, 174.0]",0.19991730153560638,0.0,0.0,-0.0033206939697265625,-27.923545837402344
1743581279.7449393,0.0,-0.0,"[174.0, 185.0, 181.0, 156.0, 154.0, 154.0, 156.0, 181.0, 185.0, 174.0]",0.12208718806505203,0.0,0.0,-0.0025310516357421875,-27.921234130859375
1743581279.7786365,0.0,-0.0,"[174.0, 185.0, 181.0, 156.0, 154.0, 154.0, 156.0, 181.0, 185.0, 174.0]",0.18460233509540558,0.0,0.0,-0.0018177032470703125,-27.92485809326172
1743581279.7825103,0.0,-0.0,"[174.0, 185.0, 181.0, 156.0, 154.0, 154.0, 156.0, 181.0, 185.0, 174.0]",0.13353228569030762,0.0,0.0,-0.0011844635009765625,-27.927452087402344
1743581279.8147805,0.0,-0.0,"[174.0, 185.0, 181.0, 156.0, 154.0, 154.0, 156.0, 181.0, 185.0, 174.0]",0.11446059495210648,0.0,3.0517578125e-05,-0.00063323974609375,-27.92523193359375
1743581279.8192487,0.0,-0.0,"[174.0, 185.0, 181.0, 156.0, 154.0, 154.0, 156.0, 181.0, 185.0, 174.0]",0.18039268255233765,0.0,3.0517578125e-05,-0.0001621246337890625,-27.928802490234375
1743581279.852208,0.0,-0.0,"[174.0, 185.0, 181.0, 156.0, 154.0, 154.0, 156.0, 181.0, 185.0, 174.0]",0.12967412173748016,0.0,3.0517578125e-05,0.0002288818359375,-27.931365966796875
1743581279.8587606,0.0,-0.0,"[174.0, 185.0, 181.0, 156.0, 154.0, 154.0, 156.0, 181.0, 185.0, 174.0]",0.1237604022026062,0.0,3.0517578125e-05,0.000545501708984375,-27.928909301757812
1743581279.8921044,0.0,-0.0,"[174.0, 185.0, 181.0, 156.0, 154.0, 154.0, 156.0, 181.0, 185.0, 174.0]",0.1935333013534546,0.0,3.0517578125e-05,0.0007915496826171875,-27.932777404785156
1743581279.896721,0.0,-0.0,"[174.0, 185.0, 181.0, 156.0, 154.0, 154.0, 156.0, 181.0, 185.0, 174.0]",0.12180628627538681,0.0,6.103515625e-05,0.000972747802734375,-27.935203552246094
1743581279.9292436,0.0,-0.0,"[174.0, 185.0, 181.0, 156.0, 154.0, 154.0, 156.0, 181.0, 185.0, 174.0]",0.16159525513648987,0.0,6.103515625e-05,0.0010967254638671875,-27.931976318359375
1743581279.9652216,0.0,-0.0,"[174.0, 185.0, 181.0, 156.0, 154.0, 154.0, 156.0, 181.0, 185.0, 174.0]",0.0772232785820961,0.0,6.103515625e-05,0.0011692047119140625,-27.930435180664062
1743581279.9684951,0.0,-0.0,"[174.0, 185.0, 181.0, 156.0, 154.0, 154.0, 156.0, 181.0, 185.0, 174.0]",0.184142604470253,0.0,6.103515625e-05,0.00119781494140625,-27.934112548828125
1743581280.001419,0.0,-0.0,"[174.0, 185.0, 181.0, 156.0, 154.0, 154.0, 156.0, 181.0, 185.0, 174.0]",0.1367751508951187,0.0,6.103515625e-05,0.0011882781982421875,-27.936851501464844
1743581280.0054832,0.0,-0.0,"[174.0, 185.0, 181.0, 156.0, 154.0, 154.0, 156.0, 181.0, 185.0, 174.0]",0.06419677287340164,0.0,6.103515625e-05,0.001148223876953125,-27.935569763183594
1743581280.044826,0.0,-0.0,"[174.0, 185.0, 181.0, 156.0, 154.0, 154.0, 156.0, 181.0, 185.0, 174.0]",0.1747168004512787,0.0,6.103515625e-05,0.0010833740234375,-27.939064025878906
1743581280.0543802,0.0,-0.0,"[174.0, 185.0, 181.0, 156.0, 154.0, 154.0, 156.0, 181.0, 185.0, 174.0]",0.1311485320329666,0.0,9.1552734375e-05,0.00099945068359375,-27.941680908203125
1743581280.089562,0.0,-0.0,"[174.0, 185.0, 181.0, 156.0, 154.0, 154.0, 156.0, 181.0, 185.0, 174.0]",0.11074256151914597,0.0,9.1552734375e-05,0.0009002685546875,-27.939468383789062
1743581280.0955582,0.0,-0.0,"[174.0, 185.0, 181.0, 156.0, 154.0, 154.0, 156.0, 181.0, 185.0, 174.0]",0.1801898330450058,0.0,9.1552734375e-05,0.00079345703125,-27.943069458007812
1743581280.1304326,0.0,-0.0,"[174.0, 185.0, 181.0, 156.0, 154.0, 154.0, 156.0, 181.0, 185.0, 174.0]",0.14138393104076385,0.0,9.1552734375e-05,0.00067901611328125,-27.945899963378906
1743581280.1345587,0.0,-0.0,"[174.0, 185.0, 181.0, 156.0, 154.0, 154.0, 156.0, 181.0, 185.0, 174.0]",0.0333004854619503,0.0,9.1552734375e-05,0.0005645751953125,-27.94524383544922
1743581280.1655393,0.0,-0.0,"[174.0, 185.0, 181.0, 156.0, 154.0, 154.0, 156.0, 181.0, 185.0, 174.0]",0.19635771214962006,0.0,9.1552734375e-05,0.0004520416259765625,-27.94916534423828
1743581280.1704898,0.0,-0.0,"[174.0, 185.0, 181.0, 156.0, 154.0, 154.0, 156.0, 181.0, 185.0, 174.0]",0.12271545082330704,0.0,0.0001220703125,0.00034332275390625,-27.951614379882812
1743581280.2615125,0.0,-0.0,"[174.0, 185.0, 181.0, 156.0, 154.0, 154.0, 156.0, 181.0, 185.0, 174.0]",0.15798240900039673,0.0,0.0001220703125,0.0002384185791015625,-27.948455810546875
1743581280.2657013,0.0,-0.0,"[174.0, 185.0, 181.0, 156.0, 154.0, 154.0, 156.0, 181.0, 185.0, 174.0]",0.0622306689620018,0.0,0.0001220703125,0.0001430511474609375,-27.947219848632812
1743581280.26846,0.0,-0.0,"[174.0, 185.0, 181.0, 156.0, 154.0, 154.0, 156.0, 181.0, 185.0, 174.0]",0.17492303252220154,0.0,0.0001220703125,5.53131103515625e-05,-27.950714111328125
1743581280.2713497,0.0,-0.0,"[174.0, 185.0, 181.0, 156.0, 154.0, 154.0, 156.0, 181.0, 185.0, 174.0]",0.13653863966464996,0.0,0.0001220703125,-2.288818359375e-05,-27.953445434570312
1743581280.2754765,0.0,-0.0,"[174.0, 185.0, 181.0, 156.0, 154.0, 154.0, 156.0, 181.0, 185.0, 174.0]",0.0718504786491394,0.0,0.0001220703125,-9.34600830078125e-05,-27.952011108398438
1743581280.3127215,0.0,-0.0,"[174.0, 185.0, 181.0, 156.0, 154.0, 154.0, 156.0, 181.0, 185.0, 174.0]",0.17569200694561005,0.0,0.0001220703125,-0.000152587890625,-27.955520629882812
1743581280.3164814,0.0,-0.0,"[174.0, 185.0, 181.0, 156.0, 154.0, 154.0, 156.0, 181.0, 185.0, 174.0]",0.13826613128185272,0.0,0.000152587890625,-0.000202178955078125,-27.958290100097656
1743581280.3473773,0.0,-0.0,"[174.0, 185.0, 181.0, 156.0, 154.0, 154.0, 156.0, 181.0, 185.0, 174.0]",0.05745533108711243,0.0,0.000152587890625,-0.000244140625,-27.957138061523438
1743581280.3501823,0.0,-0.0,"[174.0, 185.0, 181.0, 156.0, 154.0, 154.0, 156.0, 181.0, 185.0, 174.0]",0.1775936484336853,0.0,0.000152587890625,-0.000278472900390625,-27.960693359375
1743581280.3812387,0.0,-0.0,"[174.0, 185.0, 181.0, 156.0, 154.0, 154.0, 156.0, 181.0, 185.0, 174.0]",0.14114311337471008,0.0,0.000152587890625,-0.0003032684326171875,-27.963516235351562
1743581280.3846383,0.0,-0.0,"[174.0, 185.0, 181.0, 156.0, 154.0, 154.0, 156.0, 181.0, 185.0, 174.0]",0.034520473331213,0.0,0.000152587890625,-0.0003204345703125,-27.96282196044922
1743581280.418183,0.0,-0.0,"[174.0, 185.0, 181.0, 156.0, 154.0, 154.0, 156.0, 181.0, 185.0, 174.0]",0.20195074379444122,0.0,0.00018310546875,-0.000331878662109375,-27.96686553955078
1743581280.4212658,0.0,-0.0,"[174.0, 185.0, 181.0, 156.0, 154.0, 154.0, 156.0, 181.0, 185.0, 174.0]",0.09901262819766998,0.0,0.00018310546875,-0.000339508056640625,-27.968841552734375
1743581280.458852,0.0,-0.0,"[174.0, 185.0, 181.0, 156.0, 154.0, 154.0, 156.0, 181.0, 185.0, 174.0]",0.20315459370613098,0.0,0.00018310546875,-0.000339508056640625,-27.96478271484375
1743581280.4640844,0.0,-0.0,"[174.0, 185.0, 181.0, 156.0, 154.0, 154.0, 156.0, 181.0, 185.0, 174.0]",0.09250973165035248,0.0,0.000152587890625,-0.0003376007080078125,-27.962928771972656
1743581280.4949875,0.0,-0.0,"[174.0, 185.0, 181.0, 156.0, 154.0, 154.0, 156.0, 181.0, 185.0, 174.0]",0.21048150956630707,0.0,0.00018310546875,-0.000331878662109375,-27.967140197753906
1743581280.497738,0.0,-0.0,"[174.0, 185.0, 181.0, 156.0, 154.0, 154.0, 156.0, 181.0, 185.0, 174.0]",0.054807256907224655,0.0,0.00018310546875,-0.0003223419189453125,-27.968238830566406
1743581280.528487,0.0,-0.0,"[174.0, 185.0, 181.0, 156.0, 154.0, 154.0, 156.0, 181.0, 185.0, 174.0]",0.18342110514640808,0.0,0.00018310546875,-0.00031280517578125,-27.964569091796875
1743581280.559162,0.0,-0.0,"[174.0, 185.0, 181.0, 156.0, 154.0, 154.0, 156.0, 181.0, 185.0, 174.0]",0.14437030255794525,0.0,0.000152587890625,-0.0002994537353515625,-27.961685180664062
1743581280.5622177,0.0,-0.0,"[174.0, 185.0, 181.0, 156.0, 154.0, 154.0, 156.0, 181.0, 185.0, 174.0]",0.010325106792151928,0.0,0.000152587890625,-0.0002880096435546875,-27.961883544921875
1743581280.5935924,0.0,-0.0,"[174.0, 185.0, 181.0, 156.0, 154.0, 154.0, 156.0, 181.0, 185.0, 174.0]",0.08798801898956299,0.0,0.000152587890625,-0.000274658203125,-27.960128784179688
1743581280.5969353,0.0,-0.0,"[174.0, 185.0, 181.0, 156.0, 154.0, 154.0, 156.0, 181.0, 185.0, 174.0]",0.2099931389093399,0.0,0.00018310546875,-0.0002613067626953125,-27.964324951171875
1743581280.6289184,0.0,-0.0,"[174.0, 185.0, 181.0, 156.0, 154.0, 154.0, 156.0, 181.0, 185.0, 174.0]",0.05686913803219795,0.0,0.00018310546875,-0.000247955322265625,-27.96546173095703
1743581280.6625202,0.0,-0.0,"[174.0, 185.0, 181.0, 156.0, 154.0, 154.0, 156.0, 181.0, 185.0, 174.0]",0.17966091632843018,0.0,0.00018310546875,-0.0002346038818359375,-27.961868286132812
1743581280.6660929,0.0,-0.0,"[174.0, 185.0, 181.0, 156.0, 154.0, 154.0, 156.0, 181.0, 185.0, 174.0]",0.14235873520374298,0.0,0.000152587890625,-0.0002231597900390625,-27.959022521972656
1743581280.6965213,0.0,-0.0,"[174.0, 185.0, 181.0, 156.0, 154.0, 154.0, 156.0, 181.0, 185.0, 174.0]",0.024575751274824142,0.0,0.000152587890625,-0.000213623046875,-27.959518432617188
1743581280.7003188,0.0,-0.0,"[174.0, 185.0, 181.0, 156.0, 154.0, 154.0, 156.0, 181.0, 185.0, 174.0]",0.1880163848400116,0.0,0.000152587890625,-0.0002040863037109375,-27.95575714111328
1743581280.7314308,0.0,-0.0,"[174.0, 185.0, 181.0, 156.0, 154.0, 154.0, 156.0, 181.0, 185.0, 174.0]",0.14146263897418976,0.0,0.000152587890625,-0.000194549560546875,-27.952926635742188
1743581280.7355924,0.0,-0.0,"[174.0, 185.0, 181.0, 156.0, 154.0, 154.0, 156.0, 181.0, 185.0, 174.0]",0.031307123601436615,0.0,0.000152587890625,-0.000186920166015625,-27.95355224609375
1743581280.7659814,0.0,-0.0,"[174.0, 185.0, 181.0, 156.0, 154.0, 154.0, 156.0, 181.0, 185.0, 174.0]",0.19213135540485382,0.0,0.000152587890625,-0.0001811981201171875,-27.94970703125
1743581280.7968695,0.0,-0.0,"[174.0, 185.0, 181.0, 156.0, 154.0, 154.0, 156.0, 181.0, 185.0, 174.0]",0.1337447315454483,0.0,0.0001220703125,-0.00017547607421875,-27.947036743164062
1743581280.8001585,0.0,-0.0,"[174.0, 185.0, 181.0, 156.0, 154.0, 154.0, 156.0, 181.0, 185.0, 174.0]",0.09263762831687927,0.0,0.0001220703125,-0.000171661376953125,-27.948883056640625
1743581280.831042,0.0,-0.0,"[174.0, 185.0, 181.0, 156.0, 154.0, 154.0, 156.0, 181.0, 185.0, 174.0]",0.2106226533651352,0.0,0.0001220703125,-0.0001678466796875,-27.944671630859375
1743581280.834104,0.0,-0.0,"[174.0, 185.0, 181.0, 156.0, 154.0, 154.0, 156.0, 181.0, 185.0, 174.0]",0.053793199360370636,0.0,0.0001220703125,-0.000164031982421875,-27.94359588623047
1743581280.866575,0.0,-0.0,"[174.0, 185.0, 181.0, 156.0, 154.0, 154.0, 156.0, 181.0, 185.0, 174.0]",0.18583746254444122,0.0,0.0001220703125,-0.0001621246337890625,-27.947311401367188
1743581280.898406,0.0,-0.0,"[174.0, 185.0, 181.0, 156.0, 154.0, 154.0, 156.0, 181.0, 185.0, 174.0]",0.1430375576019287,0.0,0.0001220703125,-0.0001621246337890625,-27.950180053710938
1743581280.9022377,0.0,-0.0,"[174.0, 185.0, 181.0, 156.0, 154.0, 154.0, 156.0, 181.0, 185.0, 174.0]",0.019723525270819664,0.0,0.0001220703125,-0.0001621246337890625,-27.949783325195312
1743581280.9342391,0.0,-0.0,"[174.0, 185.0, 181.0, 156.0, 154.0, 154.0, 156.0, 181.0, 185.0, 174.0]",0.18836303055286407,0.0,0.0001220703125,-0.0001621246337890625,-27.95355224609375
1743581280.93794,0.0,-0.0,"[174.0, 185.0, 181.0, 156.0, 154.0, 154.0, 156.0, 181.0, 185.0, 174.0]",0.14051376283168793,0.0,0.0001220703125,-0.0001621246337890625,-27.95635986328125
1743581280.967525,0.0,-0.0,"[174.0, 185.0, 181.0, 156.0, 154.0, 154.0, 156.0, 181.0, 185.0, 174.0]",0.038770899176597595,0.0,0.000152587890625,-0.0001621246337890625,-27.955581665039062
1743581280.9707565,0.0,-0.0,"[174.0, 185.0, 181.0, 156.0, 154.0, 154.0, 156.0, 181.0, 185.0, 174.0]",0.20928703248500824,0.0,0.000152587890625,-0.000164031982421875,-27.95977020263672
1743581280.996823,0.0,-0.0,"[174.0, 185.0, 181.0, 156.0, 154.0, 154.0, 156.0, 181.0, 185.0, 174.0]",0.0603407584130764,0.0,0.000152587890625,-0.000164031982421875,-27.960975646972656
1743581281.021111,0.0,-0.0,"[174.0, 185.0, 181.0, 156.0, 154.0, 154.0, 156.0, 181.0, 185.0, 174.0]",0.176280215382576,0.0,0.000152587890625,-0.0001659393310546875,-27.95745086669922
1743581281.0487633,0.0,-0.0,"[174.0, 185.0, 181.0, 156.0, 154.0, 154.0, 156.0, 181.0, 185.0, 174.0]",0.13787387311458588,0.0,0.000152587890625,-0.0001678466796875,-27.954696655273438
1743581281.052307,0.0,-0.0,"[174.0, 185.0, 181.0, 156.0, 154.0, 154.0, 156.0, 181.0, 185.0, 174.0]",0.059169523417949677,0.0,0.0001220703125,-0.0001697540283203125,-27.95587158203125
1743581281.0775614,0.0,-0.0,"[174.0, 185.0, 181.0, 156.0, 154.0, 154.0, 156.0, 181.0, 185.0, 174.0]",0.17614339292049408,0.0,0.0001220703125,-0.000171661376953125,-27.952354431152344
1743581281.1032398,0.0,-0.0,"[174.0, 185.0, 181.0, 156.0, 154.0, 154.0, 156.0, 181.0, 185.0, 174.0]",0.13753186166286469,0.0,0.0001220703125,-0.000171661376953125,-27.949600219726562
1743581281.129471,0.0,-0.0,"[174.0, 185.0, 181.0, 156.0, 154.0, 154.0, 156.0, 181.0, 185.0, 174.0]",0.06201857328414917,0.0,0.0001220703125,-0.0001735687255859375,-27.950843811035156
1743581281.132781,0.0,-0.0,"[174.0, 185.0, 181.0, 156.0, 154.0, 154.0, 156.0, 181.0, 185.0, 174.0]",0.17492681741714478,0.0,0.0001220703125,-0.00017547607421875,-27.947341918945312
1743581281.1573167,0.0,-0.0,"[174.0, 185.0, 181.0, 156.0, 154.0, 154.0, 156.0, 181.0, 185.0, 174.0]",0.13515165448188782,0.0,9.1552734375e-05,-0.00017547607421875,-27.94464111328125
1743581281.1825075,0.0,-0.0,"[174.0, 185.0, 181.0, 156.0, 154.0, 154.0, 156.0, 181.0, 185.0, 174.0]",0.08116552978754044,0.0,9.1552734375e-05,-0.0001773834228515625,-27.946266174316406
1743581281.2069602,0.0,-0.0,"[174.0, 185.0, 181.0, 156.0, 154.0, 154.0, 156.0, 181.0, 185.0, 174.0]",0.19521167874336243,0.0,9.1552734375e-05,-0.0001773834228515625,-27.942359924316406
1743581281.2099087,0.0,-0.0,"[174.0, 185.0, 181.0, 156.0, 154.0, 154.0, 156.0, 181.0, 185.0, 174.0]",0.1258745640516281,0.0,9.1552734375e-05,-0.000179290771484375,-27.939842224121094
1743581281.236813,0.0,-0.0,"[174.0, 185.0, 181.0, 156.0, 154.0, 154.0, 156.0, 181.0, 185.0, 174.0]",0.14341174066066742,0.0,9.1552734375e-05,-0.000179290771484375,-27.942710876464844
1743581281.2645016,0.0,-0.0,"[174.0, 185.0, 181.0, 156.0, 154.0, 154.0, 156.0, 181.0, 185.0, 174.0]",0.007905163802206516,0.0,9.1552734375e-05,-0.0001811981201171875,-27.942550659179688
1743581281.267305,0.0,-0.0,"[174.0, 185.0, 181.0, 156.0, 154.0, 154.0, 156.0, 181.0, 185.0, 174.0]",0.05470709130167961,0.0,9.1552734375e-05,-0.0001811981201171875,-27.943649291992188
1743581281.2914443,0.0,-0.0,"[174.0, 185.0, 181.0, 156.0, 154.0, 154.0, 156.0, 181.0, 185.0, 174.0]",0.17918594181537628,0.0,9.1552734375e-05,-0.0001811981201171875,-27.9400634765625
1743581281.3177161,0.0,-0.0,"[174.0, 185.0, 181.0, 156.0, 154.0, 154.0, 156.0, 181.0, 185.0, 174.0]",0.14194144308567047,0.0,6.103515625e-05,-0.0001811981201171875,-27.937225341796875
1743581281.3422158,0.0,-0.0,"[174.0, 185.0, 181.0, 156.0, 154.0, 154.0, 156.0, 181.0, 185.0, 174.0]",0.02775217778980732,0.0,6.103515625e-05,-0.0001811981201171875,-27.937782287597656
1743581281.367967,0.0,-0.0,"[174.0, 185.0, 181.0, 156.0, 154.0, 154.0, 156.0, 181.0, 185.0, 174.0]",0.18445590138435364,0.0,6.103515625e-05,-0.0001811981201171875,-27.93408966064453
1743581281.370807,0.0,-0.0,"[174.0, 185.0, 181.0, 156.0, 154.0, 154.0, 156.0, 181.0, 185.0, 174.0]",0.14395101368427277,0.0,6.103515625e-05,-0.0001811981201171875,-27.93121337890625
1743581281.394552,0.0,-0.0,"[174.0, 185.0, 181.0, 156.0, 154.0, 154.0, 156.0, 181.0, 185.0, 174.0]",0.013245252892374992,0.0,6.103515625e-05,-0.0001811981201171875,-27.931480407714844
1743581281.419693,0.0,-0.0,"[174.0, 185.0, 181.0, 156.0, 154.0, 154.0, 156.0, 181.0, 185.0, 174.0]",0.13011495769023895,0.0,6.103515625e-05,-0.0001811981201171875,-27.928878784179688
1743581281.4472558,0.0,-0.0,"[174.0, 185.0, 181.0, 156.0, 154.0, 154.0, 156.0, 181.0, 185.0, 174.0]",0.14088380336761475,0.0,6.103515625e-05,-0.0001811981201171875,-27.93169403076172
1743581281.4504557,0.0,-0.0,"[174.0, 185.0, 181.0, 156.0, 154.0, 154.0, 156.0, 181.0, 185.0, 174.0]",0.024702437222003937,0.0,6.103515625e-05,-0.0001811981201171875,-27.931198120117188
1743581281.4767494,0.0,-0.0,"[174.0, 185.0, 181.0, 156.0, 154.0, 154.0, 156.0, 181.0, 185.0, 174.0]",0.1831579953432083,0.0,6.103515625e-05,-0.0001811981201171875,-27.934860229492188
1743581281.5044043,0.0,-0.0,"[174.0, 185.0, 181.0, 156.0, 154.0, 154.0, 156.0, 181.0, 185.0, 174.0]",0.14374779164791107,0.0,6.103515625e-05,-0.0001811981201171875,-27.93773651123047
1743581281.5077343,0.0,-0.0,"[174.0, 185.0, 181.0, 156.0, 154.0, 154.0, 156.0, 181.0, 185.0, 174.0]",0.014733509160578251,0.0,6.103515625e-05,-0.0001811981201171875,-27.93744659423828
1743581281.5320938,0.0,-0.0,"[174.0, 185.0, 181.0, 156.0, 154.0, 154.0, 156.0, 181.0, 185.0, 174.0]",0.15011316537857056,0.0,6.103515625e-05,-0.0001811981201171875,-27.940444946289062
1743581281.5575175,0.0,-0.0,"[174.0, 185.0, 181.0, 156.0, 154.0, 154.0, 156.0, 181.0, 185.0, 174.0]",0.017039312049746513,0.0,6.103515625e-05,-0.0001811981201171875,-27.94078826904297
1743581281.5825272,0.0,-0.0,"[174.0, 185.0, 181.0, 156.0, 154.0, 154.0, 156.0, 181.0, 185.0, 174.0]",0.1960044503211975,0.0,6.103515625e-05,-0.0001811981201171875,-27.936866760253906
1743581281.6064708,0.0,-0.0,"[174.0, 185.0, 181.0, 156.0, 154.0, 154.0, 156.0, 181.0, 185.0, 174.0]",0.1244548112154007,0.0,6.103515625e-05,-0.0001811981201171875,-27.93437957763672
1743581281.6096241,0.0,-0.0,"[174.0, 185.0, 181.0, 156.0, 154.0, 154.0, 156.0, 181.0, 185.0, 174.0]",0.15166708827018738,0.0,6.103515625e-05,-0.000179290771484375,-27.937408447265625
1743581281.636434,0.0,-0.0,"[174.0, 185.0, 181.0, 156.0, 154.0, 154.0, 156.0, 181.0, 185.0, 174.0]",0.024429697543382645,0.0,6.103515625e-05,-0.000179290771484375,-27.937896728515625
1743581281.6640005,0.0,-0.0,"[174.0, 185.0, 181.0, 156.0, 154.0, 154.0, 156.0, 181.0, 185.0, 174.0]",0.18264131247997284,0.0,6.103515625e-05,-0.000179290771484375,-27.934249877929688
1743581281.6889536,0.0,-0.0,"[174.0, 185.0, 181.0, 156.0, 154.0, 154.0, 156.0, 181.0, 185.0, 174.0]",0.14400862157344818,0.0,6.103515625e-05,-0.000179290771484375,-27.931365966796875
1743581281.6925273,0.0,-0.0,"[174.0, 185.0, 181.0, 156.0, 154.0, 154.0, 156.0, 181.0, 185.0, 174.0]",0.012792165391147137,0.0,3.0517578125e-05,-0.000179290771484375,-27.931625366210938
1743581281.7164812,0.0,-0.0,"[174.0, 185.0, 181.0, 156.0, 154.0, 154.0, 156.0, 181.0, 185.0, 174.0]",0.12370611727237701,0.0,6.103515625e-05,-0.000179290771484375,-27.929153442382812
1743581281.741027,0.0,-0.0,"[174.0, 185.0, 181.0, 156.0, 154.0, 154.0, 156.0, 181.0, 185.0, 174.0]",0.20664112269878387,0.0,6.103515625e-05,-0.000179290771484375,-27.93328094482422
1743581281.766161,0.0,-0.0,"[174.0, 185.0, 181.0, 156.0, 154.0, 154.0, 156.0, 181.0, 185.0, 174.0]",0.07386399805545807,0.0,6.103515625e-05,-0.000179290771484375,-27.93476104736328
1743581281.7699888,0.0,-0.0,"[174.0, 185.0, 181.0, 156.0, 154.0, 154.0, 156.0, 181.0, 185.0, 174.0]",0.17904315888881683,0.0,6.103515625e-05,-0.000179290771484375,-27.931182861328125
1743581281.7947464,0.0,-0.0,"[174.0, 185.0, 181.0, 156.0, 154.0, 154.0, 156.0, 181.0, 185.0, 174.0]",0.1415465772151947,0.0,6.103515625e-05,-0.000179290771484375,-27.92835235595703
1743581281.8189695,0.0,-0.0,"[174.0, 185.0, 181.0, 156.0, 154.0, 154.0, 156.0, 181.0, 185.0, 174.0]",0.030746741220355034,0.0,3.0517578125e-05,-0.000179290771484375,-27.92896270751953
1743581281.8455884,0.0,-0.0,"[174.0, 185.0, 181.0, 156.0, 154.0, 154.0, 156.0, 181.0, 185.0, 174.0]",0.19082938134670258,0.0,3.0517578125e-05,-0.000179290771484375,-27.925148010253906
1743581281.849495,0.0,-0.0,"[174.0, 185.0, 181.0, 156.0, 154.0, 154.0, 156.0, 181.0, 185.0, 174.0]",0.13662977516651154,0.0,3.0517578125e-05,-0.000179290771484375,-27.92241668701172
1743581281.8745933,0.0,-0.0,"[174.0, 185.0, 181.0, 156.0, 154.0, 154.0, 156.0, 181.0, 185.0, 174.0]",0.06969776004552841,0.0,3.0517578125e-05,-0.000179290771484375,-27.923812866210938
1743581281.8998606,0.0,-0.0,"[174.0, 185.0, 180.0, 156.0, 154.0, 154.0, 156.0, 181.0, 185.0, 174.0]",0.17465703189373016,0.0,3.0517578125e-05,-0.000179290771484375,-27.920318603515625
1743581281.9263859,0.0,-0.0,"[174.0, 185.0, 180.0, 156.0, 154.0, 154.0, 156.0, 181.0, 185.0, 174.0]",0.13456955552101135,0.0,3.0517578125e-05,-0.000179290771484375,-27.917625427246094
1743581281.9296794,0.0,-0.0,"[174.0, 185.0, 180.0, 156.0, 154.0, 154.0, 156.0, 181.0, 185.0, 174.0]",0.08586595952510834,0.0,0.0,-0.000179290771484375,-27.919342041015625
1743581281.9540162,0.0,-0.0,"[174.0, 185.0, 180.0, 156.0, 154.0, 154.0, 156.0, 181.0, 185.0, 174.0]",0.20599845051765442,0.0,0.0,-0.000179290771484375,-27.91522216796875
1743581281.9776127,0.0,-0.0,"[174.0, 185.0, 180.0, 156.0, 154.0, 154.0, 156.0, 181.0, 185.0, 174.0]",0.07721193134784698,0.0,0.0,-0.000179290771484375,-27.913681030273438
1743581282.0006936,0.0,-0.0,"[174.0, 185.0, 180.0, 156.0, 154.0, 154.0, 156.0, 181.0, 185.0, 174.0]",0.18560084700584412,0.0,0.0,-0.000179290771484375,-27.917388916015625
1743581282.0253274,0.0,-0.0,"[174.0, 185.0, 180.0, 156.0, 154.0, 154.0, 156.0, 181.0, 185.0, 174.0]",0.1434808373451233,0.0,0.0,-0.000179290771484375,-27.920257568359375
1743581282.028636,0.0,-0.0,"[174.0, 185.0, 180.0, 156.0, 154.0, 154.0, 156.0, 181.0, 185.0, 174.0]",0.016560178250074387,0.0,0.0,-0.000179290771484375,-27.91992950439453
1743581282.0569434,0.0,-0.0,"[174.0, 185.0, 180.0, 156.0, 154.0, 154.0, 156.0, 181.0, 185.0, 174.0]",0.17030370235443115,0.0,0.0,-0.000179290771484375,-27.92333221435547
1743581282.0843582,0.0,-0.0,"[174.0, 185.0, 180.0, 156.0, 154.0, 154.0, 156.0, 181.0, 185.0, 174.0]",0.12422386556863785,0.0,0.0,-0.000179290771484375,-27.925819396972656
1743581282.0884316,0.0,-0.0,"[174.0, 185.0, 180.0, 156.0, 154.0, 154.0, 156.0, 181.0, 185.0, 174.0]",0.16053979098796844,0.0,3.0517578125e-05,-0.000179290771484375,-27.922607421875
1743581282.1140168,0.0,-0.0,"[174.0, 185.0, 180.0, 156.0, 154.0, 154.0, 156.0, 181.0, 185.0, 174.0]",0.0767679214477539,0.0,0.0,-0.000179290771484375,-27.92107391357422
1743581282.137954,0.0,-0.0,"[174.0, 185.0, 180.0, 156.0, 154.0, 154.0, 156.0, 181.0, 185.0, 174.0]",0.18297992646694183,0.0,3.0517578125e-05,-0.000179290771484375,-27.92473602294922
1743581282.1625497,0.0,-0.0,"[174.0, 185.0, 181.0, 156.0, 154.0, 154.0, 156.0, 181.0, 185.0, 174.0]",0.14384323358535767,0.0,3.0517578125e-05,-0.000179290771484375,-27.9276123046875
1743581282.1655996,0.0,-0.0,"[174.0, 185.0, 181.0, 156.0, 154.0, 154.0, 156.0, 181.0, 185.0, 174.0]",0.014026904478669167,0.0,3.0517578125e-05,-0.000179290771484375,-27.927330017089844
1743581282.1886423,0.0,-0.0,"[174.0, 185.0, 181.0, 156.0, 154.0, 154.0, 156.0, 181.0, 185.0, 174.0]",0.14092013239860535,0.0,3.0517578125e-05,-0.000179290771484375,-27.930145263671875
1743581282.2136817,0.0,-0.0,"[174.0, 185.0, 181.0, 156.0, 154.0, 154.0, 156.0, 181.0, 185.0, 174.0]",0.020095907151699066,0.0,3.0517578125e-05,-0.000179290771484375,-27.92974853515625
1743581282.2428615,0.0,-0.0,"[174.0, 185.0, 181.0, 156.0, 154.0, 154.0, 156.0, 181.0, 185.0, 174.0]",0.2090282142162323,0.0,3.0517578125e-05,-0.000179290771484375,-27.933929443359375
1743581282.2721462,0.0,-0.0,"[174.0, 185.0, 181.0, 156.0, 154.0, 154.0, 156.0, 181.0, 185.0, 174.0]",0.06167265400290489,0.0,3.0517578125e-05,-0.000179290771484375,-27.935165405273438
1743581282.2762403,0.0,-0.0,"[174.0, 185.0, 181.0, 156.0, 154.0, 154.0, 156.0, 181.0, 185.0, 174.0]",0.17556063830852509,0.0,3.0517578125e-05,-0.000179290771484375,-27.93164825439453
1743581282.3003142,0.0,-0.0,"[174.0, 185.0, 181.0, 156.0, 154.0, 154.0, 156.0, 181.0, 185.0, 174.0]",0.1365300714969635,0.0,3.0517578125e-05,-0.000179290771484375,-27.928916931152344
1743581282.3256652,0.0,-0.0,"[174.0, 185.0, 181.0, 156.0, 154.0, 154.0, 156.0, 181.0, 185.0, 174.0]",0.06997218728065491,0.0,0.0,-0.000179290771484375,-27.930320739746094
1743581282.3290243,0.0,-0.0,"[174.0, 185.0, 181.0, 156.0, 154.0, 154.0, 156.0, 181.0, 185.0, 174.0]",0.17474128305912018,0.0,0.0,-0.000179290771484375,-27.92682647705078
1743581282.3538876,0.0,-0.0,"[174.0, 185.0, 181.0, 156.0, 154.0, 154.0, 156.0, 181.0, 185.0, 174.0]",0.13476093113422394,0.0,0.0,-0.000179290771484375,-27.92413330078125
1743581282.37813,0.0,-0.0,"[174.0, 185.0, 181.0, 156.0, 154.0, 154.0, 156.0, 181.0, 185.0, 174.0]",0.08431100100278854,0.0,0.0,-0.000179290771484375,-27.925811767578125
1743581282.4128273,0.0,-0.0,"[174.0, 185.0, 227.0, 295.0, 259.0, 160.0, 295.0, 190.0, 185.0, 174.0]",0.0,0.0,0.0,0.10000038146972656,-27.93000030517578
1743581282.4162042,0.0,-0.0,"[174.0, 185.0, 227.0, 295.0, 259.0, 160.0, 295.0, 190.0, 185.0, 174.0]",0.8976172208786011,0.0,0.0,0.08204841613769531,-27.93000030517578
1743581282.4427376,0.0,-0.0,"[174.0, 185.0, 179.0, 155.0, 154.0, 154.0, 156.0, 180.0, 185.0, 174.0]",0.8460670113563538,0.0,0.0,0.06512641906738281,-27.930023193359375
1743581282.4700515,0.0,-0.0,"[174.0, 185.0, 179.0, 155.0, 154.0, 154.0, 156.0, 181.0, 185.0, 174.0]",0.7835216522216797,0.0,0.0,0.04947090148925781,-27.929367065429688
1743581282.4742131,0.0,-0.0,"[174.0, 185.0, 179.0, 155.0, 154.0, 154.0, 156.0, 181.0, 185.0, 174.0]",0.7809424996376038,0.0,0.0,0.03524208068847656,-27.935806274414062
1743581282.500538,0.0,-0.0,"[174.0, 185.0, 180.0, 156.0, 154.0, 154.0, 156.0, 181.0, 185.0, 174.0]",0.7133771181106567,0.0,0.0,0.022546768188476562,-27.929298400878906
1743581282.5290804,0.0,-0.0,"[174.0, 185.0, 181.0, 156.0, 154.0, 154.0, 156.0, 181.0, 185.0, 174.0]",0.6484733819961548,0.0,0.0,0.011430740356445312,-27.93598175048828
1743581282.5319455,0.0,-0.0,"[174.0, 185.0, 181.0, 156.0, 154.0, 154.0, 156.0, 181.0, 185.0, 174.0]",0.5800455212593079,0.0,0.0,0.001895904541015625,-27.929367065429688
1743581282.556489,0.0,-0.0,"[174.0, 185.0, 181.0, 156.0, 154.0, 154.0, 156.0, 181.0, 185.0, 174.0]",0.5297936201095581,0.0,0.0,-0.006092071533203125,-27.93633270263672
1743581282.5810137,0.0,-0.0,"[174.0, 185.0, 181.0, 156.0, 154.0, 154.0, 158.0, 181.0, 185.0, 174.0]",0.3896848261356354,0.0,0.0,-0.012601852416992188,-27.932044982910156
1743581282.6045809,0.0,-0.0,"[174.0, 185.0, 181.0, 156.0, 154.0, 155.0, 158.0, 183.0, 185.0, 174.0]",0.367277055978775,0.0,-3.0517578125e-05,-0.01772308349609375,-27.926780700683594
1743581282.6076033,0.0,-0.0,"[174.0, 185.0, 181.0, 156.0, 154.0, 155.0, 158.0, 183.0, 185.0, 174.0]",0.23424947261810303,0.0,-3.0517578125e-05,-0.021566390991210938,-27.929458618164062
1743581282.6346264,0.0,-0.0,"[174.0, 185.0, 181.0, 156.0, 154.0, 154.0, 158.0, 183.0, 185.0, 174.0]",0.3063356280326843,0.0,-3.0517578125e-05,-0.02425384521484375,-27.9239501953125
1743581282.6599185,0.0,-0.0,"[174.0, 185.0, 181.0, 156.0, 154.0, 154.0, 158.0, 183.0, 185.0, 174.0]",0.2146921008825302,0.0,-3.0517578125e-05,-0.025915145874023438,-27.92790985107422
1743581282.6850939,0.0,-0.0,"[174.0, 185.0, 181.0, 156.0, 154.0, 154.0, 158.0, 183.0, 185.0, 174.0]",0.24820373952388763,0.0,-3.0517578125e-05,-0.02667999267578125,-27.932815551757812
1743581282.6882265,0.0,-0.0,"[174.0, 185.0, 181.0, 156.0, 154.0, 154.0, 158.0, 183.0, 185.0, 174.0]",0.19563956558704376,0.0,0.0,-0.026681900024414062,-27.928909301757812
1743581282.7118824,0.0,-0.0,"[174.0, 185.0, 181.0, 156.0, 154.0, 154.0, 158.0, 183.0, 185.0, 174.0]",0.21671457588672638,0.0,0.0,-0.0260467529296875,-27.92462158203125
1743581282.7368097,0.0,-0.0,"[174.0, 185.0, 181.0, 156.0, 154.0, 154.0, 158.0, 183.0, 185.0, 174.0]",0.10698216408491135,0.0,-3.0517578125e-05,-0.024898529052734375,-27.922813415527344
1743581282.7603683,0.0,-0.0,"[174.0, 185.0, 181.0, 156.0, 154.0, 154.0, 156.0, 181.0, 185.0, 174.0]",0.2494376301765442,0.0,-3.0517578125e-05,-0.023349761962890625,-27.92755126953125
1743581282.7844596,0.0,-0.0,"[174.0, 185.0, 181.0, 156.0, 154.0, 154.0, 156.0, 181.0, 185.0, 174.0]",0.122472383081913,0.0,0.0,-0.021505355834960938,-27.925941467285156
1743581282.7874215,0.0,-0.0,"[174.0, 185.0, 181.0, 156.0, 154.0, 154.0, 156.0, 181.0, 185.0, 174.0]",0.22098350524902344,0.0,0.0,-0.019458770751953125,-27.929855346679688
1743581282.8114593,0.0,-0.0,"[174.0, 185.0, 181.0, 156.0, 154.0, 154.0, 156.0, 181.0, 185.0, 174.0]",0.1838350147008896,0.0,0.0,-0.017292022705078125,-27.932830810546875
1743581282.8383565,0.0,-0.0,"[174.0, 185.0, 181.0, 156.0, 154.0, 154.0, 156.0, 181.0, 185.0, 174.0]",0.11176995933055878,0.0,0.0,-0.015077590942382812,-27.933135986328125
1743581282.865015,0.0,-0.0,"[174.0, 185.0, 181.0, 156.0, 154.0, 154.0, 156.0, 181.0, 185.0, 174.0]",0.19062653183937073,0.0,0.0,-0.012876510620117188,-27.930023193359375
1743581282.8678756,0.0,-0.0,"[174.0, 185.0, 181.0, 156.0, 154.0, 154.0, 156.0, 181.0, 185.0, 174.0]",0.11688251048326492,0.0,0.0,-0.010740280151367188,-27.9290771484375
1743581282.893544,0.0,-0.0,"[174.0, 185.0, 181.0, 156.0, 154.0, 154.0, 156.0, 181.0, 185.0, 174.0]",0.2209709882736206,0.0,0.0,-0.008707046508789062,-27.932998657226562
1743581282.9202368,0.0,-0.0,"[174.0, 185.0, 181.0, 156.0, 154.0, 154.0, 156.0, 181.0, 185.0, 174.0]",0.13914841413497925,0.0,0.0,-0.0068111419677734375,-27.935035705566406
1743581282.9451253,0.0,-0.0,"[174.0, 185.0, 181.0, 156.0, 154.0, 154.0, 156.0, 181.0, 185.0, 174.0]",0.2061031460762024,0.0,0.0,-0.00507354736328125,-27.931297302246094
1743581282.9478521,0.0,-0.0,"[174.0, 185.0, 181.0, 156.0, 154.0, 154.0, 156.0, 181.0, 185.0, 174.0]",0.13830217719078064,0.0,0.0,-0.0035076141357421875,-27.92901611328125
1743581282.970849,0.0,-0.0,"[174.0, 185.0, 181.0, 156.0, 154.0, 154.0, 156.0, 181.0, 185.0, 174.0]",0.18861226737499237,0.0,0.0,-0.002124786376953125,-27.932525634765625
1743581282.9951031,0.0,-0.0,"[174.0, 185.0, 181.0, 156.0, 154.0, 154.0, 156.0, 181.0, 185.0, 174.0]",0.12290238589048386,0.0,0.0,-0.000926971435546875,-27.934677124023438
1743581283.0023122,0.0,-0.0,"[174.0, 185.0, 180.0, 156.0, 154.0, 154.0, 156.0, 181.0, 185.0, 174.0]",0.19059254229068756,0.0,0.0,8.7738037109375e-05,-27.930999755859375
1743581283.0083625,0.0,-0.0,"[174.0, 185.0, 180.0, 156.0, 154.0, 154.0, 156.0, 181.0, 185.0, 174.0]",0.12208887189626694,0.0,0.0,0.000926971435546875,-27.9287109375
1743581283.0260084,0.0,-0.0,"[174.0, 185.0, 180.0, 156.0, 154.0, 154.0, 156.0, 181.0, 185.0, 174.0]",0.18003420531749725,0.0,0.0,0.0016002655029296875,-27.93224334716797
1743581283.0471842,0.0,-0.0,"[174.0, 185.0, 181.0, 156.0, 154.0, 154.0, 156.0, 181.0, 185.0, 174.0]",0.11636965721845627,0.0,0.0,0.002117156982421875,-27.93451690673828
1743581283.0665781,0.0,-0.0,"[174.0, 185.0, 180.0, 156.0, 154.0, 154.0, 156.0, 181.0, 185.0, 174.0]",0.18287703394889832,0.0,0.0,0.0024929046630859375,-27.930877685546875
1743581283.0844448,0.0,-0.0,"[174.0, 185.0, 180.0, 156.0, 154.0, 154.0, 156.0, 181.0, 185.0, 174.0]",0.12236333638429642,0.0,-3.0517578125e-05,0.002742767333984375,-27.928443908691406
1743581283.1060684,0.0,-0.0,"[174.0, 185.0, 180.0, 156.0, 154.0, 154.0, 156.0, 181.0, 185.0, 174.0]",0.15604567527770996,0.0,-3.0517578125e-05,0.002880096435546875,-27.931564331054688
1743581283.125278,0.0,-0.0,"[174.0, 185.0, 181.0, 156.0, 154.0, 154.0, 156.0, 181.0, 185.0, 174.0]",0.04339144751429558,0.0,-3.0517578125e-05,0.00292205810546875,-27.93242645263672
1743581283.1448255,0.0,-0.0,"[174.0, 185.0, 180.0, 156.0, 154.0, 154.0, 156.0, 181.0, 185.0, 174.0]",0.20315700769424438,0.0,-3.0517578125e-05,0.0028820037841796875,-27.928367614746094
1743581283.1652677,0.0,-0.0,"[174.0, 185.0, 180.0, 156.0, 154.0, 154.0, 156.0, 181.0, 185.0, 174.0]",0.08350775390863419,0.0,-3.0517578125e-05,0.002777099609375,-27.92669677734375
1743581283.1850977,0.0,-0.0,"[174.0, 185.0, 181.0, 156.0, 154.0, 154.0, 156.0, 181.0, 185.0, 174.0]",0.19676801562309265,0.0,-3.0517578125e-05,0.00261688232421875,-27.930633544921875
1743581283.2080314,0.0,-0.0,"[174.0, 185.0, 181.0, 156.0, 154.0, 154.0, 156.0, 181.0, 185.0, 174.0]",0.11540332436561584,0.0,-3.0517578125e-05,0.00241851806640625,-27.93292999267578
1743581283.2270682,0.0,-0.0,"[174.0, 185.0, 181.0, 156.0, 154.0, 154.0, 156.0, 181.0, 185.0, 174.0]",0.18801169097423553,0.0,-3.0517578125e-05,0.00218963623046875,-27.929176330566406
1743581283.2464914,0.0,0.16336472880805455,"[174.0, 185.0, 181.0, 156.0, 154.0, 154.0, 156.0, 181.0, 185.0, 174.0]",0.13834096491336823,0.0,-3.0517578125e-05,0.0019435882568359375,-27.926422119140625
1743581283.2656927,0.0,0.24725096274300562,"[174.0, 185.0, 180.0, 156.0, 154.0, 154.0, 156.0, 181.0, 185.0, 174.0]",0.07679237425327301,0.0,-0.000244140625,0.0016880035400390625,-27.9249267578125
1743581283.2851923,0.0,0.5048485129680323,"[174.0, 185.0, 180.0, 156.0, 154.0, 154.0, 156.0, 181.0, 185.0, 174.0]",0.1697782278060913,0.0,-0.00164794921875,0.001430511474609375,-27.928009033203125
1743581283.3047616,0.0,0.7037999350438454,"[174.0, 185.0, 181.0, 156.0, 154.0, 154.0, 156.0, 181.0, 185.0, 174.0]",0.1260397732257843,0.0,-0.00396728515625,0.0011768341064453125,-27.92707061767578
1743581283.3259363,0.0,0.8953277965944416,"[174.0, 185.0, 180.0, 156.0, 154.0, 154.0, 156.0, 181.0, 185.0, 174.0]",0.22354821860790253,0.0,-0.0084228515625,0.000934600830078125,-27.926834106445312
1743581283.3457978,0.0,1.0252401057857374,"[174.0, 185.0, 181.0, 156.0, 154.0, 154.0, 156.0, 181.0, 185.0, 174.0]",0.31925472617149353,0.0,-0.014801025390625,0.000705718994140625,-27.92681884765625
1743581283.3655055,0.0,1.0252401057857374,"[174.0, 185.0, 180.0, 156.0, 154.0, 154.0, 156.0, 181.0, 185.0, 174.0]",0.4647220969200134,0.0,-0.02410888671875,0.0004940032958984375,-27.927001953125
1743581283.3849652,0.0,1.0270959959170418,"[174.0, 185.0, 180.0, 156.0, 154.0, 154.0, 156.0, 181.0, 185.0, 174.0]",0.5618463158607483,0.0,-0.03533935546875,0.000301361083984375,-27.9268798828125
1743581283.407334,0.0,1.0304365981533894,"[174.0, 185.0, 180.0, 156.0, 154.0, 154.0, 156.0, 181.0, 185.0, 174.0]",0.7224910855293274,0.0,-0.049774169921875,0.00012969970703125,-27.926864624023438
1743581283.4254138,0.0,1.032478077297824,"[174.0, 185.0, 180.0, 156.0, 154.0, 154.0, 156.0, 181.0, 185.0, 174.0]",0.8543243408203125,0.0,-0.066864013671875,-2.09808349609375e-05,-27.926841735839844
1743581283.44657,0.0,1.032478077297824,"[174.0, 185.0, 180.0, 156.0, 154.0, 154.0, 156.0, 181.0, 185.0, 174.0]",0.9828242063522339,0.0,-0.086517333984375,-0.0001506805419921875,-27.92681121826172
1743581283.4659023,0.0,1.032478077297824,"[174.0, 185.0, 180.0, 156.0, 154.0, 154.0, 156.0, 181.0, 185.0, 174.0]",1.1284141540527344,0.0,-0.109100341796875,-0.0002593994140625,-27.926773071289062
1743581283.4849162,0.0,1.0247761332529115,"[174.0, 185.0, 180.0, 156.0, 154.0, 154.0, 156.0, 181.0, 185.0, 174.0]",1.2471953630447388,0.0,-0.134033203125,-0.000347137451171875,-27.926742553710938
1743581283.5063982,0.0,1.0247761332529115,"[174.0, 185.0, 180.0, 156.0, 154.0, 154.0, 156.0, 181.0, 185.0, 174.0]",1.3615220785140991,0.0,-0.161285400390625,-0.0004177093505859375,-27.926712036132812
1743581283.525716,0.0,1.0247761332529115,"[174.0, 185.0, 180.0, 156.0, 154.0, 154.0, 156.0, 181.0, 185.0, 174.0]",1.516654372215271,0.0,-0.19158935546875,-0.000469207763671875,-27.926673889160156
1743581283.5460942,0.0,1.0247761332529115,"[174.0, 185.0, 180.0, 156.0, 154.0, 154.0, 156.0, 181.0, 185.0, 174.0]",1.648701786994934,0.0,-0.224578857421875,-0.0005054473876953125,-27.9266357421875
1743581283.565945,0.0,1.0247761332529115,"[174.0, 185.0, 180.0, 156.0, 154.0, 154.0, 156.0, 181.0, 185.0, 174.0]",1.8148040771484375,0.0,-0.2608642578125,-0.0005283355712890625,-27.926589965820312
1743581283.5857778,0.0,1.0247761332529115,"[174.0, 185.0, 180.0, 156.0, 154.0, 154.0, 156.0, 181.0, 185.0, 174.0]",1.9240520000457764,0.0,-0.299346923828125,-0.0005397796630859375,-27.926536560058594
1743581283.6080725,0.0,1.0247761332529115,"[174.0, 185.0, 180.0, 156.0, 154.0, 154.0, 156.0, 181.0, 185.0, 174.0]",2.0402393341064453,0.0,-0.34014892578125,-0.0005397796630859375,-27.926498413085938
1743581283.6270366,0.0,1.0247761332529115,"[174.0, 185.0, 180.0, 156.0, 154.0, 154.0, 156.0, 181.0, 185.0, 174.0]",2.1772875785827637,0.0,-0.383697509765625,-0.0005321502685546875,-27.92645263671875
1743581283.6466691,0.0,1.0247761332529115,"[174.0, 185.0, 180.0, 156.0, 154.0, 154.0, 156.0, 181.0, 185.0, 174.0]",2.30869460105896,0.0,-0.42987060546875,-0.0005168914794921875,-27.92639923095703
1743581283.6647952,0.0,1.0247761332529115,"[174.0, 185.0, 180.0, 156.0, 154.0, 154.0, 156.0, 181.0, 185.0, 174.0]",2.446692705154419,0.0,-0.47882080078125,-0.00049591064453125,-27.926345825195312
1743581283.686312,0.0,1.0247761332529115,"[174.0, 185.0, 180.0, 156.0, 154.0, 154.0, 156.0, 181.0, 185.0, 174.0]",2.575108766555786,0.0,-0.530303955078125,-0.0004711151123046875,-27.926300048828125
1743581283.7063448,0.0,1.0228738458683246,"[174.0, 185.0, 180.0, 156.0, 154.0, 154.0, 156.0, 181.0, 185.0, 174.0]",2.705286741256714,0.0,-0.58441162109375,-0.0004444122314453125,-27.926246643066406
1743581283.725236,0.0,1.0228738458683246,"[174.0, 185.0, 180.0, 156.0, 154.0, 154.0, 156.0, 181.0, 185.0, 174.0]",2.8552961349487305,0.0,-0.64154052734375,-0.000415802001953125,-27.926185607910156
1743581283.7456071,0.0,1.0199508189115205,"[174.0, 185.0, 180.0, 156.0, 154.0, 154.0, 156.0, 181.0, 185.0, 174.0]",2.9771885871887207,0.0,-0.701080322265625,-0.000385284423828125,-27.926109313964844
1743581283.7660127,0.0,1.0179557370203685,"[174.0, 185.0, 180.0, 156.0, 154.0, 154.0, 156.0, 181.0, 185.0, 174.0]",3.0969340801239014,0.0,-0.76300048828125,-0.0003566741943359375,-27.92601776123047
1743581283.7860088,0.0,1.0179557370203685,"[174.0, 185.0, 180.0, 156.0, 154.0, 154.0, 156.0, 181.0, 185.0, 174.0]",3.2200655937194824,0.0,-0.827423095703125,-0.0003261566162109375,-27.925918579101562
1743581283.8082473,0.0,1.0179557370203685,"[174.0, 185.0, 180.0, 156.0, 154.0, 154.0, 156.0, 181.0, 185.0, 174.0]",3.340881824493408,0.0,-0.89422607421875,-0.0002994537353515625,-27.925811767578125
1743581283.8252563,0.0,1.0196260381385422,"[174.0, 185.0, 180.0, 156.0, 154.0, 154.0, 156.0, 181.0, 185.0, 174.0]",3.4794981479644775,0.0,-0.96380615234375,-0.000274658203125,-27.925704956054688
1743581283.8457584,0.0,1.0257968728251288,"[174.0, 185.0, 180.0, 156.0, 154.0, 154.0, 156.0, 181.0, 185.0, 174.0]",3.607703685760498,0.0,-1.035980224609375,-0.0002498626708984375,-27.92560577392578
1743581283.8665679,0.0,1.0286271052753677,"[174.0, 185.0, 180.0, 156.0, 154.0, 154.0, 156.0, 181.0, 185.0, 174.0]",3.7518386840820312,0.0,-1.11102294921875,-0.0002288818359375,-27.925506591796875
1743581283.885634,0.0,1.0302046118869763,"[174.0, 185.0, 180.0, 156.0, 154.0, 154.0, 156.0, 181.0, 185.0, 174.0]",3.8643267154693604,0.0,-1.18829345703125,-0.000209808349609375,-27.925384521484375
1743581283.90711,0.0,1.0302046118869763,"[174.0, 185.0, 180.0, 156.0, 154.0, 154.0, 156.0, 181.0, 185.0, 174.0]",3.9978883266448975,0.0,-1.26824951171875,-0.0001926422119140625,-27.925277709960938
1743581283.9250717,0.0,1.0302046118869763,"[174.0, 185.0, 180.0, 156.0, 154.0, 154.0, 156.0, 181.0, 185.0, 174.0]",4.136570930480957,0.0,-1.350982666015625,-0.000179290771484375,-27.925155639648438
1743581283.9463477,0.0,1.0240337772003898,"[174.0, 185.0, 180.0, 156.0, 154.0, 154.0, 156.0, 181.0, 185.0, 174.0]",4.2721333503723145,0.0,-1.436431884765625,-0.0001678466796875,-27.925033569335938
1743581283.9647322,0.0,1.0223170788289333,"[174.0, 185.0, 180.0, 156.0, 154.0, 154.0, 156.0, 181.0, 185.0, 174.0]",4.383312702178955,0.0,-1.524078369140625,-0.0001583099365234375,-27.924911499023438
1743581283.9858267,0.0,1.0206467777107595,"[174.0, 185.0, 180.0, 156.0, 154.0, 154.0, 156.0, 181.0, 185.0, 174.0]",4.535669803619385,0.0,-1.61480712890625,-0.0001506805419921875,-27.924774169921875
1743581284.008188,0.0,1.0163782304087599,"[174.0, 185.0, 180.0, 156.0, 154.0, 154.0, 156.0, 181.0, 185.0, 174.0]",4.644560813903809,0.0,-1.70770263671875,-0.0001468658447265625,-27.924644470214844
1743581284.0274496,0.0,1.0163782304087599,"[174.0, 185.0, 180.0, 156.0, 154.0, 154.0, 156.0, 181.0, 185.0, 174.0]",4.782553195953369,0.0,-1.8033447265625,-0.0001430511474609375,-27.92449951171875
1743581284.0469785,0.0,1.0163782304087599,"[174.0, 185.0, 180.0, 156.0, 154.0, 154.0, 156.0, 181.0, 185.0, 174.0]",4.925976276397705,0.0,-1.90185546875,-0.000141143798828125,-27.924362182617188
1743581284.0656297,0.0,1.0163782304087599,"[174.0, 185.0, 180.0, 156.0, 154.0, 154.0, 156.0, 181.0, 185.0, 174.0]",5.028216361999512,0.0,-2.00244140625,-0.0001392364501953125,-27.924209594726562
1743581284.085183,0.0,1.0163782304087599,"[174.0, 185.0, 180.0, 156.0, 154.0, 154.0, 156.0, 181.0, 185.0, 174.0]",5.3290276527404785,0.0,-2.1090087890625,0.0001964569091796875,-27.924057006835938
1743581284.106411,0.0,1.0163782304087599,"[174.0, 185.0, 180.0, 156.0, 154.0, 154.0, 156.0, 181.0, 185.0, 174.0]",5.180289268493652,0.0,-2.212615966796875,0.0004825592041015625,-27.923828125
1743581284.125755,0.0,1.0163782304087599,"[174.0, 185.0, 180.0, 156.0, 154.0, 154.0, 156.0, 181.0, 185.0, 174.0]",5.49412202835083,0.0,-2.322509765625,0.0007171630859375,-27.92388916015625
1743581284.1464243,0.0,1.0163782304087599,"[174.0, 185.0, 180.0, 156.0, 154.0, 154.0, 156.0, 181.0, 185.0, 174.0]",5.415829181671143,0.0,-2.430816650390625,0.0009059906005859375,-27.923416137695312
1743581284.1661935,0.0,1.0163782304087599,"[174.0, 185.0, 180.0, 156.0, 154.0, 154.0, 156.0, 181.0, 185.0, 174.0]",5.547976493835449,0.0,-2.541778564453125,0.0010509490966796875,-27.923416137695312
1743581284.1851304,0.0,1.0163782304087599,"[174.0, 185.0, 180.0, 156.0, 154.0, 154.0, 156.0, 181.0, 185.0, 174.0]",5.918905735015869,0.0,-2.66015625,0.001155853271484375,-27.923187255859375
1743581284.2078857,0.0,1.0163782304087599,"[174.0, 185.0, 180.0, 156.0, 154.0, 154.0, 156.0, 181.0, 185.0, 174.0]",5.626984596252441,0.0,-2.772705078125,0.0012226104736328125,-27.923004150390625
1743581284.226513,0.0,1.0163782304087599,"[174.0, 185.0, 180.0, 156.0, 154.0, 154.0, 156.0, 181.0, 185.0, 174.0]",5.886493682861328,0.0,-2.890411376953125,0.0012607574462890625,-27.923011779785156
1743581284.24675,0.0,1.0163782304087599,"[174.0, 185.0, 180.0, 156.0, 154.0, 154.0, 156.0, 181.0, 185.0, 174.0]",6.248422145843506,0.0,-3.015380859375,0.0012722015380859375,-27.92266082763672
1743581284.2653787,0.0,1.0163782304087599,"[174.0, 185.0, 180.0, 156.0, 154.0, 154.0, 156.0, 181.0, 185.0, 174.0]",6.133743762969971,0.0,-3.1380615234375,0.0012607574462890625,-27.922866821289062
1743581284.2854183,0.0,1.0163782304087599,"[174.0, 185.0, 180.0, 156.0, 154.0, 154.0, 156.0, 181.0, 185.0, 174.0]",6.483890056610107,0.0,-3.267730712890625,0.001232147216796875,-27.922142028808594
1743581284.3069127,0.0,1.0163782304087599,"[174.0, 185.0, 180.0, 155.0, 154.0, 155.0, 158.0, 181.0, 185.0, 174.0]",6.5399580001831055,0.0,-3.398529052734375,0.001190185546875,-27.922744750976562
1743581284.3252313,0.0,1.0163782304087599,"[174.0, 185.0, 181.0, 156.0, 154.0, 154.0, 156.0, 181.0, 185.0, 174.0]",6.583098888397217,0.0,-3.530181884765625,0.00113677978515625,-27.921112060546875
1743581284.3449323,0.0,1.0163782304087599,"[174.0, 185.0, 179.0, 155.0, 154.0, 155.0, 158.0, 181.0, 185.0, 174.0]",6.730432033538818,0.0,-3.664794921875,0.0010776519775390625,-27.923080444335938
1743581284.3644762,0.0,1.0163782304087599,"[174.0, 185.0, 181.0, 156.0, 154.0, 154.0, 156.0, 181.0, 185.0, 174.0]",6.760035037994385,0.0,-3.799957275390625,0.00101470947265625,-27.92078399658203
1743581284.3865323,0.0,1.0163782304087599,"[174.0, 185.0, 180.0, 155.0, 154.0, 155.0, 158.0, 181.0, 185.0, 174.0]",6.913750171661377,0.0,-3.938201904296875,0.000949859619140625,-27.92321014404297
1743581284.4117684,0.0,1.0163782304087599,"[174.0, 185.0, 180.0, 156.0, 154.0, 154.0, 156.0, 181.0, 185.0, 174.0]",7.069672584533691,0.0,-4.079559326171875,0.0008869171142578125,-27.919876098632812
1743581284.4254985,0.0,1.0163782304087599,"[174.0, 185.0, 180.0, 156.0, 154.0, 154.0, 156.0, 181.0, 185.0, 174.0]",7.0146484375,0.0,-4.2198486328125,0.0008258819580078125,-27.92188262939453
1743581284.4462059,0.0,1.0163782304087599,"[174.0, 185.0, 180.0, 156.0, 154.0, 154.0, 156.0, 181.0, 185.0, 174.0]",7.119857311248779,0.0,-4.36224365234375,0.000766754150390625,-27.920700073242188
1743581284.4652476,0.0,1.0163782304087599,"[174.0, 185.0, 180.0, 156.0, 154.0, 154.0, 156.0, 181.0, 185.0, 174.0]",7.4105939865112305,0.0,-4.510467529296875,0.000713348388671875,-27.92096710205078
1743581284.485176,0.0,1.0163782304087599,"[174.0, 185.0, 180.0, 156.0, 154.0, 154.0, 156.0, 181.0, 185.0, 174.0]",7.599936008453369,0.0,-4.662445068359375,0.0006656646728515625,-27.920700073242188
1743581284.504918,0.0,1.0163782304087599,"[174.0, 185.0, 180.0, 156.0, 154.0, 155.0, 156.0, 181.0, 185.0, 174.0]",7.843544960021973,0.0,-4.8193359375,0.0006237030029296875,-27.920394897460938
1743581284.524963,0.0,1.0163782304087599,"[174.0, 185.0, 180.0, 156.0, 154.0, 154.0, 156.0, 181.0, 185.0, 174.0]",7.846712112426758,0.0,-4.97625732421875,0.00058746337890625,-27.919937133789062
1743581284.5455883,0.0,1.0163782304087599,"[174.0, 185.0, 180.0, 156.0, 154.0, 155.0, 158.0, 181.0, 185.0, 174.0]",8.06783676147461,0.0,-5.137603759765625,0.0005550384521484375,-27.9200439453125
1743581284.5665143,0.0,1.0163782304087599,"[174.0, 185.0, 180.0, 156.0, 154.0, 154.0, 156.0, 181.0, 185.0, 174.0]",7.960072994232178,0.0,-5.29681396484375,0.000530242919921875,-27.919265747070312
1743581284.5869088,0.0,1.0163782304087599,"[174.0, 185.0, 180.0, 156.0, 154.0, 154.0, 156.0, 181.0, 185.0, 174.0]",8.203725814819336,0.0,-5.46087646484375,0.00051116943359375,-27.919532775878906
1743581284.6091077,0.0,1.0163782304087599,"[174.0, 185.0, 180.0, 156.0, 154.0, 154.0, 156.0, 181.0, 185.0, 174.0]",8.42591667175293,0.0,-5.62939453125,0.00049591064453125,-27.918846130371094
1743581284.6264136,0.0,1.0163782304087599,"[174.0, 185.0, 180.0, 156.0, 154.0, 154.0, 156.0, 181.0, 185.0, 174.0]",8.507286071777344,0.0,-5.799560546875,0.000484466552734375,-27.918655395507812
1743581284.6477754,0.0,1.0163782304087599,"[174.0, 185.0, 180.0, 156.0, 154.0, 154.0, 156.0, 181.0, 185.0, 174.0]",8.591297149658203,0.0,-5.97137451171875,0.000476837158203125,-27.918296813964844
1743581284.6652498,0.0,1.0163782304087599,"[174.0, 185.0, 180.0, 156.0, 154.0, 154.0, 156.0, 181.0, 185.0, 174.0]",8.613500595092773,0.0,-6.143646240234375,0.0004730224609375,-27.91796112060547
1743581284.6847405,0.0,1.0163782304087599,"[174.0, 185.0, 180.0, 156.0, 154.0, 154.0, 156.0, 181.0, 185.0, 174.0]",8.603646278381348,0.0,-6.315704345703125,0.0004730224609375,-27.91754150390625
1743581284.7044926,0.0,1.0163782304087599,"[174.0, 185.0, 180.0, 156.0, 154.0, 154.0, 156.0, 181.0, 185.0, 174.0]",8.70958137512207,0.0,-6.489898681640625,0.0004749298095703125,-27.917137145996094
1743581284.7258236,0.0,1.0163782304087599,"[174.0, 185.0, 180.0, 156.0, 154.0, 154.0, 156.0, 181.0, 185.0, 174.0]",9.03355884552002,0.0,-6.670562744140625,0.0004787445068359375,-27.91698455810547
1743581284.7458987,0.0,1.0163782304087599,"[174.0, 185.0, 180.0, 156.0, 154.0, 155.0, 158.0, 181.0, 185.0, 174.0]",9.094842910766602,0.0,-6.85247802734375,0.000484466552734375,-27.91674041748047
1743581284.7653036,0.0,1.0163782304087599,"[174.0, 185.0, 180.0, 156.0, 154.0, 154.0, 156.0, 181.0, 185.0, 174.0]",9.304933547973633,0.0,-7.03857421875,0.0004901885986328125,-27.916053771972656
1743581284.785393,0.0,1.0180485315269336,"[174.0, 185.0, 180.0, 156.0, 154.0, 154.0, 156.0, 181.0, 185.0, 174.0]",9.3443021774292,0.0,-7.2254638671875,0.00049591064453125,-27.91584014892578
1743581284.807995,0.0,1.0180485315269336,"[174.0, 185.0, 180.0, 156.0, 154.0, 154.0, 156.0, 181.0, 185.0, 174.0]",9.706659317016602,0.0,-7.419586181640625,0.0005035400390625,-27.9154052734375
1743581284.8262572,0.0,1.0198580244049553,"[174.0, 185.0, 180.0, 156.0, 154.0, 154.0, 156.0, 181.0, 185.0, 174.0]",9.490119934082031,0.0,-7.609405517578125,0.00051116943359375,-27.915138244628906
1743581284.8445747,0.0,1.0215747227764116,"[174.0, 185.0, 180.0, 156.0, 154.0, 154.0, 156.0, 181.0, 185.0, 174.0]",9.872986793518066,0.0,-7.806854248046875,0.000518798828125,-27.914703369140625
1743581284.868027,0.0,1.0215747227764116,"[174.0, 185.0, 180.0, 156.0, 154.0, 154.0, 156.0, 181.0, 185.0, 174.0]",9.662147521972656,0.0,-8.000091552734375,0.0005245208740234375,-27.914291381835938
1743581284.8862393,0.14733852575412024,1.0193476546188465,"[174.0, 185.0, 180.0, 156.0, 154.0, 154.0, 156.0, 181.0, 185.0, 174.0]",9.795827865600586,0.0,-8.196014404296875,0.0005321502685546875,-27.9141845703125
1743581284.9051037,0.18107491716511037,1.0101609984688906,"[174.0, 185.0, 179.0, 155.0, 154.0, 155.0, 158.0, 183.0, 185.0, 174.0]",10.136160850524902,0.07366926223039627,-8.39862060546875,0.000537872314453125,-27.90772247314453
1743581284.9248579,0.1869271483282413,1.008583491857282,"[174.0, 185.0, 179.0, 155.0, 154.0, 155.0, 158.0, 183.0, 185.0, 174.0]",10.176207542419434,0.09053745865821838,-8.602020263671875,0.0005435943603515625,-27.9005126953125
1743581284.9453373,0.19364000172124446,1.008583491857282,"[174.0, 185.0, 179.0, 155.0, 153.0, 155.0, 158.0, 183.0, 185.0, 174.0]",10.132670402526855,0.09346357733011246,-8.80450439453125,0.0005474090576171875,-27.89190673828125
1743581284.9657085,0.1951460906235208,1.008583491857282,"[174.0, 185.0, 179.0, 155.0, 153.0, 156.0, 158.0, 183.0, 185.0, 174.0]",10.492793083190918,0.09682000428438187,-9.014129638671875,0.0005512237548828125,-27.882003784179688
1743581284.9858816,0.1951460906235208,1.008583491857282,"[174.0, 185.0, 178.0, 155.0, 153.0, 156.0, 158.0, 183.0, 185.0, 174.0]",10.50373363494873,0.09757304191589355,-9.223907470703125,0.0005550384521484375,-27.87110137939453
1743581285.0077991,0.1951460906235208,1.008583491857282,"[174.0, 185.0, 178.0, 154.0, 153.0, 156.0, 159.0, 184.0, 185.0, 174.0]",10.696792602539062,0.09757304191589355,-9.437530517578125,0.0005588531494140625,-27.859695434570312
1743581285.0265427,0.1951460906235208,1.008583491857282,"[174.0, 185.0, 178.0, 154.0, 152.0, 156.0, 159.0, 184.0, 185.0, 174.0]",10.5824613571167,0.09757304191589355,-9.6488037109375,0.000560760498046875,-27.846939086914062
1743581285.0449162,0.1951460906235208,1.008583491857282,"[174.0, 185.0, 177.0, 154.0, 152.0, 156.0, 159.0, 184.0, 185.0, 174.0]",10.787419319152832,0.09757304191589355,-9.864105224609375,0.0005626678466796875,-27.833160400390625
1743581285.0657473,0.1951460906235208,1.008583491857282,"[174.0, 185.0, 176.0, 153.0, 152.0, 157.0, 160.0, 185.0, 185.0, 174.0]",11.031350135803223,0.09757304191589355,-10.084259033203125,0.0005626678466796875,-27.818443298339844
1743581285.085505,0.20706570850725073,1.0062636291931517,"[174.0, 185.0, 176.0, 153.0, 152.0, 157.0, 160.0, 186.0, 185.0, 174.0]",11.260786056518555,0.09757304191589355,-10.308868408203125,0.0005645751953125,-27.801986694335938
1743581285.1053314,0.26851413572012567,0.9961026307242611,"[174.0, 185.0, 176.0, 153.0, 151.0, 157.0, 160.0, 186.0, 185.0, 174.0]",11.091068267822266,0.10353285074234009,-10.530029296875,0.0005645751953125,-27.784934997558594
1743581285.124896,0.3284134429192306,0.9861736185217835,"[174.0, 185.0, 175.0, 152.0, 151.0, 158.0, 161.0, 187.0, 185.0, 174.0]",11.23056697845459,0.13425706326961517,-10.753631591796875,0.0005645751953125,-27.763641357421875
1743581285.1449673,0.3655923232497095,0.9621398413213937,"[174.0, 185.0, 175.0, 152.0, 150.0, 159.0, 161.0, 187.0, 185.0, 174.0]",11.422259330749512,0.16420672833919525,-10.980682373046875,0.0005645751953125,-27.73834228515625
1743581285.1661181,0.404148199147984,0.9467359532315687,"[174.0, 185.0, 173.0, 151.0, 150.0, 159.0, 162.0, 188.0, 185.0, 174.0]",11.621989250183105,0.1827961653470993,-11.211334228515625,0.0005626678466796875,-27.70966339111328
1743581285.1855588,0.404148199147984,0.9467359532315687,"[174.0, 185.0, 172.0, 151.0, 149.0, 159.0, 162.0, 189.0, 185.0, 174.0]",11.613496780395508,0.2020740956068039,-11.441375732421875,0.0005626678466796875,-27.677528381347656
1743581285.2103205,0.40621369249967726,0.9467359532315687,"[174.0, 185.0, 172.0, 149.0, 148.0, 159.0, 163.0, 190.0, 185.0, 174.0]",11.812878608703613,0.2020740956068039,-11.675018310546875,0.0005626678466796875,-27.6424560546875
1743581285.2258983,0.34975687422006113,0.957407321486568,"[174.0, 185.0, 170.0, 148.0, 148.0, 159.0, 163.0, 190.0, 185.0, 174.0]",11.693219184875488,0.2031068503856659,-11.905914306640625,0.000560760498046875,-27.605361938476562
1743581285.2466977,0.25061319333878396,1.0037117802626085,"[174.0, 185.0, 170.0, 148.0, 147.0, 159.0, 164.0, 192.0, 185.0, 174.0]",12.07129192352295,0.17487843334674835,-12.144317626953125,0.000560760498046875,-27.56731414794922
1743581285.2652261,0.0,1.0178165452605206,"[174.0, 185.0, 169.0, 147.0, 147.0, 159.0, 164.0, 192.0, 185.0, 174.0]",11.869085311889648,0.12530659139156342,-12.378997802734375,0.0005588531494140625,-27.53166961669922
1743581285.285398,0.0,1.0206003804574768,"[174.0, 185.0, 169.0, 147.0, 147.0, 159.0, 164.0, 192.0, 185.0, 174.0]",12.173949241638184,0.0,-12.621002197265625,0.0005588531494140625,-27.504837036132812
1743581285.304752,0.0,1.0206003804574768,"[174.0, 185.0, 169.0, 147.0, 147.0, 159.0, 164.0, 192.0, 185.0, 174.0]",12.330316543579102,0.0,-12.86602783203125,0.0005588531494140625,-27.47681427001953
1743581285.3268254,0.0,1.0206003804574768,"[174.0, 185.0, 169.0, 147.0, 147.0, 159.0, 164.0, 192.0, 185.0, 174.0]",12.27568531036377,0.0,-13.1099853515625,0.00055694580078125,-27.449249267578125
1743581285.3459694,0.0,1.0189764765925857,"[174.0, 185.0, 168.0, 147.0, 147.0, 159.0, 164.0, 193.0, 185.0, 174.0]",12.555882453918457,0.0,-13.359527587890625,0.00055694580078125,-27.421157836914062
1743581285.3653235,0.0,1.0189764765925857,"[174.0, 185.0, 167.0, 147.0, 147.0, 159.0, 164.0, 193.0, 185.0, 174.0]",12.613914489746094,0.0,-13.610198974609375,0.00055694580078125,-27.392868041992188
1743581285.3853488,0.0,1.0189764765925857,"[174.0, 185.0, 167.0, 146.0, 146.0, 159.0, 166.0, 193.0, 185.0, 174.0]",12.769893646240234,0.0,-13.863983154296875,0.0005550384521484375,-27.364181518554688
