timestamp,steering_input,acceleration_input,raycasts,speed,steering,position_x,position_y,position_z
1743582331.2540622,0.0,-0.0,"[174.0, 185.0, 227.0, 295.0, 259.0, 259.0, 295.0, 227.0, 185.0, 174.0]",0.0,0.0,0.0,0.10000038146972656,-27.93000030517578
1743582331.4584498,0.0,-0.0,"[174.0, 185.0, 178.0, 155.0, 154.0, 154.0, 156.0, 179.0, 185.0, 174.0]",0.1431841105222702,0.0,0.0,0.097137451171875,-27.93000030517578
1743582331.5105793,0.0,-0.0,"[174.0, 185.0, 178.0, 155.0, 154.0, 154.0, 156.0, 179.0, 185.0, 174.0]",0.2360968291759491,0.0,0.0,0.09241485595703125,-27.93000030517578
1743582331.5147963,0.0,-0.0,"[174.0, 185.0, 178.0, 155.0, 154.0, 154.0, 156.0, 179.0, 185.0, 174.0]",0.30777978897094727,0.0,0.0,0.08625984191894531,-27.93000030517578
1743582331.5506046,0.0,-0.0,"[174.0, 185.0, 179.0, 155.0, 154.0, 154.0, 156.0, 179.0, 185.0, 174.0]",0.36006540060043335,0.0,0.0,0.07905769348144531,-27.93000030517578
1743582331.555371,0.0,-0.0,"[174.0, 185.0, 179.0, 155.0, 154.0, 154.0, 156.0, 179.0, 185.0, 174.0]",0.3949472904205322,0.0,0.0,0.07115936279296875,-27.93000030517578
1743582331.5919259,0.0,-0.0,"[174.0, 185.0, 179.0, 155.0, 154.0, 154.0, 156.0, 180.0, 185.0, 174.0]",0.41450235247612,0.0,0.0,0.06286811828613281,-27.93000030517578
1743582331.5958245,0.0,-0.0,"[174.0, 185.0, 179.0, 155.0, 154.0, 154.0, 156.0, 180.0, 185.0, 174.0]",0.42082807421684265,0.0,0.0,0.05445289611816406,-27.93000030517578
1743582331.6279123,0.0,-0.0,"[174.0, 185.0, 179.0, 155.0, 154.0, 154.0, 156.0, 181.0, 185.0, 174.0]",0.41598936915397644,0.0,0.0,0.04613304138183594,-27.93000030517578
1743582331.631579,0.0,-0.0,"[174.0, 185.0, 179.0, 155.0, 154.0, 154.0, 156.0, 181.0, 185.0, 174.0]",0.4019714593887329,0.0,0.0,0.03809356689453125,-27.93000030517578
1743582331.6683867,0.0,-0.0,"[174.0, 185.0, 179.0, 156.0, 154.0, 154.0, 156.0, 181.0, 185.0, 174.0]",0.3806484043598175,0.0,0.0,0.03047943115234375,-27.93000030517578
1743582331.6737547,0.0,-0.0,"[174.0, 185.0, 179.0, 156.0, 154.0, 154.0, 156.0, 181.0, 185.0, 174.0]",0.3537571132183075,0.0,0.0,0.023405075073242188,-27.93000030517578
1743582331.7069747,0.0,-0.0,"[174.0, 185.0, 180.0, 156.0, 154.0, 154.0, 156.0, 181.0, 185.0, 174.0]",0.3228750228881836,0.0,0.0,0.016946792602539062,-27.92999267578125
1743582331.709821,0.0,-0.0,"[174.0, 185.0, 180.0, 156.0, 154.0, 154.0, 156.0, 181.0, 185.0, 174.0]",0.28941938281059265,0.0,0.0,0.011159896850585938,-27.930038452148438
1743582331.7401595,0.0,-0.0,"[174.0, 185.0, 180.0, 156.0, 154.0, 154.0, 156.0, 181.0, 185.0, 174.0]",0.2562173306941986,0.0,0.0,0.0060672760009765625,-27.929466247558594
1743582331.7720156,0.0,-0.0,"[174.0, 185.0, 181.0, 156.0, 154.0, 154.0, 156.0, 181.0, 185.0, 174.0]",0.34839218854904175,0.0,0.0,0.0016765594482421875,-27.93487548828125
1743582331.7757754,0.0,-0.0,"[174.0, 185.0, 181.0, 156.0, 154.0, 154.0, 156.0, 181.0, 185.0, 174.0]",0.255353718996048,0.0,0.0,-0.0020236968994140625,-27.931358337402344
1743582331.807443,0.0,-0.0,"[174.0, 185.0, 181.0, 156.0, 154.0, 154.0, 156.0, 181.0, 185.0, 174.0]",0.2815416157245636,0.0,0.0,-0.0050601959228515625,-27.926612854003906
1743582331.8111954,0.0,-0.0,"[174.0, 185.0, 181.0, 156.0, 154.0, 154.0, 156.0, 181.0, 185.0, 174.0]",0.15634490549564362,0.0,0.0,-0.007472991943359375,-27.928604125976562
1743582331.8416681,0.0,-0.0,"[174.0, 185.0, 181.0, 156.0, 154.0, 154.0, 156.0, 181.0, 185.0, 174.0]",0.27455902099609375,0.0,0.0,-0.009307861328125,-27.923431396484375
1743582331.84516,0.0,-0.0,"[174.0, 185.0, 181.0, 156.0, 154.0, 154.0, 156.0, 181.0, 185.0, 174.0]",0.2245660424232483,0.0,0.0,-0.010616302490234375,-27.92772674560547
1743582331.8778105,0.0,-0.0,"[174.0, 185.0, 181.0, 156.0, 154.0, 154.0, 156.0, 181.0, 185.0, 174.0]",0.08891011029481888,0.0,0.0,-0.011455535888671875,-27.929290771484375
1743582331.9112995,0.0,-0.0,"[174.0, 185.0, 181.0, 156.0, 154.0, 154.0, 156.0, 181.0, 185.0, 174.0]",0.1896505206823349,0.0,0.0,-0.011884689331054688,-27.925521850585938
1743582331.9146547,0.0,-0.0,"[174.0, 185.0, 181.0, 156.0, 154.0, 154.0, 156.0, 181.0, 185.0, 174.0]",0.2066076397895813,0.0,0.0,-0.011960983276367188,-27.92139434814453
1743582331.9514577,0.0,-0.0,"[174.0, 185.0, 181.0, 156.0, 154.0, 154.0, 156.0, 181.0, 185.0, 174.0]",0.12101753056049347,0.0,0.0,-0.011743545532226562,-27.918983459472656
1743582331.9602127,0.0,-0.0,"[174.0, 185.0, 181.0, 156.0, 154.0, 154.0, 156.0, 181.0, 185.0, 174.0]",0.19259010255336761,0.0,0.0,-0.011285781860351562,-27.922805786132812
1743582331.9960737,0.0,-0.0,"[174.0, 185.0, 181.0, 156.0, 154.0, 154.0, 156.0, 181.0, 185.0, 174.0]",0.17800575494766235,0.0,0.0,-0.010637283325195312,-27.926307678222656
1743582331.9991865,0.0,-0.0,"[174.0, 185.0, 181.0, 156.0, 154.0, 154.0, 156.0, 181.0, 185.0, 174.0]",0.16013549268245697,0.0,0.0,-0.009847640991210938,-27.929412841796875
1743582332.0321586,0.0,-0.0,"[174.0, 185.0, 181.0, 156.0, 154.0, 154.0, 156.0, 181.0, 185.0, 174.0]",0.07219173014163971,0.0,0.0,-0.0089569091796875,-27.9305419921875
1743582332.0375307,0.0,-0.0,"[174.0, 185.0, 181.0, 156.0, 154.0, 154.0, 156.0, 181.0, 185.0, 174.0]",0.1852148175239563,0.0,0.0,-0.008007049560546875,-27.926963806152344
1743582332.0710945,0.0,-0.0,"[174.0, 185.0, 181.0, 156.0, 154.0, 154.0, 156.0, 181.0, 185.0, 174.0]",0.15632963180541992,0.0,0.0,-0.00702667236328125,-27.923995971679688
1743582332.0766418,0.0,-0.0,"[174.0, 185.0, 181.0, 156.0, 154.0, 154.0, 156.0, 181.0, 185.0, 174.0]",0.051327187567949295,0.0,0.0,-0.0060482025146484375,-27.923690795898438
1743582332.116031,0.0,-0.0,"[174.0, 185.0, 181.0, 156.0, 154.0, 154.0, 156.0, 181.0, 185.0, 174.0]",0.15988554060459137,0.0,0.0,-0.0050907135009765625,-27.926742553710938
1743582332.123479,0.0,-0.0,"[174.0, 185.0, 181.0, 156.0, 154.0, 154.0, 156.0, 181.0, 185.0, 174.0]",0.05791441351175308,0.0,0.0,-0.004177093505859375,-27.927452087402344
1743582332.1575363,0.0,-0.0,"[174.0, 185.0, 181.0, 156.0, 154.0, 154.0, 156.0, 181.0, 185.0, 174.0]",0.19991730153560638,0.0,0.0,-0.0033206939697265625,-27.923545837402344
1743582332.1623247,0.0,-0.0,"[174.0, 185.0, 181.0, 156.0, 154.0, 154.0, 156.0, 181.0, 185.0, 174.0]",0.12208718806505203,0.0,0.0,-0.0025310516357421875,-27.921234130859375
1743582332.1949658,0.0,-0.0,"[174.0, 185.0, 181.0, 156.0, 154.0, 154.0, 156.0, 181.0, 185.0, 174.0]",0.18460233509540558,0.0,0.0,-0.0018177032470703125,-27.92485809326172
1743582332.1985934,0.0,-0.0,"[174.0, 185.0, 181.0, 156.0, 154.0, 154.0, 156.0, 181.0, 185.0, 174.0]",0.13353228569030762,0.0,0.0,-0.0011844635009765625,-27.927452087402344
1743582332.2322264,0.0,-0.0,"[174.0, 185.0, 181.0, 156.0, 154.0, 154.0, 156.0, 181.0, 185.0, 174.0]",0.11446059495210648,0.0,3.0517578125e-05,-0.00063323974609375,-27.92523193359375
1743582332.2375515,0.0,-0.0,"[174.0, 185.0, 181.0, 156.0, 154.0, 154.0, 156.0, 181.0, 185.0, 174.0]",0.18039268255233765,0.0,3.0517578125e-05,-0.0001621246337890625,-27.928802490234375
1743582332.271217,0.0,-0.0,"[174.0, 185.0, 181.0, 156.0, 154.0, 154.0, 156.0, 181.0, 185.0, 174.0]",0.12967412173748016,0.0,3.0517578125e-05,0.0002288818359375,-27.931365966796875
1743582332.276418,0.0,-0.0,"[174.0, 185.0, 181.0, 156.0, 154.0, 154.0, 156.0, 181.0, 185.0, 174.0]",0.1237604022026062,0.0,3.0517578125e-05,0.000545501708984375,-27.928909301757812
1743582332.308102,0.0,-0.0,"[174.0, 185.0, 181.0, 156.0, 154.0, 154.0, 156.0, 181.0, 185.0, 174.0]",0.1935333013534546,0.0,3.0517578125e-05,0.0007915496826171875,-27.932777404785156
1743582332.313008,0.0,-0.0,"[174.0, 185.0, 181.0, 156.0, 154.0, 154.0, 156.0, 181.0, 185.0, 174.0]",0.12180628627538681,0.0,6.103515625e-05,0.000972747802734375,-27.935203552246094
1743582332.3452616,0.0,-0.0,"[174.0, 185.0, 181.0, 156.0, 154.0, 154.0, 156.0, 181.0, 185.0, 174.0]",0.16159525513648987,0.0,6.103515625e-05,0.0010967254638671875,-27.931976318359375
1743582332.348504,0.0,-0.0,"[174.0, 185.0, 181.0, 156.0, 154.0, 154.0, 156.0, 181.0, 185.0, 174.0]",0.0772232785820961,0.0,6.103515625e-05,0.0011692047119140625,-27.930435180664062
1743582332.3822646,0.0,-0.0,"[174.0, 185.0, 181.0, 156.0, 154.0, 154.0, 156.0, 181.0, 185.0, 174.0]",0.184142604470253,0.0,6.103515625e-05,0.00119781494140625,-27.934112548828125
1743582332.416648,0.0,-0.0,"[174.0, 185.0, 181.0, 156.0, 154.0, 154.0, 156.0, 181.0, 185.0, 174.0]",0.1367751508951187,0.0,6.103515625e-05,0.0011882781982421875,-27.936851501464844
1743582332.4252698,0.0,-0.0,"[174.0, 185.0, 181.0, 156.0, 154.0, 154.0, 156.0, 181.0, 185.0, 174.0]",0.06419677287340164,0.0,6.103515625e-05,0.001148223876953125,-27.935569763183594
1743582332.4574149,0.0,-0.0,"[174.0, 185.0, 181.0, 156.0, 154.0, 154.0, 156.0, 181.0, 185.0, 174.0]",0.1747168004512787,0.0,6.103515625e-05,0.0010833740234375,-27.939064025878906
1743582332.46245,0.0,-0.0,"[174.0, 185.0, 181.0, 156.0, 154.0, 154.0, 156.0, 181.0, 185.0, 174.0]",0.1311485320329666,0.0,9.1552734375e-05,0.00099945068359375,-27.941680908203125
1743582332.49663,0.0,-0.0,"[174.0, 185.0, 181.0, 156.0, 154.0, 154.0, 156.0, 181.0, 185.0, 174.0]",0.11074256151914597,0.0,9.1552734375e-05,0.0009002685546875,-27.939468383789062
1743582332.501256,0.0,-0.0,"[174.0, 185.0, 181.0, 156.0, 154.0, 154.0, 156.0, 181.0, 185.0, 174.0]",0.1801898330450058,0.0,9.1552734375e-05,0.00079345703125,-27.943069458007812
1743582332.5346913,0.0,-0.0,"[174.0, 185.0, 181.0, 156.0, 154.0, 154.0, 156.0, 181.0, 185.0, 174.0]",0.14138393104076385,0.0,9.1552734375e-05,0.00067901611328125,-27.945899963378906
1743582332.5397797,0.0,-0.0,"[174.0, 185.0, 181.0, 156.0, 154.0, 154.0, 156.0, 181.0, 185.0, 174.0]",0.0333004854619503,0.0,9.1552734375e-05,0.0005645751953125,-27.94524383544922
1743582332.5764828,0.0,-0.0,"[174.0, 185.0, 181.0, 156.0, 154.0, 154.0, 156.0, 181.0, 185.0, 174.0]",0.19635771214962006,0.0,9.1552734375e-05,0.0004520416259765625,-27.94916534423828
1743582332.5807106,0.0,-0.0,"[174.0, 185.0, 181.0, 156.0, 154.0, 154.0, 156.0, 181.0, 185.0, 174.0]",0.12271545082330704,0.0,0.0001220703125,0.00034332275390625,-27.951614379882812
1743582332.6144674,0.0,-0.0,"[174.0, 185.0, 181.0, 156.0, 154.0, 154.0, 156.0, 181.0, 185.0, 174.0]",0.15798240900039673,0.0,0.0001220703125,0.0002384185791015625,-27.948455810546875
1743582332.6190224,0.0,-0.0,"[174.0, 185.0, 181.0, 156.0, 154.0, 154.0, 156.0, 181.0, 185.0, 174.0]",0.0622306689620018,0.0,0.0001220703125,0.0001430511474609375,-27.947219848632812
1743582332.652217,0.0,-0.0,"[174.0, 185.0, 181.0, 156.0, 154.0, 154.0, 156.0, 181.0, 185.0, 174.0]",0.17492303252220154,0.0,0.0001220703125,5.53131103515625e-05,-27.950714111328125
1743582332.6567135,0.0,-0.0,"[174.0, 185.0, 181.0, 156.0, 154.0, 154.0, 156.0, 181.0, 185.0, 174.0]",0.13653863966464996,0.0,0.0001220703125,-2.288818359375e-05,-27.953445434570312
1743582332.6892395,0.0,-0.0,"[174.0, 185.0, 181.0, 156.0, 154.0, 154.0, 156.0, 181.0, 185.0, 174.0]",0.0718504786491394,0.0,0.0001220703125,-9.34600830078125e-05,-27.952011108398438
1743582332.6942508,0.0,-0.0,"[174.0, 185.0, 181.0, 156.0, 154.0, 154.0, 156.0, 181.0, 185.0, 174.0]",0.17569200694561005,0.0,0.0001220703125,-0.000152587890625,-27.955520629882812
1743582332.7273152,0.0,-0.0,"[174.0, 185.0, 181.0, 156.0, 154.0, 154.0, 156.0, 181.0, 185.0, 174.0]",0.13826613128185272,0.0,0.000152587890625,-0.000202178955078125,-27.958290100097656
1743582332.7317626,0.0,-0.0,"[174.0, 185.0, 181.0, 156.0, 154.0, 154.0, 156.0, 181.0, 185.0, 174.0]",0.05745533108711243,0.0,0.000152587890625,-0.000244140625,-27.957138061523438
1743582332.7640388,0.0,-0.0,"[174.0, 185.0, 181.0, 156.0, 154.0, 154.0, 156.0, 181.0, 185.0, 174.0]",0.1775936484336853,0.0,0.000152587890625,-0.000278472900390625,-27.960693359375
1743582332.7668517,0.0,-0.0,"[174.0, 185.0, 181.0, 156.0, 154.0, 154.0, 156.0, 181.0, 185.0, 174.0]",0.14114311337471008,0.0,0.000152587890625,-0.0003032684326171875,-27.963516235351562
1743582332.8084183,0.0,-0.0,"[174.0, 185.0, 181.0, 156.0, 154.0, 154.0, 156.0, 181.0, 185.0, 174.0]",0.034520473331213,0.0,0.000152587890625,-0.0003204345703125,-27.96282196044922
1743582332.8419428,0.0,-0.0,"[174.0, 185.0, 181.0, 156.0, 154.0, 154.0, 156.0, 181.0, 185.0, 174.0]",0.20195074379444122,0.0,0.00018310546875,-0.000331878662109375,-27.96686553955078
1743582332.845552,0.0,-0.0,"[174.0, 185.0, 181.0, 156.0, 154.0, 154.0, 156.0, 181.0, 185.0, 174.0]",0.09901262819766998,0.0,0.00018310546875,-0.000339508056640625,-27.968841552734375
1743582332.8487217,0.0,-0.0,"[174.0, 185.0, 181.0, 156.0, 154.0, 154.0, 156.0, 181.0, 185.0, 174.0]",0.20315459370613098,0.0,0.00018310546875,-0.000339508056640625,-27.96478271484375
1743582332.8814807,0.0,-0.0,"[174.0, 185.0, 181.0, 156.0, 154.0, 154.0, 156.0, 181.0, 185.0, 174.0]",0.09250973165035248,0.0,0.000152587890625,-0.0003376007080078125,-27.962928771972656
1743582332.915413,0.0,-0.0,"[174.0, 185.0, 181.0, 156.0, 154.0, 154.0, 156.0, 181.0, 185.0, 174.0]",0.21048150956630707,0.0,0.00018310546875,-0.000331878662109375,-27.967140197753906
1743582332.9190452,0.0,-0.0,"[174.0, 185.0, 181.0, 156.0, 154.0, 154.0, 156.0, 181.0, 185.0, 174.0]",0.054807256907224655,0.0,0.00018310546875,-0.0003223419189453125,-27.968238830566406
1743582333.0000238,0.0,-0.0,"[174.0, 185.0, 181.0, 156.0, 154.0, 154.0, 156.0, 181.0, 185.0, 174.0]",0.18342110514640808,0.0,0.00018310546875,-0.00031280517578125,-27.964569091796875
1743582333.0029101,0.0,-0.0,"[174.0, 185.0, 181.0, 156.0, 154.0, 154.0, 156.0, 181.0, 185.0, 174.0]",0.14437030255794525,0.0,0.000152587890625,-0.0002994537353515625,-27.961685180664062
1743582333.0058708,0.0,-0.0,"[174.0, 185.0, 181.0, 156.0, 154.0, 154.0, 156.0, 181.0, 185.0, 174.0]",0.010325106792151928,0.0,0.000152587890625,-0.0002880096435546875,-27.961883544921875
1743582333.0088167,0.0,-0.0,"[174.0, 185.0, 181.0, 156.0, 154.0, 154.0, 156.0, 181.0, 185.0, 174.0]",0.08798801898956299,0.0,0.000152587890625,-0.000274658203125,-27.960128784179688
1743582333.040975,0.0,-0.0,"[174.0, 185.0, 181.0, 156.0, 154.0, 154.0, 156.0, 181.0, 185.0, 174.0]",0.2099931389093399,0.0,0.00018310546875,-0.0002613067626953125,-27.964324951171875
1743582333.0447724,0.0,-0.0,"[174.0, 185.0, 181.0, 156.0, 154.0, 154.0, 156.0, 181.0, 185.0, 174.0]",0.05686913803219795,0.0,0.00018310546875,-0.000247955322265625,-27.96546173095703
1743582333.0787158,0.0,-0.0,"[174.0, 185.0, 181.0, 156.0, 154.0, 154.0, 156.0, 181.0, 185.0, 174.0]",0.17966091632843018,0.0,0.00018310546875,-0.0002346038818359375,-27.961868286132812
1743582333.0819266,0.0,-0.0,"[174.0, 185.0, 181.0, 156.0, 154.0, 154.0, 156.0, 181.0, 185.0, 174.0]",0.14235873520374298,0.0,0.000152587890625,-0.0002231597900390625,-27.959022521972656
1743582333.1145275,0.0,-0.0,"[174.0, 185.0, 181.0, 156.0, 154.0, 154.0, 156.0, 181.0, 185.0, 174.0]",0.024575751274824142,0.0,0.000152587890625,-0.000213623046875,-27.959518432617188
1743582333.1186862,0.0,-0.0,"[174.0, 185.0, 181.0, 156.0, 154.0, 154.0, 156.0, 181.0, 185.0, 174.0]",0.1880163848400116,0.0,0.000152587890625,-0.0002040863037109375,-27.95575714111328
1743582333.149458,0.0,-0.0,"[174.0, 185.0, 181.0, 156.0, 154.0, 154.0, 156.0, 181.0, 185.0, 174.0]",0.14146263897418976,0.0,0.000152587890625,-0.000194549560546875,-27.952926635742188
1743582333.1526043,0.0,-0.0,"[174.0, 185.0, 181.0, 156.0, 154.0, 154.0, 156.0, 181.0, 185.0, 174.0]",0.031307123601436615,0.0,0.000152587890625,-0.000186920166015625,-27.95355224609375
1743582333.1829238,0.0,-0.0,"[174.0, 185.0, 181.0, 156.0, 154.0, 154.0, 156.0, 181.0, 185.0, 174.0]",0.19213135540485382,0.0,0.000152587890625,-0.0001811981201171875,-27.94970703125
1743582333.1889179,0.0,-0.0,"[174.0, 185.0, 181.0, 156.0, 154.0, 154.0, 156.0, 181.0, 185.0, 174.0]",0.1337447315454483,0.0,0.0001220703125,-0.00017547607421875,-27.947036743164062
1743582333.220347,0.0,-0.0,"[174.0, 185.0, 181.0, 156.0, 154.0, 154.0, 156.0, 181.0, 185.0, 174.0]",0.09263762831687927,0.0,0.0001220703125,-0.000171661376953125,-27.948883056640625
1743582333.251703,0.0,-0.0,"[174.0, 185.0, 181.0, 156.0, 154.0, 154.0, 156.0, 181.0, 185.0, 174.0]",0.2106226533651352,0.0,0.0001220703125,-0.0001678466796875,-27.944671630859375
1743582333.2552054,0.0,-0.0,"[174.0, 185.0, 181.0, 156.0, 154.0, 154.0, 156.0, 181.0, 185.0, 174.0]",0.053793199360370636,0.0,0.0001220703125,-0.000164031982421875,-27.94359588623047
1743582333.2882414,0.0,-0.0,"[174.0, 185.0, 181.0, 156.0, 154.0, 154.0, 156.0, 181.0, 185.0, 174.0]",0.18583746254444122,0.0,0.0001220703125,-0.0001621246337890625,-27.947311401367188
1743582333.2917469,0.0,-0.0,"[174.0, 185.0, 181.0, 156.0, 154.0, 154.0, 156.0, 181.0, 185.0, 174.0]",0.1430375576019287,0.0,0.0001220703125,-0.0001621246337890625,-27.950180053710938
1743582333.3234947,0.0,-0.0,"[174.0, 185.0, 181.0, 156.0, 154.0, 154.0, 156.0, 181.0, 185.0, 174.0]",0.019723525270819664,0.0,0.0001220703125,-0.0001621246337890625,-27.949783325195312
1743582333.3267713,0.0,-0.0,"[174.0, 185.0, 181.0, 156.0, 154.0, 154.0, 156.0, 181.0, 185.0, 174.0]",0.18836303055286407,0.0,0.0001220703125,-0.0001621246337890625,-27.95355224609375
1743582333.3583767,0.0,-0.0,"[174.0, 185.0, 181.0, 156.0, 154.0, 154.0, 156.0, 181.0, 185.0, 174.0]",0.14051376283168793,0.0,0.0001220703125,-0.0001621246337890625,-27.95635986328125
1743582333.3887093,0.0,-0.0,"[174.0, 185.0, 181.0, 156.0, 154.0, 154.0, 156.0, 181.0, 185.0, 174.0]",0.038770899176597595,0.0,0.000152587890625,-0.0001621246337890625,-27.955581665039062
1743582333.391807,0.0,-0.0,"[174.0, 185.0, 181.0, 156.0, 154.0, 154.0, 156.0, 181.0, 185.0, 174.0]",0.20928703248500824,0.0,0.000152587890625,-0.000164031982421875,-27.95977020263672
1743582333.4240575,0.0,-0.0,"[174.0, 185.0, 181.0, 156.0, 154.0, 154.0, 156.0, 181.0, 185.0, 174.0]",0.0603407584130764,0.0,0.000152587890625,-0.000164031982421875,-27.960975646972656
1743582333.4272044,0.0,-0.0,"[174.0, 185.0, 181.0, 156.0, 154.0, 154.0, 156.0, 181.0, 185.0, 174.0]",0.176280215382576,0.0,0.000152587890625,-0.0001659393310546875,-27.95745086669922
1743582333.4603276,0.0,-0.0,"[174.0, 185.0, 181.0, 156.0, 154.0, 154.0, 156.0, 181.0, 185.0, 174.0]",0.13787387311458588,0.0,0.000152587890625,-0.0001678466796875,-27.954696655273438
1743582333.4927197,0.0,-0.0,"[174.0, 185.0, 181.0, 156.0, 154.0, 154.0, 156.0, 181.0, 185.0, 174.0]",0.059169523417949677,0.0,0.0001220703125,-0.0001697540283203125,-27.95587158203125
1743582333.495603,0.0,-0.0,"[174.0, 185.0, 181.0, 156.0, 154.0, 154.0, 156.0, 181.0, 185.0, 174.0]",0.17614339292049408,0.0,0.0001220703125,-0.000171661376953125,-27.952354431152344
1743582333.526471,0.0,-0.0,"[174.0, 185.0, 181.0, 156.0, 154.0, 154.0, 156.0, 181.0, 185.0, 174.0]",0.13753186166286469,0.0,0.0001220703125,-0.000171661376953125,-27.949600219726562
1743582333.5296845,0.0,-0.0,"[174.0, 185.0, 181.0, 156.0, 154.0, 154.0, 156.0, 181.0, 185.0, 174.0]",0.06201857328414917,0.0,0.0001220703125,-0.0001735687255859375,-27.950843811035156
1743582333.560514,0.0,-0.0,"[174.0, 185.0, 181.0, 156.0, 154.0, 154.0, 156.0, 181.0, 185.0, 174.0]",0.17492681741714478,0.0,0.0001220703125,-0.00017547607421875,-27.947341918945312
1743582333.592709,0.0,-0.0,"[174.0, 185.0, 181.0, 156.0, 154.0, 154.0, 156.0, 181.0, 185.0, 174.0]",0.13515165448188782,0.0,9.1552734375e-05,-0.00017547607421875,-27.94464111328125
1743582333.5955982,0.0,-0.0,"[174.0, 185.0, 181.0, 156.0, 154.0, 154.0, 156.0, 181.0, 185.0, 174.0]",0.08116552978754044,0.0,9.1552734375e-05,-0.0001773834228515625,-27.946266174316406
1743582333.626902,0.0,-0.0,"[174.0, 185.0, 181.0, 156.0, 154.0, 154.0, 156.0, 181.0, 185.0, 174.0]",0.19521167874336243,0.0,9.1552734375e-05,-0.0001773834228515625,-27.942359924316406
1743582333.6300824,0.0,-0.0,"[174.0, 185.0, 181.0, 156.0, 154.0, 154.0, 156.0, 181.0, 185.0, 174.0]",0.1258745640516281,0.0,9.1552734375e-05,-0.000179290771484375,-27.939842224121094
1743582333.667169,0.0,-0.0,"[174.0, 185.0, 181.0, 156.0, 154.0, 154.0, 156.0, 181.0, 185.0, 174.0]",0.14341174066066742,0.0,9.1552734375e-05,-0.000179290771484375,-27.942710876464844
1743582333.6994584,0.0,-0.0,"[174.0, 185.0, 181.0, 156.0, 154.0, 154.0, 156.0, 181.0, 185.0, 174.0]",0.007905163802206516,0.0,9.1552734375e-05,-0.0001811981201171875,-27.942550659179688
1743582333.7032046,0.0,-0.0,"[174.0, 185.0, 181.0, 156.0, 154.0, 154.0, 156.0, 181.0, 185.0, 174.0]",0.05470709130167961,0.0,9.1552734375e-05,-0.0001811981201171875,-27.943649291992188
1743582333.735964,0.0,-0.0,"[174.0, 185.0, 181.0, 156.0, 154.0, 154.0, 156.0, 181.0, 185.0, 174.0]",0.17918594181537628,0.0,9.1552734375e-05,-0.0001811981201171875,-27.9400634765625
1743582333.7391226,0.0,-0.0,"[174.0, 185.0, 181.0, 156.0, 154.0, 154.0, 156.0, 181.0, 185.0, 174.0]",0.14194144308567047,0.0,6.103515625e-05,-0.0001811981201171875,-27.937225341796875
1743582333.7721493,0.0,-0.0,"[174.0, 185.0, 181.0, 156.0, 154.0, 154.0, 156.0, 181.0, 185.0, 174.0]",0.02775217778980732,0.0,6.103515625e-05,-0.0001811981201171875,-27.937782287597656
1743582333.77481,0.0,-0.0,"[174.0, 185.0, 181.0, 156.0, 154.0, 154.0, 156.0, 181.0, 185.0, 174.0]",0.18445590138435364,0.0,6.103515625e-05,-0.0001811981201171875,-27.93408966064453
1743582333.8044755,0.0,-0.0,"[174.0, 185.0, 181.0, 156.0, 154.0, 154.0, 156.0, 181.0, 185.0, 174.0]",0.14395101368427277,0.0,6.103515625e-05,-0.0001811981201171875,-27.93121337890625
1743582333.8083215,0.0,-0.0,"[174.0, 185.0, 181.0, 156.0, 154.0, 154.0, 156.0, 181.0, 185.0, 174.0]",0.013245252892374992,0.0,6.103515625e-05,-0.0001811981201171875,-27.931480407714844
1743582333.8383946,0.0,-0.0,"[174.0, 185.0, 181.0, 156.0, 154.0, 154.0, 156.0, 181.0, 185.0, 174.0]",0.13011495769023895,0.0,6.103515625e-05,-0.0001811981201171875,-27.928878784179688
1743582333.872145,0.0,-0.0,"[174.0, 185.0, 181.0, 156.0, 154.0, 154.0, 156.0, 181.0, 185.0, 174.0]",0.14088380336761475,0.0,6.103515625e-05,-0.0001811981201171875,-27.93169403076172
1743582333.8756683,0.0,-0.0,"[174.0, 185.0, 181.0, 156.0, 154.0, 154.0, 156.0, 181.0, 185.0, 174.0]",0.024702437222003937,0.0,6.103515625e-05,-0.0001811981201171875,-27.931198120117188
1743582333.9077208,0.0,-0.0,"[174.0, 185.0, 181.0, 156.0, 154.0, 154.0, 156.0, 181.0, 185.0, 174.0]",0.1831579953432083,0.0,6.103515625e-05,-0.0001811981201171875,-27.934860229492188
1743582333.9114654,0.0,-0.0,"[174.0, 185.0, 181.0, 156.0, 154.0, 154.0, 156.0, 181.0, 185.0, 174.0]",0.14374779164791107,0.0,6.103515625e-05,-0.0001811981201171875,-27.93773651123047
1743582333.9428906,0.0,-0.0,"[174.0, 185.0, 181.0, 156.0, 154.0, 154.0, 156.0, 181.0, 185.0, 174.0]",0.014733509160578251,0.0,6.103515625e-05,-0.0001811981201171875,-27.93744659423828
1743582333.9463432,0.0,-0.0,"[174.0, 185.0, 181.0, 156.0, 154.0, 154.0, 156.0, 181.0, 185.0, 174.0]",0.15011316537857056,0.0,6.103515625e-05,-0.0001811981201171875,-27.940444946289062
1743582333.9771743,0.0,-0.0,"[174.0, 185.0, 181.0, 156.0, 154.0, 154.0, 156.0, 181.0, 185.0, 174.0]",0.017039312049746513,0.0,6.103515625e-05,-0.0001811981201171875,-27.94078826904297
1743582334.021785,0.0,-0.0,"[174.0, 185.0, 227.0, 295.0, 259.0, 160.0, 295.0, 190.0, 185.0, 174.0]",0.0,0.0,0.0,0.10000038146972656,-27.93000030517578
1743582334.0253782,0.0,-0.0,"[174.0, 185.0, 227.0, 295.0, 259.0, 160.0, 295.0, 190.0, 185.0, 174.0]",0.8976219892501831,0.0,0.0,0.08204841613769531,-27.92999267578125
1743582334.028321,0.0,-0.0,"[174.0, 185.0, 227.0, 295.0, 259.0, 160.0, 295.0, 190.0, 185.0, 174.0]",0.8460828065872192,0.0,0.0,0.06512641906738281,-27.930084228515625
1743582334.0624125,0.0,-0.0,"[174.0, 185.0, 179.0, 155.0, 154.0, 154.0, 156.0, 181.0, 185.0, 174.0]",0.8094519376754761,0.0,0.0,0.049468994140625,-27.92596435546875
1743582334.0946255,0.0,-0.0,"[174.0, 185.0, 179.0, 156.0, 154.0, 154.0, 156.0, 181.0, 185.0, 174.0]",0.7673646807670593,0.0,0.0,0.03524208068847656,-27.920211791992188
1743582334.0979438,0.0,-0.0,"[174.0, 185.0, 179.0, 156.0, 154.0, 154.0, 156.0, 181.0, 185.0, 174.0]",0.711437463760376,0.0,0.0,0.022546768188476562,-27.9266357421875
1743582334.1291084,0.0,-0.0,"[174.0, 185.0, 180.0, 156.0, 154.0, 154.0, 156.0, 181.0, 185.0, 174.0]",0.6412519812583923,0.0,0.0,0.0114288330078125,-27.920242309570312
1743582334.1329808,0.0,-0.0,"[174.0, 185.0, 180.0, 156.0, 154.0, 154.0, 156.0, 181.0, 185.0, 174.0]",0.5651306509971619,0.0,0.0,0.001895904541015625,-27.926315307617188
1743582334.1639147,0.0,-0.0,"[174.0, 185.0, 181.0, 156.0, 154.0, 155.0, 158.0, 181.0, 185.0, 174.0]",0.4801025390625,0.0,0.0,-0.006092071533203125,-27.920982360839844
1743582334.1675441,0.0,-0.0,"[174.0, 185.0, 181.0, 156.0, 154.0, 155.0, 158.0, 181.0, 185.0, 174.0]",0.3472639322280884,0.0,0.0,-0.012601852416992188,-27.92340850830078
1743582334.2003825,0.0,-0.0,"[174.0, 185.0, 181.0, 156.0, 154.0, 155.0, 158.0, 183.0, 185.0, 174.0]",0.31810128688812256,0.0,0.0,-0.01772308349609375,-27.919631958007812
1743582334.2314587,0.0,-0.0,"[174.0, 185.0, 181.0, 156.0, 154.0, 155.0, 158.0, 183.0, 185.0, 174.0]",0.29511532187461853,0.0,0.0,-0.02156829833984375,-27.91515350341797
1743582334.2363622,0.0,-0.0,"[174.0, 185.0, 181.0, 156.0, 154.0, 155.0, 158.0, 183.0, 185.0, 174.0]",0.16257894039154053,0.0,-3.0517578125e-05,-0.024255752563476562,-27.91332244873047
1743582334.270107,0.0,-0.0,"[174.0, 185.0, 181.0, 156.0, 154.0, 154.0, 158.0, 183.0, 185.0, 174.0]",0.261340856552124,0.0,-3.0517578125e-05,-0.025915145874023438,-27.91827392578125
1743582334.273512,0.0,-0.0,"[174.0, 185.0, 181.0, 156.0, 154.0, 154.0, 158.0, 183.0, 185.0, 174.0]",0.24471676349639893,0.0,0.0,-0.02667999267578125,-27.91344451904297
1743582334.3048935,0.0,-0.0,"[174.0, 185.0, 181.0, 156.0, 154.0, 154.0, 158.0, 183.0, 185.0, 174.0]",0.15434511005878448,0.0,-3.0517578125e-05,-0.026681900024414062,-27.916534423828125
1743582334.3077815,0.0,-0.0,"[174.0, 185.0, 181.0, 156.0, 154.0, 154.0, 158.0, 183.0, 185.0, 174.0]",0.08421114832162857,0.0,-3.0517578125e-05,-0.0260467529296875,-27.9180908203125
1743582334.3392477,0.0,-0.0,"[174.0, 185.0, 181.0, 156.0, 154.0, 154.0, 158.0, 183.0, 185.0, 174.0]",0.19078901410102844,0.0,-3.0517578125e-05,-0.024898529052734375,-27.914451599121094
1743582334.370525,0.0,-0.0,"[174.0, 185.0, 181.0, 156.0, 154.0, 154.0, 158.0, 183.0, 185.0, 174.0]",0.23239067196846008,0.0,-3.0517578125e-05,-0.023349761962890625,-27.910064697265625
1743582334.3739731,0.0,-0.0,"[174.0, 185.0, 181.0, 156.0, 154.0, 154.0, 158.0, 183.0, 185.0, 174.0]",0.09739702939987183,0.0,-3.0517578125e-05,-0.021505355834960938,-27.909439086914062
1743582334.4045882,0.0,-0.0,"[174.0, 185.0, 181.0, 156.0, 154.0, 154.0, 156.0, 181.0, 185.0, 174.0]",0.24237948656082153,0.0,-3.0517578125e-05,-0.019458770751953125,-27.913833618164062
1743582334.4088602,0.0,-0.0,"[174.0, 185.0, 181.0, 156.0, 154.0, 154.0, 156.0, 181.0, 185.0, 174.0]",0.11015372723340988,0.0,-3.0517578125e-05,-0.017292022705078125,-27.91423797607422
1743582334.4389012,0.0,-0.0,"[174.0, 185.0, 181.0, 156.0, 154.0, 154.0, 156.0, 181.0, 185.0, 174.0]",0.23305350542068481,0.0,-3.0517578125e-05,-0.015077590942382812,-27.910133361816406
1743582334.472297,0.0,-0.0,"[174.0, 185.0, 180.0, 156.0, 154.0, 154.0, 156.0, 181.0, 185.0, 174.0]",0.1361142098903656,0.0,-3.0517578125e-05,-0.012876510620117188,-27.908531188964844
1743582334.4756708,0.0,-0.0,"[174.0, 185.0, 180.0, 156.0, 154.0, 154.0, 156.0, 181.0, 185.0, 174.0]",0.21576198935508728,0.0,-3.0517578125e-05,-0.010740280151367188,-27.91228485107422
1743582334.5063646,0.0,-0.0,"[174.0, 185.0, 180.0, 156.0, 154.0, 154.0, 156.0, 181.0, 185.0, 174.0]",0.16198377311229706,0.0,-3.0517578125e-05,-0.008707046508789062,-27.914810180664062
1743582334.5110276,0.0,-0.0,"[174.0, 185.0, 180.0, 156.0, 154.0, 154.0, 156.0, 181.0, 185.0, 174.0]",0.15972542762756348,0.0,-3.0517578125e-05,-0.0068111419677734375,-27.9122314453125
1743582334.5179102,0.0,-0.0,"[174.0, 185.0, 180.0, 156.0, 154.0, 154.0, 156.0, 181.0, 185.0, 174.0]",0.14986492693424225,0.0,-3.0517578125e-05,-0.0050716400146484375,-27.9146728515625
1743582334.5210948,0.0,-0.0,"[174.0, 185.0, 180.0, 156.0, 154.0, 154.0, 156.0, 181.0, 185.0, 174.0]",0.17957325279712677,0.0,-3.0517578125e-05,-0.0035076141357421875,-27.91144561767578
1743582334.5377045,0.0,-0.0,"[174.0, 185.0, 180.0, 156.0, 154.0, 154.0, 156.0, 181.0, 185.0, 174.0]",0.09461802244186401,0.0,-3.0517578125e-05,-0.002124786376953125,-27.91015625
1743582334.5571365,0.0,-0.0,"[174.0, 185.0, 180.0, 156.0, 154.0, 154.0, 156.0, 181.0, 185.0, 174.0]",0.18503239750862122,0.0,-3.0517578125e-05,-0.000926971435546875,-27.913650512695312
1743582334.5760357,0.0,-0.0,"[174.0, 185.0, 180.0, 156.0, 154.0, 154.0, 156.0, 181.0, 185.0, 174.0]",0.11827053129673004,0.0,-3.0517578125e-05,8.7738037109375e-05,-27.915786743164062
1743582334.5960069,0.0,-0.0,"[174.0, 185.0, 180.0, 156.0, 154.0, 154.0, 156.0, 181.0, 185.0, 174.0]",0.18897323310375214,0.0,-3.0517578125e-05,0.000926971435546875,-27.912109375
1743582334.61728,0.0,-0.0,"[174.0, 185.0, 180.0, 156.0, 154.0, 154.0, 156.0, 181.0, 185.0, 174.0]",0.12071742117404938,0.0,-3.0517578125e-05,0.0016002655029296875,-27.9097900390625
1743582334.6367075,0.0,-0.0,"[174.0, 185.0, 180.0, 156.0, 154.0, 154.0, 156.0, 181.0, 185.0, 174.0]",0.1765059232711792,0.0,-3.0517578125e-05,0.002117156982421875,-27.91327667236328
1743582334.657079,0.0,-0.0,"[174.0, 185.0, 180.0, 156.0, 154.0, 154.0, 156.0, 181.0, 185.0, 174.0]",0.11352798342704773,0.0,-3.0517578125e-05,0.0024929046630859375,-27.91551971435547
1743582334.6758323,0.0,-0.0,"[174.0, 185.0, 180.0, 156.0, 154.0, 154.0, 156.0, 181.0, 185.0, 174.0]",0.18547511100769043,0.0,-3.0517578125e-05,0.002742767333984375,-27.911819458007812
1743582334.6959915,0.0,-0.0,"[174.0, 185.0, 180.0, 156.0, 154.0, 154.0, 156.0, 181.0, 185.0, 174.0]",0.1242007240653038,0.0,-3.0517578125e-05,0.002880096435546875,-27.909339904785156
1743582334.716367,0.0,-0.0,"[174.0, 185.0, 180.0, 156.0, 154.0, 154.0, 156.0, 181.0, 185.0, 174.0]",0.14548824727535248,0.0,-3.0517578125e-05,0.00292205810546875,-27.912246704101562
1743582334.736804,0.0,-0.0,"[174.0, 185.0, 180.0, 156.0, 154.0, 154.0, 156.0, 181.0, 185.0, 174.0]",0.0019791806116700172,0.0,-3.0517578125e-05,0.0028820037841796875,-27.912246704101562
1743582334.7558024,0.0,-0.0,"[174.0, 185.0, 180.0, 156.0, 154.0, 154.0, 156.0, 181.0, 185.0, 174.0]",0.0053156716749072075,0.0,-3.0517578125e-05,0.002777099609375,-27.912246704101562
1743582334.7764544,0.0,-0.0,"[174.0, 185.0, 180.0, 156.0, 154.0, 154.0, 156.0, 181.0, 185.0, 174.0]",0.008013554848730564,0.0,-3.0517578125e-05,0.00261688232421875,-27.912261962890625
1743582334.7959852,0.0,-0.0,"[174.0, 185.0, 180.0, 156.0, 154.0, 154.0, 156.0, 181.0, 185.0, 174.0]",0.010429360903799534,0.0,-3.0517578125e-05,0.00241851806640625,-27.912200927734375
1743582334.8166962,0.0,-0.0,"[174.0, 185.0, 180.0, 156.0, 154.0, 154.0, 156.0, 181.0, 185.0, 174.0]",0.016414238139986992,0.0,-3.0517578125e-05,0.00218963623046875,-27.912437438964844
1743582334.8364885,0.0,-0.0,"[174.0, 185.0, 180.0, 156.0, 154.0, 154.0, 156.0, 181.0, 185.0, 174.0]",0.11179301142692566,0.0,-3.0517578125e-05,0.0019435882568359375,-27.91021728515625
1743582334.857653,0.0,-0.0,"[174.0, 185.0, 180.0, 156.0, 154.0, 154.0, 156.0, 181.0, 185.0, 174.0]",0.1797531396150589,0.0,-3.0517578125e-05,0.0016880035400390625,-27.913803100585938
1743582334.8758812,0.0,-0.0,"[174.0, 185.0, 180.0, 156.0, 154.0, 154.0, 156.0, 181.0, 185.0, 174.0]",0.14129705727100372,0.0,-3.0517578125e-05,0.001430511474609375,-27.916610717773438
1743582334.8967247,0.0,-0.0,"[174.0, 185.0, 180.0, 156.0, 154.0, 154.0, 156.0, 181.0, 185.0, 174.0]",0.039849746972322464,0.0,-3.0517578125e-05,0.0011768341064453125,-27.915863037109375
1743582334.9158878,0.0,-0.0,"[174.0, 185.0, 181.0, 156.0, 154.0, 154.0, 156.0, 181.0, 185.0, 174.0]",0.2099645882844925,0.0,-3.0517578125e-05,0.000934600830078125,-27.92005157470703
1743582334.9363067,0.0,-0.0,"[174.0, 185.0, 181.0, 156.0, 154.0, 154.0, 156.0, 181.0, 185.0, 174.0]",0.06152380257844925,0.0,0.0,0.000705718994140625,-27.9212646484375
1743582334.9559708,0.0,-0.0,"[174.0, 185.0, 180.0, 156.0, 154.0, 154.0, 156.0, 181.0, 185.0, 174.0]",0.1765390783548355,0.0,0.0,0.0004940032958984375,-27.917739868164062
1743582334.976298,0.0,-0.0,"[174.0, 185.0, 180.0, 156.0, 154.0, 154.0, 156.0, 181.0, 185.0, 174.0]",0.14102593064308167,0.0,-3.0517578125e-05,0.000301361083984375,-27.91492462158203
1743582334.9961362,0.0,-0.0,"[174.0, 185.0, 180.0, 156.0, 154.0, 154.0, 156.0, 181.0, 185.0, 174.0]",0.040125418454408646,0.0,-3.0517578125e-05,0.00012969970703125,-27.91571044921875
1743582335.0164099,0.0,-0.0,"[174.0, 185.0, 180.0, 156.0, 154.0, 154.0, 156.0, 181.0, 185.0, 174.0]",0.21206386387348175,0.0,-3.0517578125e-05,-2.09808349609375e-05,-27.911468505859375
1743582335.0364308,0.0,-0.0,"[174.0, 185.0, 180.0, 156.0, 154.0, 154.0, 156.0, 181.0, 185.0, 174.0]",0.049967747181653976,0.0,-3.0517578125e-05,-0.0001506805419921875,-27.910476684570312
1743582335.0574033,0.0,-0.0,"[174.0, 185.0, 180.0, 156.0, 154.0, 154.0, 156.0, 181.0, 185.0, 174.0]",0.19691865146160126,0.0,-3.0517578125e-05,-0.0002593994140625,-27.914413452148438
1743582335.0758557,0.0,-0.0,"[174.0, 185.0, 180.0, 156.0, 154.0, 154.0, 156.0, 181.0, 185.0, 174.0]",0.12345915287733078,0.0,-3.0517578125e-05,-0.000347137451171875,-27.916885375976562
1743582335.0955143,0.0,-0.0,"[174.0, 185.0, 180.0, 156.0, 154.0, 154.0, 156.0, 181.0, 185.0, 174.0]",0.1548546552658081,0.0,-3.0517578125e-05,-0.000415802001953125,-27.913787841796875
1743582335.1163535,0.0,-0.0,"[174.0, 185.0, 180.0, 156.0, 154.0, 154.0, 156.0, 181.0, 185.0, 174.0]",0.04360127076506615,0.0,-3.0517578125e-05,-0.000469207763671875,-27.912918090820312
1743582335.1360464,0.0,-0.0,"[174.0, 185.0, 180.0, 156.0, 154.0, 154.0, 156.0, 181.0, 185.0, 174.0]",0.21102161705493927,0.0,-3.0517578125e-05,-0.0005054473876953125,-27.917137145996094
1743582335.1565118,0.0,-0.0,"[174.0, 185.0, 180.0, 156.0, 154.0, 154.0, 156.0, 181.0, 185.0, 174.0]",0.05328965559601784,0.0,-3.0517578125e-05,-0.0005283355712890625,-27.91820526123047
1743582335.1771286,0.0,-0.0,"[174.0, 185.0, 180.0, 156.0, 154.0, 154.0, 156.0, 181.0, 185.0, 174.0]",0.18688687682151794,0.0,-3.0517578125e-05,-0.0005397796630859375,-27.914466857910156
1743582335.1967363,0.0,-0.0,"[174.0, 185.0, 180.0, 156.0, 154.0, 154.0, 156.0, 181.0, 185.0, 174.0]",0.14444494247436523,0.0,-3.0517578125e-05,-0.0005397796630859375,-27.911575317382812
1743582335.2170327,0.0,-0.0,"[174.0, 185.0, 180.0, 156.0, 154.0, 154.0, 156.0, 181.0, 185.0, 174.0]",0.010223053395748138,0.0,-3.0517578125e-05,-0.000530242919921875,-27.911781311035156
1743582335.2365246,0.0,-0.0,"[174.0, 185.0, 180.0, 156.0, 154.0, 154.0, 156.0, 181.0, 185.0, 174.0]",0.08806965500116348,0.0,-3.0517578125e-05,-0.000514984130859375,-27.910018920898438
1743582335.256876,0.0,-0.0,"[174.0, 185.0, 180.0, 156.0, 154.0, 154.0, 156.0, 181.0, 185.0, 174.0]",0.2104502022266388,0.0,-3.0517578125e-05,-0.00049591064453125,-27.914230346679688
1743582335.2756534,0.0,-0.0,"[174.0, 185.0, 180.0, 156.0, 154.0, 154.0, 156.0, 181.0, 185.0, 174.0]",0.055038172751665115,0.0,-3.0517578125e-05,-0.0004711151123046875,-27.915328979492188
1743582335.2962978,0.0,-0.0,"[174.0, 185.0, 180.0, 156.0, 154.0, 154.0, 156.0, 181.0, 185.0, 174.0]",0.1828291416168213,0.0,-3.0517578125e-05,-0.0004425048828125,-27.91167449951172
1743582335.3163917,0.0,-0.0,"[174.0, 185.0, 180.0, 156.0, 154.0, 154.0, 156.0, 181.0, 185.0, 174.0]",0.1445477455854416,0.0,-3.0517578125e-05,-0.0004138946533203125,-27.908782958984375
1743582335.3361344,0.0,-0.0,"[174.0, 185.0, 180.0, 156.0, 154.0, 154.0, 156.0, 181.0, 185.0, 174.0]",0.009254055097699165,0.0,-3.0517578125e-05,-0.0003833770751953125,-27.908966064453125
1743582335.3565507,0.0,-0.0,"[174.0, 185.0, 180.0, 156.0, 154.0, 154.0, 156.0, 181.0, 185.0, 174.0]",0.07212355732917786,0.0,-3.0517578125e-05,-0.000354766845703125,-27.90752410888672
1743582335.376067,0.0,-0.0,"[174.0, 185.0, 180.0, 156.0, 154.0, 154.0, 156.0, 181.0, 185.0, 174.0]",0.17495161294937134,0.0,-3.0517578125e-05,-0.0003261566162109375,-27.91101837158203
1743582335.3963661,0.0,-0.0,"[174.0, 185.0, 180.0, 156.0, 154.0, 154.0, 156.0, 181.0, 185.0, 174.0]",0.13515342772006989,0.0,0.0,-0.00029754638671875,-27.913726806640625
1743582335.4186568,0.0,-0.0,"[174.0, 185.0, 180.0, 156.0, 154.0, 154.0, 156.0, 181.0, 185.0, 174.0]",0.08091963827610016,0.0,0.0,-0.0002727508544921875,-27.912109375
1743582335.436845,0.0,-0.0,"[174.0, 185.0, 180.0, 156.0, 154.0, 154.0, 156.0, 181.0, 185.0, 174.0]",0.19449301064014435,0.0,0.0,-0.000247955322265625,-27.915992736816406
1743582335.457117,0.0,-0.0,"[174.0, 185.0, 180.0, 156.0, 154.0, 154.0, 156.0, 181.0, 185.0, 174.0]",0.12773413956165314,0.0,0.0,-0.0002269744873046875,-27.918548583984375
1743582335.4757826,0.0,-0.0,"[174.0, 185.0, 180.0, 156.0, 154.0, 154.0, 156.0, 181.0, 185.0, 174.0]",0.13368020951747894,0.0,0.0,-0.0002079010009765625,-27.915878295898438
1743582335.496259,0.0,-0.0,"[174.0, 185.0, 180.0, 156.0, 154.0, 154.0, 156.0, 181.0, 185.0, 174.0]",0.09142257273197174,0.0,3.0517578125e-05,-0.0001926422119140625,-27.917701721191406
1743582335.5159538,0.0,-0.0,"[174.0, 185.0, 180.0, 156.0, 154.0, 154.0, 156.0, 181.0, 185.0, 174.0]",0.2105167955160141,0.0,3.0517578125e-05,-0.0001773834228515625,-27.913497924804688
1743582335.5355618,0.0,-0.0,"[174.0, 185.0, 180.0, 156.0, 154.0, 154.0, 156.0, 181.0, 185.0, 174.0]",0.054182760417461395,0.0,0.0,-0.0001659393310546875,-27.91241455078125
1743582335.5555823,0.0,-0.0,"[174.0, 185.0, 180.0, 156.0, 154.0, 154.0, 156.0, 181.0, 185.0, 174.0]",0.1849704086780548,0.0,0.0,-0.000156402587890625,-27.916107177734375
1743582335.5758421,0.0,-0.0,"[174.0, 185.0, 181.0, 156.0, 154.0, 154.0, 156.0, 181.0, 185.0, 174.0]",0.14326120913028717,0.0,3.0517578125e-05,-0.0001506805419921875,-27.918975830078125
1743582335.5961313,0.0,-0.0,"[174.0, 185.0, 181.0, 156.0, 154.0, 154.0, 156.0, 181.0, 185.0, 174.0]",0.018022170290350914,0.0,3.0517578125e-05,-0.00014495849609375,-27.918617248535156
1743582335.6161118,0.0,-0.0,"[174.0, 185.0, 181.0, 156.0, 154.0, 154.0, 156.0, 181.0, 185.0, 174.0]",0.18143612146377563,0.0,3.0517578125e-05,-0.000141143798828125,-27.9222412109375
1743582335.6371813,0.0,-0.0,"[174.0, 185.0, 181.0, 156.0, 154.0, 154.0, 156.0, 181.0, 185.0, 174.0]",0.14340098202228546,0.0,3.0517578125e-05,-0.0001392364501953125,-27.92510986328125
1743582335.656851,0.0,-0.0,"[174.0, 185.0, 181.0, 156.0, 154.0, 154.0, 156.0, 181.0, 185.0, 174.0]",0.016789887100458145,0.0,3.0517578125e-05,-0.0001373291015625,-27.924774169921875
1743582335.676204,0.0,-0.0,"[174.0, 185.0, 181.0, 156.0, 154.0, 154.0, 156.0, 181.0, 185.0, 174.0]",0.17307929694652557,0.0,3.0517578125e-05,-0.0001392364501953125,-27.928237915039062
1743582335.6961432,0.0,-0.0,"[174.0, 185.0, 181.0, 156.0, 154.0, 154.0, 156.0, 181.0, 185.0, 174.0]",0.13238297402858734,0.0,3.0517578125e-05,-0.0001392364501953125,-27.930885314941406
1743582335.7194736,0.0,-0.0,"[174.0, 185.0, 181.0, 156.0, 154.0, 154.0, 156.0, 181.0, 185.0, 174.0]",0.10273656249046326,0.0,3.0517578125e-05,-0.000141143798828125,-27.9288330078125
1743582335.7372305,0.0,-0.0,"[174.0, 185.0, 181.0, 156.0, 154.0, 154.0, 156.0, 181.0, 185.0, 174.0]",0.1996094286441803,0.0,3.0517578125e-05,-0.00014495849609375,-27.932823181152344
1743582335.75799,0.0,-0.0,"[174.0, 185.0, 181.0, 156.0, 154.0, 154.0, 156.0, 181.0, 185.0, 174.0]",0.11018221825361252,0.0,6.103515625e-05,-0.0001468658447265625,-27.935028076171875
1743582335.7774277,0.0,-0.0,"[174.0, 185.0, 181.0, 156.0, 154.0, 154.0, 156.0, 181.0, 185.0, 174.0]",0.19195756316184998,0.0,6.103515625e-05,-0.0001506805419921875,-27.931182861328125
1743582335.7979848,0.0,-0.0,"[174.0, 185.0, 181.0, 156.0, 154.0, 154.0, 156.0, 181.0, 185.0, 174.0]",0.1350511908531189,0.0,3.0517578125e-05,-0.0001544952392578125,-27.928482055664062
1743582335.8226068,0.0,-0.0,"[174.0, 185.0, 181.0, 156.0, 154.0, 154.0, 156.0, 181.0, 185.0, 174.0]",0.08220774680376053,0.0,3.0517578125e-05,-0.000156402587890625,-27.930130004882812
1743582335.83799,0.0,-0.0,"[174.0, 185.0, 181.0, 156.0, 154.0, 154.0, 156.0, 181.0, 185.0, 174.0]",0.19800075888633728,0.0,3.0517578125e-05,-0.00016021728515625,-27.926170349121094
1743582335.8581784,0.0,-0.0,"[174.0, 185.0, 181.0, 156.0, 154.0, 154.0, 156.0, 181.0, 185.0, 174.0]",0.11603039503097534,0.0,3.0517578125e-05,-0.000164031982421875,-27.923851013183594
1743582335.8773751,0.0,-0.0,"[174.0, 185.0, 181.0, 156.0, 154.0, 154.0, 156.0, 181.0, 185.0, 174.0]",0.18607132136821747,0.0,3.0517578125e-05,-0.0001678466796875,-27.927566528320312
1743582335.8972173,0.0,-0.0,"[174.0, 185.0, 181.0, 156.0, 154.0, 154.0, 156.0, 181.0, 185.0, 174.0]",0.14306074380874634,0.0,3.0517578125e-05,-0.0001697540283203125,-27.930435180664062
1743582335.9178598,0.0,0.2093908040643994,"[174.0, 185.0, 181.0, 156.0, 154.0, 154.0, 156.0, 181.0, 185.0, 174.0]",0.01964901201426983,0.0,3.0517578125e-05,-0.000171661376953125,-27.930038452148438
1743582335.9371164,0.0,0.33336426483552173,"[174.0, 185.0, 181.0, 156.0, 154.0, 154.0, 156.0, 181.0, 185.0, 174.0]",0.1880667358636856,0.0,3.0517578125e-05,-0.00017547607421875,-27.933799743652344
1743582335.958784,0.0,0.47812369507725144,"[174.0, 185.0, 181.0, 156.0, 154.0, 154.0, 156.0, 181.0, 185.0, 174.0]",0.1294924020767212,0.0,0.0,-0.0001773834228515625,-27.936386108398438
1743582335.9788957,0.0,0.9317032431680045,"[174.0, 185.0, 181.0, 156.0, 154.0, 154.0, 156.0, 181.0, 185.0, 174.0]",0.11138739436864853,0.0,-0.0013427734375,-0.000179290771484375,-27.934593200683594
1743582335.9982748,0.0,0.9317032431680045,"[174.0, 185.0, 181.0, 156.0, 154.0, 154.0, 156.0, 181.0, 185.0, 174.0]",0.2265985608100891,0.0,-0.00579833984375,-0.000179290771484375,-27.93383026123047
1743582336.0186856,0.0,1.0423142949937363,"[174.0, 185.0, 181.0, 156.0, 154.0, 154.0, 156.0, 181.0, 185.0, 174.0]",0.3678695559501648,0.0,-0.013153076171875,-0.0001811981201171875,-27.933860778808594
1743582336.0391564,0.0,1.0423142949937363,"[174.0, 185.0, 181.0, 156.0, 154.0, 154.0, 156.0, 181.0, 185.0, 174.0]",0.4844816029071808,0.0,-0.0228271484375,-0.00018310546875,-27.933624267578125
1743582336.0592675,0.0,1.0423142949937363,"[174.0, 185.0, 181.0, 156.0, 154.0, 154.0, 156.0, 181.0, 185.0, 174.0]",0.5951551795005798,0.0,-0.03472900390625,-0.00018310546875,-27.93340301513672
1743582336.0777333,0.0,1.0423142949937363,"[174.0, 185.0, 181.0, 156.0, 154.0, 154.0, 156.0, 181.0, 185.0, 174.0]",0.7113991379737854,0.0,-0.048980712890625,-0.00018310546875,-27.9334716796875
1743582336.097026,0.0,1.0423142949937363,"[174.0, 185.0, 181.0, 156.0, 154.0, 154.0, 156.0, 181.0, 185.0, 174.0]",0.8527953624725342,0.0,-0.0660400390625,-0.0001850128173828125,-27.933502197265625
1743582336.1184225,0.0,1.0423142949937363,"[174.0, 185.0, 181.0, 156.0, 154.0, 154.0, 156.0, 181.0, 185.0, 174.0]",1.0139241218566895,0.0,-0.0863037109375,-0.0001850128173828125,-27.93354034423828
1743582336.1372313,0.0,1.0423142949937363,"[174.0, 185.0, 181.0, 156.0, 154.0, 154.0, 156.0, 181.0, 185.0, 174.0]",1.1010558605194092,0.0,-0.10833740234375,-0.0001850128173828125,-27.933578491210938
1743582336.158121,0.0,1.0423142949937363,"[174.0, 185.0, 181.0, 156.0, 154.0, 154.0, 156.0, 181.0, 185.0, 174.0]",1.2623010873794556,0.0,-0.133575439453125,-0.0001850128173828125,-27.933609008789062
1743582336.179178,0.0,1.0423142949937363,"[174.0, 185.0, 181.0, 156.0, 154.0, 154.0, 156.0, 181.0, 185.0, 174.0]",1.4163659811019897,0.0,-0.161895751953125,-0.0001850128173828125,-27.933631896972656
1743582336.1988025,0.0,1.0423142949937363,"[174.0, 185.0, 181.0, 156.0, 154.0, 154.0, 156.0, 181.0, 185.0, 174.0]",1.5431057214736938,0.0,-0.1927490234375,-0.0001850128173828125,-27.93366241455078
1743582336.2212567,0.0,1.0423142949937363,"[174.0, 185.0, 181.0, 156.0, 154.0, 154.0, 156.0, 181.0, 185.0, 174.0]",1.6718255281448364,0.0,-0.2261962890625,-0.0001850128173828125,-27.933685302734375
1743582336.2383926,0.0,1.0423142949937363,"[174.0, 185.0, 181.0, 156.0, 154.0, 154.0, 156.0, 181.0, 185.0, 174.0]",1.8313984870910645,0.0,-0.2628173828125,-0.0001850128173828125,-27.93370819091797
1743582336.2588606,0.0,1.0423142949937363,"[174.0, 185.0, 181.0, 156.0, 154.0, 154.0, 156.0, 181.0, 185.0, 174.0]",1.951121211051941,0.0,-0.301849365234375,-0.00018310546875,-27.933731079101562
1743582336.2788677,0.0,1.0423142949937363,"[174.0, 185.0, 181.0, 156.0, 154.0, 154.0, 156.0, 181.0, 185.0, 174.0]",2.077937126159668,0.0,-0.343414306640625,-0.00018310546875,-27.93376922607422
1743582336.2983744,0.0,1.0423142949937363,"[174.0, 185.0, 181.0, 156.0, 154.0, 154.0, 156.0, 181.0, 185.0, 174.0]",2.2501282691955566,0.0,-0.388397216796875,-0.00018310546875,-27.933822631835938
1743582336.3175445,0.0,1.0423142949937363,"[174.0, 185.0, 181.0, 156.0, 154.0, 154.0, 156.0, 181.0, 185.0, 174.0]",2.3641114234924316,0.0,-0.435699462890625,-0.00018310546875,-27.93389129638672
1743582336.3385487,0.0,1.0390200900106714,"[174.0, 185.0, 181.0, 156.0, 154.0, 154.0, 156.0, 181.0, 185.0, 174.0]",2.497342824935913,0.0,-0.485626220703125,-0.00018310546875,-27.9339599609375
1743582336.358638,0.0,1.0390200900106714,"[174.0, 185.0, 181.0, 156.0, 154.0, 154.0, 156.0, 181.0, 185.0, 174.0]",2.6055665016174316,0.0,-0.537750244140625,-0.00018310546875,-27.93402862548828
1743582336.3774898,0.0,1.0390200900106714,"[174.0, 185.0, 181.0, 156.0, 154.0, 154.0, 156.0, 181.0, 185.0, 174.0]",2.7693870067596436,0.0,-0.5931396484375,-0.00018310546875,-27.934104919433594
1743582336.397558,0.0,1.0390200900106714,"[174.0, 185.0, 181.0, 156.0, 154.0, 154.0, 156.0, 181.0, 185.0, 174.0]",2.9107141494750977,0.0,-0.6513671875,-0.0001811981201171875,-27.934173583984375
1743582336.4216793,0.0,1.0390200900106714,"[174.0, 185.0, 181.0, 156.0, 154.0, 154.0, 156.0, 181.0, 185.0, 174.0]",2.9898312091827393,0.0,-0.711151123046875,-0.0001811981201171875,-27.934249877929688
1743582336.4377172,0.0,1.0390200900106714,"[174.0, 185.0, 181.0, 156.0, 154.0, 154.0, 156.0, 181.0, 185.0, 174.0]",3.187912940979004,0.0,-0.77490234375,-0.0001811981201171875,-27.934326171875
1743582336.458925,0.0,1.0390200900106714,"[174.0, 185.0, 181.0, 156.0, 154.0, 154.0, 156.0, 181.0, 185.0, 174.0]",3.28303599357605,0.0,-0.840576171875,-0.0001811981201171875,-27.934417724609375
1743582336.478965,0.0,1.0390200900106714,"[174.0, 185.0, 181.0, 156.0, 154.0, 154.0, 156.0, 181.0, 185.0, 174.0]",3.4112322330474854,0.0,-0.908782958984375,-0.0001811981201171875,-27.93450927734375
1743582336.4976838,0.0,1.0390200900106714,"[174.0, 185.0, 181.0, 156.0, 154.0, 154.0, 156.0, 181.0, 185.0, 174.0]",3.5667426586151123,0.0,-0.980133056640625,-0.0001811981201171875,-27.934616088867188
1743582336.5177395,0.0,1.0390200900106714,"[174.0, 185.0, 181.0, 156.0, 154.0, 154.0, 156.0, 181.0, 185.0, 174.0]",3.687232732772827,0.0,-1.053863525390625,-0.0001811981201171875,-27.934722900390625
1743582336.5389764,0.0,1.0390200900106714,"[174.0, 185.0, 181.0, 156.0, 154.0, 154.0, 156.0, 181.0, 185.0, 174.0]",3.8357319831848145,0.0,-1.130584716796875,-0.0001811981201171875,-27.934829711914062
1743582336.5587354,0.0,1.0374425833990628,"[174.0, 185.0, 181.0, 156.0, 154.0, 154.0, 156.0, 181.0, 185.0, 174.0]",3.9379830360412598,0.0,-1.2093505859375,-0.0001811981201171875,-27.9349365234375
1743582336.578009,0.0,1.0374425833990628,"[174.0, 185.0, 181.0, 156.0, 154.0, 154.0, 156.0, 181.0, 185.0, 174.0]",4.074553489685059,0.0,-1.29083251953125,-0.0001811981201171875,-27.935043334960938
1743582336.5981786,0.0,1.0374425833990628,"[174.0, 185.0, 181.0, 156.0, 154.0, 154.0, 156.0, 181.0, 185.0, 174.0]",4.230821132659912,0.0,-1.375457763671875,-0.0001811981201171875,-27.935165405273438
1743582336.619977,0.0,1.0374425833990628,"[174.0, 185.0, 181.0, 156.0, 154.0, 154.0, 156.0, 181.0, 185.0, 174.0]",4.341459274291992,0.0,-1.4622802734375,-0.0001811981201171875,-27.935272216796875
1743582336.6381793,0.0,1.0374425833990628,"[174.0, 185.0, 181.0, 156.0, 154.0, 154.0, 156.0, 181.0, 185.0, 174.0]",4.474686622619629,0.0,-1.551788330078125,-0.0001811981201171875,-27.935401916503906
1743582336.6590948,0.0,1.0374425833990628,"[174.0, 185.0, 181.0, 156.0, 154.0, 154.0, 156.0, 181.0, 185.0, 174.0]",4.6071014404296875,0.0,-1.6439208984375,-0.0001811981201171875,-27.935523986816406
1743582336.6794348,0.0,1.0374425833990628,"[174.0, 185.0, 181.0, 156.0, 154.0, 154.0, 156.0, 181.0, 185.0, 174.0]",4.748541355133057,0.0,-1.7388916015625,-0.0001811981201171875,-27.935653686523438
1743582336.698876,0.0,1.0374425833990628,"[174.0, 185.0, 181.0, 156.0, 154.0, 154.0, 156.0, 181.0, 185.0, 174.0]",4.8739190101623535,0.0,-1.83636474609375,-0.0001811981201171875,-27.93578338623047
1743582336.7185783,0.0,1.0374425833990628,"[174.0, 185.0, 181.0, 156.0, 154.0, 154.0, 156.0, 181.0, 185.0, 174.0]",4.999899864196777,0.0,-1.936370849609375,-0.0001811981201171875,-27.9359130859375
1743582336.737576,0.0,1.0374425833990628,"[174.0, 185.0, 181.0, 156.0, 154.0, 154.0, 156.0, 181.0, 185.0, 174.0]",5.134357452392578,0.0,-2.0390625,-0.0001811981201171875,-27.936050415039062
1743582336.7575054,0.0,1.0374425833990628,"[174.0, 185.0, 181.0, 156.0, 154.0, 154.0, 156.0, 181.0, 185.0, 174.0]",5.289670467376709,0.0,-2.14483642578125,0.000156402587890625,-27.936195373535156
1743582336.7784424,0.0,1.0374425833990628,"[174.0, 185.0, 181.0, 156.0, 154.0, 154.0, 156.0, 181.0, 185.0, 174.0]",5.3833136558532715,0.0,-2.25250244140625,0.0004425048828125,-27.93633270263672
1743582336.7971938,0.0,1.0374425833990628,"[174.0, 185.0, 181.0, 156.0, 154.0, 154.0, 156.0, 181.0, 185.0, 174.0]",5.388322353363037,0.0,-2.36029052734375,0.0006809234619140625,-27.936492919921875
1743582336.8235874,0.0,1.0374425833990628,"[174.0, 185.0, 181.0, 156.0, 154.0, 154.0, 156.0, 181.0, 185.0, 174.0]",5.748149871826172,0.0,-2.475250244140625,0.0008716583251953125,-27.936599731445312
1743582336.8376062,0.0,1.0374425833990628,"[174.0, 185.0, 181.0, 156.0, 154.0, 154.0, 156.0, 181.0, 185.0, 174.0]",5.641688346862793,0.0,-2.58807373046875,0.001018524169921875,-27.93675994873047
1743582336.8593903,0.0,1.0374425833990628,"[174.0, 185.0, 181.0, 156.0, 154.0, 154.0, 156.0, 181.0, 185.0, 174.0]",5.795049667358398,0.0,-2.7039794921875,0.0011272430419921875,-27.937210083007812
1743582336.879749,0.0,1.0374425833990628,"[174.0, 185.0, 181.0, 156.0, 154.0, 154.0, 156.0, 181.0, 185.0, 174.0]",5.97343111038208,0.0,-2.82342529296875,0.0011997222900390625,-27.936843872070312
1743582336.8982594,0.0,1.0374425833990628,"[174.0, 185.0, 181.0, 156.0, 154.0, 154.0, 156.0, 181.0, 185.0, 174.0]",6.203269958496094,0.0,-2.947509765625,0.001239776611328125,-27.93792724609375
1743582336.917418,0.0,1.0374425833990628,"[174.0, 185.0, 181.0, 156.0, 154.0, 154.0, 156.0, 181.0, 185.0, 174.0]",6.245909214019775,0.0,-3.072418212890625,0.001255035400390625,-27.936683654785156
1743582336.938768,0.0,1.0374425833990628,"[174.0, 185.0, 181.0, 156.0, 154.0, 154.0, 156.0, 181.0, 185.0, 174.0]",6.504767417907715,0.0,-3.202484130859375,0.001247406005859375,-27.93866729736328
1743582336.9577634,0.0,1.0374425833990628,"[174.0, 185.0, 181.0, 156.0, 154.0, 154.0, 156.0, 181.0, 185.0, 174.0]",6.403571128845215,0.0,-3.33056640625,0.001220703125,-27.937118530273438
1743582336.978779,0.0,1.0374425833990628,"[174.0, 185.0, 181.0, 156.0, 154.0, 154.0, 156.0, 181.0, 185.0, 174.0]",6.702352523803711,0.0,-3.464599609375,0.00118255615234375,-27.938613891601562
1743582336.9978728,0.0,1.0374425833990628,"[174.0, 185.0, 181.0, 156.0, 154.0, 154.0, 156.0, 181.0, 185.0, 174.0]",6.464491367340088,0.0,-3.5938720703125,0.001132965087890625,-27.93791961669922
1743582337.0214834,0.0,1.0374425833990628,"[174.0, 185.0, 181.0, 156.0, 154.0, 154.0, 156.0, 181.0, 185.0, 174.0]",6.636528491973877,0.0,-3.726593017578125,0.00107574462890625,-27.93890380859375
1743582337.0416787,0.0,1.0374425833990628,"[174.0, 185.0, 181.0, 156.0, 154.0, 154.0, 156.0, 181.0, 185.0, 174.0]",6.933806896209717,0.0,-3.86529541015625,0.00101470947265625,-27.938385009765625
1743582337.0600007,0.0,1.0374425833990628,"[174.0, 185.0, 181.0, 156.0, 154.0, 154.0, 156.0, 181.0, 185.0, 174.0]",6.96866512298584,0.0,-4.004669189453125,0.0009517669677734375,-27.93914031982422
1743582337.0800033,0.0,1.0374425833990628,"[174.0, 185.0, 181.0, 156.0, 154.0, 154.0, 156.0, 181.0, 185.0, 174.0]",7.294884204864502,0.0,-4.150543212890625,0.000888824462890625,-27.938926696777344
1743582337.100708,0.0,1.0374425833990628,"[174.0, 185.0, 181.0, 156.0, 154.0, 154.0, 156.0, 181.0, 185.0, 174.0]",7.3581461906433105,0.0,-4.297698974609375,0.000827789306640625,-27.939422607421875
1743582337.1177182,0.0,1.0374425833990628,"[174.0, 185.0, 181.0, 156.0, 154.0, 154.0, 156.0, 181.0, 185.0, 174.0]",7.393955707550049,0.0,-4.445587158203125,0.00077056884765625,-27.938858032226562
1743582337.1372247,0.0,1.0374425833990628,"[174.0, 185.0, 180.0, 156.0, 154.0, 154.0, 156.0, 181.0, 185.0, 174.0]",7.578901767730713,0.0,-4.59716796875,0.0007190704345703125,-27.940032958984375
1743582337.1569893,0.0,1.0374425833990628,"[174.0, 185.0, 181.0, 156.0, 154.0, 154.0, 156.0, 181.0, 185.0, 174.0]",7.535849571228027,0.0,-4.74786376953125,0.0006694793701171875,-27.938865661621094
1743582337.178034,0.0,1.0374425833990628,"[174.0, 185.0, 181.0, 156.0, 154.0, 154.0, 156.0, 181.0, 185.0, 174.0]",7.801545143127441,0.0,-4.903900146484375,0.0006275177001953125,-27.940872192382812
1743582337.1991253,0.0,1.0374425833990628,"[174.0, 185.0, 181.0, 156.0, 154.0, 154.0, 156.0, 181.0, 185.0, 174.0]",7.71480131149292,0.0,-5.058197021484375,0.000591278076171875,-27.939773559570312
1743582337.2234905,0.0,1.0374425833990628,"[174.0, 185.0, 181.0, 156.0, 154.0, 154.0, 156.0, 181.0, 185.0, 174.0]",8.008566856384277,0.0,-5.218353271484375,0.000560760498046875,-27.940170288085938
1743582337.2375188,0.0,1.0374425833990628,"[174.0, 185.0, 181.0, 156.0, 154.0, 154.0, 156.0, 181.0, 185.0, 174.0]",8.173620223999023,0.0,-5.3818359375,0.0005340576171875,-27.93994903564453
1743582337.2577393,0.0,1.0374425833990628,"[174.0, 185.0, 181.0, 156.0, 154.0, 154.0, 156.0, 181.0, 185.0, 174.0]",8.359884262084961,0.0,-5.549041748046875,0.000514984130859375,-27.940093994140625
1743582337.27877,0.0,1.0374425833990628,"[174.0, 185.0, 181.0, 156.0, 154.0, 154.0, 156.0, 181.0, 185.0, 174.0]",8.62462043762207,0.0,-5.721527099609375,0.0004978179931640625,-27.940231323242188
1743582337.2974253,0.0,1.0374425833990628,"[174.0, 185.0, 181.0, 156.0, 154.0, 154.0, 156.0, 181.0, 185.0, 174.0]",8.520755767822266,0.0,-5.891937255859375,0.00048828125,-27.940597534179688
1743582337.3181288,0.0,1.0374425833990628,"[174.0, 185.0, 181.0, 156.0, 154.0, 154.0, 156.0, 181.0, 185.0, 174.0]",8.775967597961426,0.0,-6.06744384765625,0.00048065185546875,-27.9405517578125
1743582337.3371828,0.0,1.0374425833990628,"[174.0, 185.0, 181.0, 156.0, 154.0, 154.0, 156.0, 181.0, 185.0, 174.0]",8.805807113647461,0.0,-6.243560791015625,0.000476837158203125,-27.94097900390625
1743582337.3584456,0.0,1.0374425833990628,"[174.0, 185.0, 181.0, 156.0, 154.0, 154.0, 156.0, 181.0, 185.0, 174.0]",8.876203536987305,0.0,-6.42108154296875,0.0004749298095703125,-27.941246032714844
1743582337.378425,0.0,1.0374425833990628,"[174.0, 185.0, 181.0, 156.0, 154.0, 154.0, 156.0, 181.0, 185.0, 174.0]",9.012989044189453,0.0,-6.601348876953125,0.000476837158203125,-27.94158172607422
1743582337.3977363,0.0,1.0374425833990628,"[174.0, 185.0, 181.0, 156.0, 154.0, 154.0, 156.0, 181.0, 185.0, 174.0]",9.10909366607666,0.0,-6.783538818359375,0.00048065185546875,-27.94158935546875
1743582337.4205396,0.0,1.0374425833990628,"[174.0, 185.0, 181.0, 156.0, 154.0, 154.0, 156.0, 181.0, 185.0, 174.0]",9.226680755615234,0.0,-6.96807861328125,0.000484466552734375,-27.9415283203125
1743582337.4405658,0.0,1.0374425833990628,"[174.0, 185.0, 181.0, 156.0, 154.0, 154.0, 156.0, 181.0, 185.0, 174.0]",9.409554481506348,0.0,-7.15625,0.0004901885986328125,-27.9417724609375
1743582337.458213,0.0,1.0374425833990628,"[174.0, 185.0, 181.0, 156.0, 154.0, 154.0, 156.0, 181.0, 185.0, 174.0]",9.598528861999512,0.0,-7.348236083984375,0.0004978179931640625,-27.942169189453125
1743582337.4790723,0.0,1.0374425833990628,"[174.0, 185.0, 181.0, 156.0, 154.0, 154.0, 156.0, 181.0, 185.0, 174.0]",9.555672645568848,0.0,-7.539337158203125,0.0005035400390625,-27.942184448242188
1743582337.4982479,0.0,1.0374425833990628,"[174.0, 185.0, 181.0, 156.0, 154.0, 154.0, 156.0, 181.0, 185.0, 174.0]",9.913849830627441,0.0,-7.73760986328125,0.00051116943359375,-27.942367553710938
1743582337.5176694,0.0,1.0374425833990628,"[174.0, 185.0, 181.0, 156.0, 154.0, 154.0, 156.0, 181.0, 185.0, 174.0]",9.859779357910156,0.0,-7.934814453125,0.000518798828125,-27.942489624023438
1743582337.5373743,0.0,1.0374425833990628,"[174.0, 185.0, 181.0, 156.0, 154.0, 154.0, 156.0, 181.0, 185.0, 174.0]",10.03917407989502,0.0,-8.135589599609375,0.0005245208740234375,-27.94269561767578
1743582337.5578868,0.0,1.0374425833990628,"[174.0, 185.0, 181.0, 156.0, 154.0, 154.0, 156.0, 181.0, 185.0, 174.0]",10.01892375946045,0.0,-8.335968017578125,0.0005321502685546875,-27.942474365234375
1743582337.5771606,0.0,1.0374425833990628,"[174.0, 185.0, 181.0, 156.0, 154.0, 154.0, 156.0, 181.0, 185.0, 174.0]",10.39610767364502,0.0,-8.54388427734375,0.000537872314453125,-27.942977905273438
1743582337.5979607,0.0,1.0374425833990628,"[174.0, 185.0, 181.0, 156.0, 154.0, 154.0, 156.0, 181.0, 185.0, 174.0]",10.313511848449707,0.0,-8.75018310546875,0.00054168701171875,-27.943283081054688
1743582337.624147,0.0,1.0374425833990628,"[174.0, 185.0, 181.0, 156.0, 154.0, 154.0, 156.0, 181.0, 185.0, 174.0]",10.713479995727539,0.0,-8.964447021484375,0.0005474090576171875,-27.94342041015625
1743582337.6393068,0.0,1.0374425833990628,"[174.0, 185.0, 181.0, 156.0, 154.0, 154.0, 156.0, 181.0, 185.0, 174.0]",10.456438064575195,0.0,-9.173553466796875,0.0005512237548828125,-27.943588256835938
1743582337.658348,0.0,1.0374425833990628,"[174.0, 185.0, 181.0, 156.0, 154.0, 154.0, 156.0, 181.0, 185.0, 174.0]",10.810501098632812,0.0,-9.3897705078125,0.0005550384521484375,-27.943878173828125
1743582337.6790206,0.0,1.0374425833990628,"[174.0, 185.0, 181.0, 156.0, 154.0, 154.0, 156.0, 181.0, 185.0, 174.0]",10.816690444946289,0.0,-9.606109619140625,0.00055694580078125,-27.944183349609375
1743582337.698312,0.0,1.0374425833990628,"[174.0, 185.0, 181.0, 156.0, 154.0, 154.0, 156.0, 181.0, 185.0, 174.0]",11.01769733428955,0.0,-9.82647705078125,0.0005588531494140625,-27.944595336914062
1743582337.7174602,0.0,1.0374425833990628,"[174.0, 185.0, 181.0, 156.0, 154.0, 154.0, 156.0, 181.0, 185.0, 174.0]",11.204217910766602,0.0,-10.050537109375,0.000560760498046875,-27.944740295410156
1743582337.7376382,0.0,1.0374425833990628,"[174.0, 185.0, 181.0, 156.0, 154.0, 154.0, 156.0, 181.0, 185.0, 174.0]",11.240628242492676,0.0,-10.275360107421875,0.0005626678466796875,-27.945167541503906
1743582337.7586102,0.0,1.0374425833990628,"[174.0, 185.0, 181.0, 156.0, 154.0, 154.0, 156.0, 181.0, 185.0, 174.0]",11.255059242248535,0.0,-10.500457763671875,0.0005626678466796875,-27.94489288330078
1743582337.7776387,0.0,1.0374425833990628,"[174.0, 185.0, 181.0, 156.0, 154.0, 154.0, 156.0, 181.0, 185.0, 174.0]",11.525419235229492,0.0,-10.73095703125,0.0005626678466796875,-27.94532012939453
1743582337.7990217,0.0,1.0374425833990628,"[174.0, 185.0, 181.0, 156.0, 154.0, 154.0, 156.0, 181.0, 185.0, 174.0]",11.699851989746094,0.0,-10.9649658203125,0.0005645751953125,-27.945472717285156
1743582337.8236475,0.0,1.0374425833990628,"[174.0, 185.0, 181.0, 156.0, 154.0, 154.0, 156.0, 181.0, 185.0, 174.0]",11.725658416748047,0.0,-11.199462890625,0.0005626678466796875,-27.94591522216797
1743582337.8386521,0.0,1.0374425833990628,"[174.0, 185.0, 181.0, 156.0, 154.0, 154.0, 156.0, 181.0, 185.0, 174.0]",11.736315727233887,0.0,-11.4342041015625,0.0005626678466796875,-27.945701599121094
1743582337.859023,0.0,1.0374425833990628,"[174.0, 185.0, 181.0, 156.0, 154.0, 154.0, 156.0, 181.0, 185.0, 174.0]",11.909197807312012,0.0,-11.672393798828125,0.0005626678466796875,-27.946182250976562
