timestamp,steering_input,acceleration_input,raycasts,speed,steering,position_x,position_y,position_z
1743586177.637944,0.0,-0.0,"[174.0, 185.0, 227.0, 295.0, 259.0, 259.0, 295.0, 227.0, 185.0, 174.0]",0.0,0.0,0.0,0.10000038146972656,-27.93000030517578
1743586177.8497708,0.0,-0.0,"[174.0, 185.0, 178.0, 155.0, 154.0, 154.0, 156.0, 179.0, 185.0, 174.0]",0.1431841105222702,0.0,0.0,0.097137451171875,-27.93000030517578
1743586177.900347,0.0,-0.0,"[174.0, 185.0, 178.0, 155.0, 154.0, 154.0, 156.0, 179.0, 185.0, 174.0]",0.2360968291759491,0.0,0.0,0.09241485595703125,-27.93000030517578
1743586177.9042416,0.0,-0.0,"[174.0, 185.0, 178.0, 155.0, 154.0, 154.0, 156.0, 179.0, 185.0, 174.0]",0.30777978897094727,0.0,0.0,0.08625984191894531,-27.93000030517578
1743586177.9424944,0.0,-0.0,"[174.0, 185.0, 179.0, 155.0, 154.0, 154.0, 156.0, 179.0, 185.0, 174.0]",0.36006540060043335,0.0,0.0,0.07905769348144531,-27.93000030517578
1743586177.9472883,0.0,-0.0,"[174.0, 185.0, 179.0, 155.0, 154.0, 154.0, 156.0, 179.0, 185.0, 174.0]",0.3949472904205322,0.0,0.0,0.07115936279296875,-27.93000030517578
1743586177.9793386,0.0,-0.0,"[174.0, 185.0, 179.0, 155.0, 154.0, 154.0, 156.0, 180.0, 185.0, 174.0]",0.41450235247612,0.0,0.0,0.06286811828613281,-27.93000030517578
1743586177.9830914,0.0,-0.0,"[174.0, 185.0, 179.0, 155.0, 154.0, 154.0, 156.0, 180.0, 185.0, 174.0]",0.42082807421684265,0.0,0.0,0.05445289611816406,-27.93000030517578
1743586178.014172,0.0,-0.0,"[174.0, 185.0, 179.0, 155.0, 154.0, 154.0, 156.0, 181.0, 185.0, 174.0]",0.41598936915397644,0.0,0.0,0.04613304138183594,-27.93000030517578
1743586178.01759,0.0,-0.0,"[174.0, 185.0, 179.0, 155.0, 154.0, 154.0, 156.0, 181.0, 185.0, 174.0]",0.4019714593887329,0.0,0.0,0.03809356689453125,-27.93000030517578
1743586178.0566287,0.0,-0.0,"[174.0, 185.0, 179.0, 156.0, 154.0, 154.0, 156.0, 181.0, 185.0, 174.0]",0.3806484043598175,0.0,0.0,0.03047943115234375,-27.93000030517578
1743586178.0637558,0.0,-0.0,"[174.0, 185.0, 179.0, 156.0, 154.0, 154.0, 156.0, 181.0, 185.0, 174.0]",0.3537571132183075,0.0,0.0,0.023405075073242188,-27.93000030517578
1743586178.0954773,0.0,-0.0,"[174.0, 185.0, 180.0, 156.0, 154.0, 154.0, 156.0, 181.0, 185.0, 174.0]",0.3228750228881836,0.0,0.0,0.016946792602539062,-27.92999267578125
1743586178.098947,0.0,-0.0,"[174.0, 185.0, 180.0, 156.0, 154.0, 154.0, 156.0, 181.0, 185.0, 174.0]",0.28941938281059265,0.0,0.0,0.011159896850585938,-27.930038452148438
1743586178.1311166,0.0,-0.0,"[174.0, 185.0, 180.0, 156.0, 154.0, 154.0, 156.0, 181.0, 185.0, 174.0]",0.2562173306941986,0.0,0.0,0.0060672760009765625,-27.929466247558594
1743586178.1370287,0.0,-0.0,"[174.0, 185.0, 180.0, 156.0, 154.0, 154.0, 156.0, 181.0, 185.0, 174.0]",0.34839218854904175,0.0,0.0,0.0016765594482421875,-27.93487548828125
1743586178.1689835,0.0,-0.0,"[174.0, 185.0, 181.0, 156.0, 154.0, 154.0, 156.0, 181.0, 185.0, 174.0]",0.255353718996048,0.0,0.0,-0.0020236968994140625,-27.931358337402344
1743586178.1730762,0.0,-0.0,"[174.0, 185.0, 181.0, 156.0, 154.0, 154.0, 156.0, 181.0, 185.0, 174.0]",0.2815416157245636,0.0,0.0,-0.0050601959228515625,-27.926612854003906
1743586178.2052622,0.0,-0.0,"[174.0, 185.0, 181.0, 156.0, 154.0, 154.0, 156.0, 181.0, 185.0, 174.0]",0.15634490549564362,0.0,0.0,-0.007472991943359375,-27.928604125976562
1743586178.2435849,0.0,-0.0,"[174.0, 185.0, 181.0, 156.0, 154.0, 154.0, 156.0, 181.0, 185.0, 174.0]",0.27455902099609375,0.0,0.0,-0.009307861328125,-27.923431396484375
1743586178.2475636,0.0,-0.0,"[174.0, 185.0, 181.0, 156.0, 154.0, 154.0, 156.0, 181.0, 185.0, 174.0]",0.2245660424232483,0.0,0.0,-0.010616302490234375,-27.92772674560547
1743586178.2990403,0.0,-0.0,"[174.0, 185.0, 181.0, 156.0, 154.0, 154.0, 156.0, 181.0, 185.0, 174.0]",0.08891011029481888,0.0,0.0,-0.011455535888671875,-27.929290771484375
1743586178.3032396,0.0,-0.0,"[174.0, 185.0, 181.0, 156.0, 154.0, 154.0, 156.0, 181.0, 185.0, 174.0]",0.1896505206823349,0.0,0.0,-0.011884689331054688,-27.925521850585938
1743586178.3505225,0.0,-0.0,"[174.0, 185.0, 181.0, 156.0, 154.0, 154.0, 156.0, 181.0, 185.0, 174.0]",0.2066076397895813,0.0,0.0,-0.011960983276367188,-27.92139434814453
1743586178.3568683,0.0,-0.0,"[174.0, 185.0, 181.0, 156.0, 154.0, 154.0, 156.0, 181.0, 185.0, 174.0]",0.12101753056049347,0.0,0.0,-0.011743545532226562,-27.918983459472656
1743586178.3626173,0.0,-0.0,"[174.0, 185.0, 181.0, 156.0, 154.0, 154.0, 156.0, 181.0, 185.0, 174.0]",0.19259010255336761,0.0,0.0,-0.011285781860351562,-27.922805786132812
1743586178.4003134,0.0,-0.0,"[174.0, 185.0, 181.0, 156.0, 154.0, 154.0, 156.0, 181.0, 185.0, 174.0]",0.17800575494766235,0.0,0.0,-0.010637283325195312,-27.926307678222656
1743586178.403188,0.0,-0.0,"[174.0, 185.0, 181.0, 156.0, 154.0, 154.0, 156.0, 181.0, 185.0, 174.0]",0.16013549268245697,0.0,0.0,-0.009847640991210938,-27.929412841796875
1743586178.4073002,0.0,-0.0,"[174.0, 185.0, 181.0, 156.0, 154.0, 154.0, 156.0, 181.0, 185.0, 174.0]",0.07219173014163971,0.0,0.0,-0.0089569091796875,-27.9305419921875
1743586178.442606,0.0,-0.0,"[174.0, 185.0, 181.0, 156.0, 154.0, 154.0, 156.0, 181.0, 185.0, 174.0]",0.1852148175239563,0.0,0.0,-0.008007049560546875,-27.926963806152344
1743586178.4471214,0.0,-0.0,"[174.0, 185.0, 181.0, 156.0, 154.0, 154.0, 156.0, 181.0, 185.0, 174.0]",0.15632963180541992,0.0,0.0,-0.00702667236328125,-27.923995971679688
1743586178.4803374,0.0,-0.0,"[174.0, 185.0, 181.0, 156.0, 154.0, 154.0, 156.0, 181.0, 185.0, 174.0]",0.051327187567949295,0.0,0.0,-0.0060482025146484375,-27.923690795898438
1743586178.483444,0.0,-0.0,"[174.0, 185.0, 181.0, 156.0, 154.0, 154.0, 156.0, 181.0, 185.0, 174.0]",0.15988554060459137,0.0,0.0,-0.0050907135009765625,-27.926742553710938
1743586178.514821,0.0,-0.0,"[174.0, 185.0, 181.0, 156.0, 154.0, 154.0, 156.0, 181.0, 185.0, 174.0]",0.05791441351175308,0.0,0.0,-0.004177093505859375,-27.927452087402344
1743586178.5186493,0.0,-0.0,"[174.0, 185.0, 181.0, 156.0, 154.0, 154.0, 156.0, 181.0, 185.0, 174.0]",0.19991730153560638,0.0,0.0,-0.0033206939697265625,-27.923545837402344
1743586178.5521765,0.0,-0.0,"[174.0, 185.0, 180.0, 156.0, 154.0, 154.0, 156.0, 181.0, 185.0, 174.0]",0.12208718806505203,0.0,0.0,-0.0025310516357421875,-27.921234130859375
1743586178.5571144,0.0,-0.0,"[174.0, 185.0, 180.0, 156.0, 154.0, 154.0, 156.0, 181.0, 185.0, 174.0]",0.18460233509540558,0.0,0.0,-0.0018177032470703125,-27.92485809326172
1743586178.5892844,0.0,-0.0,"[174.0, 185.0, 181.0, 156.0, 154.0, 154.0, 156.0, 181.0, 185.0, 174.0]",0.13353228569030762,0.0,0.0,-0.0011844635009765625,-27.927452087402344
1743586178.5930352,0.0,-0.0,"[174.0, 185.0, 181.0, 156.0, 154.0, 154.0, 156.0, 181.0, 185.0, 174.0]",0.11446059495210648,0.0,3.0517578125e-05,-0.00063323974609375,-27.92523193359375
1743586178.6318793,0.0,-0.0,"[174.0, 185.0, 181.0, 156.0, 154.0, 154.0, 156.0, 181.0, 185.0, 174.0]",0.18039268255233765,0.0,3.0517578125e-05,-0.0001621246337890625,-27.928802490234375
1743586178.6369388,0.0,-0.0,"[174.0, 185.0, 181.0, 156.0, 154.0, 154.0, 156.0, 181.0, 185.0, 174.0]",0.12967412173748016,0.0,3.0517578125e-05,0.0002288818359375,-27.931365966796875
1743586178.6740766,0.0,-0.0,"[174.0, 185.0, 181.0, 156.0, 154.0, 154.0, 156.0, 181.0, 185.0, 174.0]",0.1237604022026062,0.0,3.0517578125e-05,0.000545501708984375,-27.928909301757812
1743586178.6771886,0.0,-0.0,"[174.0, 185.0, 181.0, 156.0, 154.0, 154.0, 156.0, 181.0, 185.0, 174.0]",0.1935333013534546,0.0,3.0517578125e-05,0.0007915496826171875,-27.932777404785156
1743586178.7078817,0.0,-0.0,"[174.0, 185.0, 181.0, 156.0, 154.0, 154.0, 156.0, 181.0, 185.0, 174.0]",0.12180628627538681,0.0,6.103515625e-05,0.000972747802734375,-27.935203552246094
1743586178.7118726,0.0,-0.0,"[174.0, 185.0, 181.0, 156.0, 154.0, 154.0, 156.0, 181.0, 185.0, 174.0]",0.16159525513648987,0.0,6.103515625e-05,0.0010967254638671875,-27.931976318359375
1743586178.7458518,0.0,-0.0,"[174.0, 185.0, 181.0, 156.0, 154.0, 154.0, 156.0, 181.0, 185.0, 174.0]",0.0772232785820961,0.0,6.103515625e-05,0.0011692047119140625,-27.930435180664062
1743586178.7805996,0.0,-0.0,"[174.0, 185.0, 181.0, 156.0, 154.0, 154.0, 156.0, 181.0, 185.0, 174.0]",0.184142604470253,0.0,6.103515625e-05,0.00119781494140625,-27.934112548828125
1743586178.784502,0.0,-0.0,"[174.0, 185.0, 181.0, 156.0, 154.0, 154.0, 156.0, 181.0, 185.0, 174.0]",0.1367751508951187,0.0,6.103515625e-05,0.0011882781982421875,-27.936851501464844
1743586178.8186514,0.0,-0.0,"[174.0, 185.0, 181.0, 156.0, 154.0, 154.0, 156.0, 181.0, 185.0, 174.0]",0.06419677287340164,0.0,6.103515625e-05,0.001148223876953125,-27.935569763183594
1743586178.8232608,0.0,-0.0,"[174.0, 185.0, 181.0, 156.0, 154.0, 154.0, 156.0, 181.0, 185.0, 174.0]",0.1747168004512787,0.0,6.103515625e-05,0.0010833740234375,-27.939064025878906
1743586178.8596258,0.0,-0.0,"[174.0, 185.0, 181.0, 156.0, 154.0, 154.0, 156.0, 181.0, 185.0, 174.0]",0.1311485320329666,0.0,9.1552734375e-05,0.00099945068359375,-27.941680908203125
1743586178.8637626,0.0,-0.0,"[174.0, 185.0, 181.0, 156.0, 154.0, 154.0, 156.0, 181.0, 185.0, 174.0]",0.11074256151914597,0.0,9.1552734375e-05,0.0009002685546875,-27.939468383789062
1743586178.8956656,0.0,-0.0,"[174.0, 185.0, 181.0, 156.0, 154.0, 154.0, 156.0, 181.0, 185.0, 174.0]",0.1801898330450058,0.0,9.1552734375e-05,0.00079345703125,-27.943069458007812
1743586178.8995192,0.0,-0.0,"[174.0, 185.0, 181.0, 156.0, 154.0, 154.0, 156.0, 181.0, 185.0, 174.0]",0.14138393104076385,0.0,9.1552734375e-05,0.00067901611328125,-27.945899963378906
1743586178.933836,0.0,-0.0,"[174.0, 185.0, 181.0, 156.0, 154.0, 154.0, 156.0, 181.0, 185.0, 174.0]",0.0333004854619503,0.0,9.1552734375e-05,0.0005645751953125,-27.94524383544922
1743586178.939211,0.0,-0.0,"[174.0, 185.0, 181.0, 156.0, 154.0, 154.0, 156.0, 181.0, 185.0, 174.0]",0.19635771214962006,0.0,9.1552734375e-05,0.0004520416259765625,-27.94916534423828
1743586178.9752858,0.0,-0.0,"[174.0, 185.0, 181.0, 156.0, 154.0, 154.0, 156.0, 181.0, 185.0, 174.0]",0.12271545082330704,0.0,0.0001220703125,0.00034332275390625,-27.951614379882812
1743586178.9782577,0.0,-0.0,"[174.0, 185.0, 181.0, 156.0, 154.0, 154.0, 156.0, 181.0, 185.0, 174.0]",0.15798240900039673,0.0,0.0001220703125,0.0002384185791015625,-27.948455810546875
1743586179.0092096,0.0,-0.0,"[174.0, 185.0, 181.0, 156.0, 154.0, 154.0, 156.0, 181.0, 185.0, 174.0]",0.0622306689620018,0.0,0.0001220703125,0.0001430511474609375,-27.947219848632812
1743586179.0127585,0.0,-0.0,"[174.0, 185.0, 181.0, 156.0, 154.0, 154.0, 156.0, 181.0, 185.0, 174.0]",0.17492303252220154,0.0,0.0001220703125,5.53131103515625e-05,-27.950714111328125
1743586179.0993004,0.0,-0.0,"[174.0, 185.0, 181.0, 156.0, 154.0, 154.0, 156.0, 181.0, 185.0, 174.0]",0.13653863966464996,0.0,0.0001220703125,-2.288818359375e-05,-27.953445434570312
1743586179.1025484,0.0,-0.0,"[174.0, 185.0, 181.0, 156.0, 154.0, 154.0, 156.0, 181.0, 185.0, 174.0]",0.0718504786491394,0.0,0.0001220703125,-9.34600830078125e-05,-27.952011108398438
1743586179.1052675,0.0,-0.0,"[174.0, 185.0, 181.0, 156.0, 154.0, 154.0, 156.0, 181.0, 185.0, 174.0]",0.17569200694561005,0.0,0.0001220703125,-0.000152587890625,-27.955520629882812
1743586179.1110716,0.0,-0.0,"[174.0, 185.0, 181.0, 156.0, 154.0, 154.0, 156.0, 181.0, 185.0, 174.0]",0.13826613128185272,0.0,0.000152587890625,-0.000202178955078125,-27.958290100097656
1743586179.1450212,0.0,-0.0,"[174.0, 185.0, 181.0, 156.0, 154.0, 154.0, 156.0, 181.0, 185.0, 174.0]",0.05745533108711243,0.0,0.000152587890625,-0.000244140625,-27.957138061523438
1743586179.149898,0.0,-0.0,"[174.0, 185.0, 181.0, 156.0, 154.0, 154.0, 156.0, 181.0, 185.0, 174.0]",0.1775936484336853,0.0,0.000152587890625,-0.000278472900390625,-27.960693359375
1743586179.1806343,0.0,-0.0,"[174.0, 185.0, 181.0, 156.0, 154.0, 154.0, 156.0, 181.0, 185.0, 174.0]",0.14114311337471008,0.0,0.000152587890625,-0.0003032684326171875,-27.963516235351562
1743586179.1848679,0.0,-0.0,"[174.0, 185.0, 181.0, 156.0, 154.0, 154.0, 156.0, 181.0, 185.0, 174.0]",0.034520473331213,0.0,0.000152587890625,-0.0003204345703125,-27.96282196044922
1743586179.218446,0.0,-0.0,"[174.0, 185.0, 181.0, 156.0, 154.0, 154.0, 156.0, 181.0, 185.0, 174.0]",0.20195074379444122,0.0,0.00018310546875,-0.000331878662109375,-27.96686553955078
1743586179.2231157,0.0,-0.0,"[174.0, 185.0, 181.0, 156.0, 154.0, 154.0, 156.0, 181.0, 185.0, 174.0]",0.09901262819766998,0.0,0.00018310546875,-0.000339508056640625,-27.968841552734375
1743586179.2615633,0.0,-0.0,"[174.0, 185.0, 181.0, 156.0, 154.0, 154.0, 156.0, 181.0, 185.0, 174.0]",0.20315459370613098,0.0,0.00018310546875,-0.000339508056640625,-27.96478271484375
1743586179.266005,0.0,-0.0,"[174.0, 185.0, 181.0, 156.0, 154.0, 154.0, 156.0, 181.0, 185.0, 174.0]",0.09250973165035248,0.0,0.000152587890625,-0.0003376007080078125,-27.962928771972656
1743586179.2974143,0.0,-0.0,"[174.0, 185.0, 181.0, 156.0, 154.0, 154.0, 156.0, 181.0, 185.0, 174.0]",0.21048150956630707,0.0,0.00018310546875,-0.000331878662109375,-27.967140197753906
1743586179.3009963,0.0,-0.0,"[174.0, 185.0, 181.0, 156.0, 154.0, 154.0, 156.0, 181.0, 185.0, 174.0]",0.054807256907224655,0.0,0.00018310546875,-0.0003223419189453125,-27.968238830566406
1743586179.3329504,0.0,-0.0,"[174.0, 185.0, 181.0, 156.0, 154.0, 154.0, 156.0, 181.0, 185.0, 174.0]",0.18342110514640808,0.0,0.00018310546875,-0.00031280517578125,-27.964569091796875
1743586179.3379464,0.0,-0.0,"[174.0, 185.0, 181.0, 156.0, 154.0, 154.0, 156.0, 181.0, 185.0, 174.0]",0.14437030255794525,0.0,0.000152587890625,-0.0002994537353515625,-27.961685180664062
1743586179.3746023,0.0,-0.0,"[174.0, 185.0, 181.0, 156.0, 154.0, 154.0, 156.0, 181.0, 185.0, 174.0]",0.010325106792151928,0.0,0.000152587890625,-0.0002880096435546875,-27.961883544921875
1743586179.3790712,0.0,-0.0,"[174.0, 185.0, 181.0, 156.0, 154.0, 154.0, 156.0, 181.0, 185.0, 174.0]",0.08798801898956299,0.0,0.000152587890625,-0.000274658203125,-27.960128784179688
1743586179.4142337,0.0,-0.0,"[174.0, 185.0, 181.0, 156.0, 154.0, 154.0, 156.0, 181.0, 185.0, 174.0]",0.2099931389093399,0.0,0.00018310546875,-0.0002613067626953125,-27.964324951171875
1743586179.4181714,0.0,-0.0,"[174.0, 185.0, 181.0, 156.0, 154.0, 154.0, 156.0, 181.0, 185.0, 174.0]",0.05686913803219795,0.0,0.00018310546875,-0.000247955322265625,-27.96546173095703
1743586179.454987,0.0,-0.0,"[174.0, 185.0, 181.0, 156.0, 154.0, 154.0, 156.0, 181.0, 185.0, 174.0]",0.17966091632843018,0.0,0.00018310546875,-0.0002346038818359375,-27.961868286132812
1743586179.461772,0.0,-0.0,"[174.0, 185.0, 181.0, 156.0, 154.0, 154.0, 156.0, 181.0, 185.0, 174.0]",0.14235873520374298,0.0,0.000152587890625,-0.0002231597900390625,-27.959022521972656
1743586179.494209,0.0,-0.0,"[174.0, 185.0, 181.0, 156.0, 154.0, 154.0, 156.0, 181.0, 185.0, 174.0]",0.024575751274824142,0.0,0.000152587890625,-0.000213623046875,-27.959518432617188
1743586179.497283,0.0,-0.0,"[174.0, 185.0, 181.0, 156.0, 154.0, 154.0, 156.0, 181.0, 185.0, 174.0]",0.1880163848400116,0.0,0.000152587890625,-0.0002040863037109375,-27.95575714111328
1743586179.5292459,0.0,-0.0,"[174.0, 185.0, 181.0, 156.0, 154.0, 154.0, 156.0, 181.0, 185.0, 174.0]",0.14146263897418976,0.0,0.000152587890625,-0.000194549560546875,-27.952926635742188
1743586179.535802,0.0,-0.0,"[174.0, 185.0, 181.0, 156.0, 154.0, 154.0, 156.0, 181.0, 185.0, 174.0]",0.031307123601436615,0.0,0.000152587890625,-0.000186920166015625,-27.95355224609375
1743586179.5680354,0.0,-0.0,"[174.0, 185.0, 181.0, 156.0, 154.0, 154.0, 156.0, 181.0, 185.0, 174.0]",0.19213135540485382,0.0,0.000152587890625,-0.0001811981201171875,-27.94970703125
1743586179.5713243,0.0,-0.0,"[174.0, 185.0, 181.0, 156.0, 154.0, 154.0, 156.0, 181.0, 185.0, 174.0]",0.1337447315454483,0.0,0.0001220703125,-0.00017547607421875,-27.947036743164062
1743586179.604689,0.0,-0.0,"[174.0, 185.0, 181.0, 156.0, 154.0, 154.0, 156.0, 181.0, 185.0, 174.0]",0.09263762831687927,0.0,0.0001220703125,-0.000171661376953125,-27.948883056640625
1743586179.6409388,0.0,-0.0,"[174.0, 185.0, 181.0, 156.0, 154.0, 154.0, 156.0, 181.0, 185.0, 174.0]",0.2106226533651352,0.0,0.0001220703125,-0.0001678466796875,-27.944671630859375
1743586179.6447034,0.0,-0.0,"[174.0, 185.0, 181.0, 156.0, 154.0, 154.0, 156.0, 181.0, 185.0, 174.0]",0.053793199360370636,0.0,0.0001220703125,-0.000164031982421875,-27.94359588623047
1743586179.6777103,0.0,-0.0,"[174.0, 185.0, 181.0, 156.0, 154.0, 154.0, 156.0, 181.0, 185.0, 174.0]",0.18583746254444122,0.0,0.0001220703125,-0.0001621246337890625,-27.947311401367188
1743586179.6820757,0.0,-0.0,"[174.0, 185.0, 181.0, 156.0, 154.0, 154.0, 156.0, 181.0, 185.0, 174.0]",0.1430375576019287,0.0,0.0001220703125,-0.0001621246337890625,-27.950180053710938
1743586179.712473,0.0,-0.0,"[174.0, 185.0, 181.0, 156.0, 154.0, 154.0, 156.0, 181.0, 185.0, 174.0]",0.019723525270819664,0.0,0.0001220703125,-0.0001621246337890625,-27.949783325195312
1743586179.7157938,0.0,-0.0,"[174.0, 185.0, 181.0, 156.0, 154.0, 154.0, 156.0, 181.0, 185.0, 174.0]",0.18836303055286407,0.0,0.0001220703125,-0.0001621246337890625,-27.95355224609375
1743586179.7490613,0.0,-0.0,"[174.0, 185.0, 181.0, 156.0, 154.0, 154.0, 156.0, 181.0, 185.0, 174.0]",0.14051376283168793,0.0,0.0001220703125,-0.0001621246337890625,-27.95635986328125
1743586179.752823,0.0,-0.0,"[174.0, 185.0, 181.0, 156.0, 154.0, 154.0, 156.0, 181.0, 185.0, 174.0]",0.038770899176597595,0.0,0.000152587890625,-0.0001621246337890625,-27.955581665039062
1743586179.7834795,0.0,-0.0,"[174.0, 185.0, 181.0, 156.0, 154.0, 154.0, 156.0, 181.0, 185.0, 174.0]",0.20928703248500824,0.0,0.000152587890625,-0.000164031982421875,-27.95977020263672
1743586179.813521,0.0,-0.0,"[174.0, 185.0, 181.0, 156.0, 154.0, 154.0, 156.0, 181.0, 185.0, 174.0]",0.0603407584130764,0.0,0.000152587890625,-0.000164031982421875,-27.960975646972656
1743586179.8168359,0.0,-0.0,"[174.0, 185.0, 181.0, 156.0, 154.0, 154.0, 156.0, 181.0, 185.0, 174.0]",0.176280215382576,0.0,0.000152587890625,-0.0001659393310546875,-27.95745086669922
1743586179.8516,0.0,-0.0,"[174.0, 185.0, 181.0, 156.0, 154.0, 154.0, 156.0, 181.0, 185.0, 174.0]",0.13787387311458588,0.0,0.000152587890625,-0.0001678466796875,-27.954696655273438
1743586179.8581073,0.0,-0.0,"[174.0, 185.0, 181.0, 156.0, 154.0, 154.0, 156.0, 181.0, 185.0, 174.0]",0.059169523417949677,0.0,0.0001220703125,-0.0001697540283203125,-27.95587158203125
1743586179.889509,0.0,-0.0,"[174.0, 185.0, 181.0, 156.0, 154.0, 154.0, 156.0, 181.0, 185.0, 174.0]",0.17614339292049408,0.0,0.0001220703125,-0.000171661376953125,-27.952354431152344
1743586179.8924835,0.0,-0.0,"[174.0, 185.0, 181.0, 156.0, 154.0, 154.0, 156.0, 181.0, 185.0, 174.0]",0.13753186166286469,0.0,0.0001220703125,-0.000171661376953125,-27.949600219726562
1743586179.9224958,0.0,-0.0,"[174.0, 185.0, 181.0, 156.0, 154.0, 154.0, 156.0, 181.0, 185.0, 174.0]",0.06201857328414917,0.0,0.0001220703125,-0.0001735687255859375,-27.950843811035156
1743586179.9548557,0.0,-0.0,"[174.0, 185.0, 181.0, 156.0, 154.0, 154.0, 156.0, 181.0, 185.0, 174.0]",0.17492681741714478,0.0,0.0001220703125,-0.00017547607421875,-27.947341918945312
1743586179.9583945,0.0,-0.0,"[174.0, 185.0, 181.0, 156.0, 154.0, 154.0, 156.0, 181.0, 185.0, 174.0]",0.13515165448188782,0.0,9.1552734375e-05,-0.00017547607421875,-27.94464111328125
1743586179.988183,0.0,-0.0,"[174.0, 185.0, 181.0, 156.0, 154.0, 154.0, 156.0, 181.0, 185.0, 174.0]",0.08116552978754044,0.0,9.1552734375e-05,-0.0001773834228515625,-27.946266174316406
1743586179.9909666,0.0,-0.0,"[174.0, 185.0, 181.0, 156.0, 154.0, 154.0, 156.0, 181.0, 185.0, 174.0]",0.19521167874336243,0.0,9.1552734375e-05,-0.0001773834228515625,-27.942359924316406
1743586180.020444,0.0,-0.0,"[174.0, 185.0, 181.0, 156.0, 154.0, 154.0, 156.0, 181.0, 185.0, 174.0]",0.1258745640516281,0.0,9.1552734375e-05,-0.000179290771484375,-27.939842224121094
1743586180.0567222,0.0,-0.0,"[174.0, 185.0, 181.0, 156.0, 154.0, 154.0, 156.0, 181.0, 185.0, 174.0]",0.14341174066066742,0.0,9.1552734375e-05,-0.000179290771484375,-27.942710876464844
1743586180.0610063,0.0,-0.0,"[174.0, 185.0, 181.0, 156.0, 154.0, 154.0, 156.0, 181.0, 185.0, 174.0]",0.007905163802206516,0.0,9.1552734375e-05,-0.0001811981201171875,-27.942550659179688
1743586180.1051254,0.0,-0.0,"[174.0, 185.0, 227.0, 295.0, 259.0, 161.0, 182.0, 190.0, 185.0, 174.0]",0.0,0.0,0.0,0.10000038146972656,-27.93000030517578
1743586180.1088605,0.0,-0.0,"[174.0, 185.0, 227.0, 295.0, 259.0, 161.0, 182.0, 190.0, 185.0, 174.0]",0.8976260423660278,0.0,0.0,0.08204841613769531,-27.92999267578125
1743586180.1117737,0.0,-0.0,"[174.0, 185.0, 227.0, 295.0, 259.0, 161.0, 182.0, 190.0, 185.0, 174.0]",0.8461237549781799,0.0,0.0,0.06512641906738281,-27.93017578125
1743586180.144783,0.0,-0.0,"[174.0, 185.0, 179.0, 155.0, 154.0, 154.0, 156.0, 181.0, 185.0, 174.0]",0.8275856375694275,0.0,0.0,0.049468994140625,-27.9248046875
1743586180.1764174,0.0,-0.0,"[174.0, 185.0, 179.0, 156.0, 154.0, 154.0, 156.0, 181.0, 185.0, 174.0]",0.7335298657417297,0.0,0.0,0.03524208068847656,-27.928382873535156
1743586180.1792686,0.0,-0.0,"[174.0, 185.0, 179.0, 156.0, 154.0, 154.0, 156.0, 181.0, 185.0, 174.0]",0.6724568605422974,0.0,0.0,0.022546768188476562,-27.932815551757812
1743586180.2094698,0.0,-0.0,"[174.0, 185.0, 181.0, 156.0, 154.0, 154.0, 156.0, 181.0, 185.0, 174.0]",0.5788487792015076,0.0,3.0517578125e-05,0.0114288330078125,-27.936050415039062
1743586180.2125602,0.0,-0.0,"[174.0, 185.0, 181.0, 156.0, 154.0, 154.0, 156.0, 181.0, 185.0, 174.0]",0.48032253980636597,0.0,3.0517578125e-05,0.001895904541015625,-27.937225341796875
1743586180.2489974,0.0,-0.0,"[174.0, 185.0, 181.0, 156.0, 154.0, 154.0, 156.0, 181.0, 185.0, 174.0]",0.46978846192359924,0.0,3.0517578125e-05,-0.0060939788818359375,-27.932281494140625
1743586180.2845502,0.0,-0.0,"[174.0, 185.0, 181.0, 156.0, 154.0, 154.0, 156.0, 181.0, 185.0, 174.0]",0.42083540558815,0.0,3.0517578125e-05,-0.012601852416992188,-27.93761444091797
1743586180.2879772,0.0,-0.0,"[174.0, 185.0, 181.0, 156.0, 154.0, 154.0, 156.0, 181.0, 185.0, 174.0]",0.3088914453983307,0.0,3.0517578125e-05,-0.017724990844726562,-27.934158325195312
1743586180.3175542,0.0,-0.0,"[174.0, 185.0, 181.0, 156.0, 154.0, 154.0, 158.0, 183.0, 185.0, 174.0]",0.3230583667755127,0.0,3.0517578125e-05,-0.02156829833984375,-27.928970336914062
1743586180.3206365,0.0,-0.0,"[174.0, 185.0, 181.0, 156.0, 154.0, 154.0, 158.0, 183.0, 185.0, 174.0]",0.25240591168403625,0.0,6.103515625e-05,-0.024255752563476562,-27.933242797851562
1743586180.352528,0.0,-0.0,"[174.0, 185.0, 181.0, 156.0, 154.0, 154.0, 158.0, 183.0, 185.0, 174.0]",0.23649591207504272,0.0,6.103515625e-05,-0.025915145874023438,-27.937667846679688
1743586180.3552408,0.0,-0.0,"[174.0, 185.0, 181.0, 156.0, 154.0, 154.0, 158.0, 183.0, 185.0, 174.0]",0.08210340887308121,0.0,6.103515625e-05,-0.02667999267578125,-27.939125061035156
1743586180.3842793,0.0,-0.0,"[174.0, 185.0, 181.0, 156.0, 154.0, 154.0, 156.0, 181.0, 185.0, 174.0]",0.16308145225048065,0.0,6.103515625e-05,-0.026681900024414062,-27.93585968017578
1743586180.3867722,0.0,-0.0,"[174.0, 185.0, 181.0, 156.0, 154.0, 154.0, 156.0, 181.0, 185.0, 174.0]",0.19720156490802765,0.0,6.103515625e-05,-0.0260467529296875,-27.931968688964844
1743586180.4159245,0.0,-0.0,"[174.0, 185.0, 181.0, 156.0, 154.0, 154.0, 156.0, 181.0, 185.0, 174.0]",0.24134550988674164,0.0,6.103515625e-05,-0.024898529052734375,-27.927276611328125
1743586180.4506025,0.0,-0.0,"[174.0, 185.0, 181.0, 156.0, 154.0, 154.0, 156.0, 181.0, 185.0, 174.0]",0.0971587523818016,0.0,3.0517578125e-05,-0.023349761962890625,-27.928451538085938
1743586180.45479,0.0,-0.0,"[174.0, 185.0, 181.0, 156.0, 154.0, 154.0, 156.0, 181.0, 185.0, 174.0]",0.19492335617542267,0.0,3.0517578125e-05,-0.021505355834960938,-27.925018310546875
1743586180.4870734,0.0,-0.0,"[174.0, 185.0, 181.0, 156.0, 154.0, 154.0, 156.0, 181.0, 185.0, 174.0]",0.19495177268981934,0.0,3.0517578125e-05,-0.019458770751953125,-27.92169952392578
1743586180.490776,0.0,-0.0,"[174.0, 185.0, 181.0, 156.0, 154.0, 154.0, 156.0, 181.0, 185.0, 174.0]",0.1596418172121048,0.0,3.0517578125e-05,-0.017292022705078125,-27.919357299804688
1743586180.5207064,0.0,-0.0,"[174.0, 185.0, 181.0, 156.0, 154.0, 154.0, 156.0, 181.0, 185.0, 174.0]",0.21156933903694153,0.0,3.0517578125e-05,-0.015077590942382812,-27.922958374023438
1743586180.555449,0.0,-0.0,"[174.0, 185.0, 181.0, 156.0, 154.0, 154.0, 156.0, 181.0, 185.0, 174.0]",0.18065552413463593,0.0,3.0517578125e-05,-0.012876510620117188,-27.925827026367188
1743586180.5589473,0.0,-0.0,"[174.0, 185.0, 181.0, 156.0, 154.0, 154.0, 156.0, 181.0, 185.0, 174.0]",0.10779622942209244,0.0,3.0517578125e-05,-0.010740280151367188,-27.925537109375
1743586180.5882275,0.0,-0.0,"[174.0, 185.0, 181.0, 156.0, 154.0, 154.0, 156.0, 181.0, 185.0, 174.0]",0.15985293686389923,0.0,3.0517578125e-05,-0.008707046508789062,-27.928009033203125
1743586180.5912967,0.0,-0.0,"[174.0, 185.0, 181.0, 156.0, 154.0, 154.0, 156.0, 181.0, 185.0, 174.0]",0.20385488867759705,0.0,3.0517578125e-05,-0.0068111419677734375,-27.924400329589844
1743586180.6210873,0.0,-0.0,"[174.0, 185.0, 181.0, 156.0, 154.0, 154.0, 156.0, 181.0, 185.0, 174.0]",0.14628000557422638,0.0,3.0517578125e-05,-0.00507354736328125,-27.922042846679688
1743586180.6564062,0.0,-0.0,"[174.0, 185.0, 180.0, 156.0, 154.0, 154.0, 156.0, 181.0, 185.0, 174.0]",0.1833418756723404,0.0,3.0517578125e-05,-0.0035076141357421875,-27.92536163330078
1743586180.660585,0.0,-0.0,"[174.0, 185.0, 180.0, 156.0, 154.0, 154.0, 156.0, 181.0, 185.0, 174.0]",0.10718317329883575,0.0,3.0517578125e-05,-0.002124786376953125,-27.927001953125
1743586180.6935818,0.0,-0.0,"[174.0, 185.0, 180.0, 156.0, 154.0, 154.0, 156.0, 181.0, 185.0, 174.0]",0.19616040587425232,0.0,3.0517578125e-05,-0.000926971435546875,-27.923263549804688
1743586180.6966417,0.0,-0.0,"[174.0, 185.0, 180.0, 156.0, 154.0, 154.0, 156.0, 181.0, 185.0, 174.0]",0.12336120009422302,0.0,3.0517578125e-05,8.7738037109375e-05,-27.92101287841797
1743586180.7272801,0.0,-0.0,"[174.0, 185.0, 180.0, 156.0, 154.0, 154.0, 156.0, 181.0, 185.0, 174.0]",0.18505306541919708,0.0,3.0517578125e-05,0.000926971435546875,-27.92462158203125
1743586180.7308493,0.0,-0.0,"[174.0, 185.0, 180.0, 156.0, 154.0, 154.0, 156.0, 181.0, 185.0, 174.0]",0.11978339403867722,0.0,3.0517578125e-05,0.0016002655029296875,-27.926918029785156
1743586180.7618463,0.0,-0.0,"[174.0, 185.0, 180.0, 156.0, 154.0, 154.0, 156.0, 181.0, 185.0, 174.0]",0.1791400909423828,0.0,3.0517578125e-05,0.002117156982421875,-27.923370361328125
1743586180.792991,0.0,-0.0,"[174.0, 185.0, 180.0, 156.0, 154.0, 154.0, 156.0, 181.0, 185.0, 174.0]",0.11756855994462967,0.0,3.0517578125e-05,0.0024929046630859375,-27.921051025390625
1743586180.7957945,0.0,-0.0,"[174.0, 185.0, 180.0, 156.0, 154.0, 154.0, 156.0, 181.0, 185.0, 174.0]",0.17755410075187683,0.0,3.0517578125e-05,0.002742767333984375,-27.924591064453125
1743586180.8249884,0.0,-0.0,"[174.0, 185.0, 180.0, 156.0, 154.0, 154.0, 156.0, 181.0, 185.0, 174.0]",0.12059058994054794,0.0,3.0517578125e-05,0.002880096435546875,-27.927001953125
1743586180.8283458,0.0,-0.0,"[174.0, 185.0, 180.0, 156.0, 154.0, 154.0, 156.0, 181.0, 185.0, 174.0]",0.16394509375095367,0.0,3.0517578125e-05,0.00292205810546875,-27.923721313476562
1743586180.8611088,0.0,-0.0,"[174.0, 185.0, 180.0, 156.0, 154.0, 154.0, 156.0, 181.0, 185.0, 174.0]",0.08609072118997574,0.0,3.0517578125e-05,0.0028820037841796875,-27.92200469970703
1743586180.893824,0.0,-0.0,"[174.0, 185.0, 180.0, 156.0, 154.0, 154.0, 156.0, 181.0, 185.0, 174.0]",0.20117942988872528,0.0,3.0517578125e-05,0.002777099609375,-27.926025390625
1743586180.8971329,0.0,-0.0,"[174.0, 185.0, 180.0, 156.0, 154.0, 154.0, 156.0, 181.0, 185.0, 174.0]",0.09528550505638123,0.0,3.0517578125e-05,0.00261688232421875,-27.92792510986328
1743586180.9276621,0.0,-0.0,"[174.0, 185.0, 180.0, 156.0, 154.0, 154.0, 156.0, 181.0, 185.0, 174.0]",0.2051367312669754,0.0,3.0517578125e-05,0.00241851806640625,-27.923828125
1743586180.9308658,0.0,-0.0,"[174.0, 185.0, 180.0, 156.0, 154.0, 154.0, 156.0, 181.0, 185.0, 174.0]",0.08036673814058304,0.0,3.0517578125e-05,0.00218963623046875,-27.9222412109375
1743586180.9620116,0.0,-0.0,"[174.0, 185.0, 181.0, 156.0, 154.0, 154.0, 156.0, 181.0, 185.0, 174.0]",0.19115306437015533,0.0,3.0517578125e-05,0.0019435882568359375,-27.926055908203125
1743586180.9914975,0.0,-0.0,"[174.0, 185.0, 181.0, 156.0, 154.0, 154.0, 156.0, 181.0, 185.0, 174.0]",0.13590750098228455,0.0,3.0517578125e-05,0.0016880035400390625,-27.928756713867188
1743586180.9945433,0.0,-0.0,"[174.0, 185.0, 181.0, 156.0, 154.0, 154.0, 156.0, 181.0, 185.0, 174.0]",0.08080630004405975,0.0,6.103515625e-05,0.001430511474609375,-27.927162170410156
1743586181.0239413,0.0,-0.0,"[174.0, 185.0, 181.0, 156.0, 154.0, 154.0, 156.0, 181.0, 185.0, 174.0]",0.19192767143249512,0.0,6.103515625e-05,0.0011768341064453125,-27.930992126464844
1743586181.0269804,0.0,-0.0,"[174.0, 185.0, 181.0, 156.0, 154.0, 154.0, 156.0, 181.0, 185.0, 174.0]",0.1371801793575287,0.0,6.103515625e-05,0.000934600830078125,-27.933731079101562
1743586181.0629845,0.0,-0.0,"[174.0, 185.0, 181.0, 156.0, 154.0, 154.0, 156.0, 181.0, 185.0, 174.0]",0.07254905998706818,0.0,6.103515625e-05,0.000705718994140625,-27.932296752929688
1743586181.0915172,0.0,-0.0,"[174.0, 185.0, 181.0, 156.0, 154.0, 154.0, 156.0, 181.0, 185.0, 174.0]",0.17596526443958282,0.0,6.103515625e-05,0.0004940032958984375,-27.935806274414062
1743586181.0947802,0.0,-0.0,"[174.0, 185.0, 181.0, 156.0, 154.0, 154.0, 156.0, 181.0, 185.0, 174.0]",0.13993535935878754,0.0,6.103515625e-05,0.000301361083984375,-27.9385986328125
1743586181.1217892,0.0,-0.0,"[174.0, 185.0, 181.0, 156.0, 154.0, 154.0, 156.0, 181.0, 185.0, 174.0]",0.04867227002978325,0.0,9.1552734375e-05,0.00012969970703125,-27.937644958496094
1743586181.1252851,0.0,-0.0,"[174.0, 185.0, 181.0, 156.0, 154.0, 154.0, 156.0, 181.0, 185.0, 174.0]",0.20114092528820038,0.0,9.1552734375e-05,-2.09808349609375e-05,-27.941665649414062
1743586181.1510005,0.0,-0.0,"[174.0, 185.0, 181.0, 156.0, 154.0, 154.0, 156.0, 181.0, 185.0, 174.0]",0.10720367729663849,0.0,9.1552734375e-05,-0.0001506805419921875,-27.943801879882812
1743586181.17638,0.0,-0.0,"[174.0, 185.0, 181.0, 156.0, 154.0, 154.0, 156.0, 181.0, 185.0, 174.0]",0.19378186762332916,0.0,9.1552734375e-05,-0.0002593994140625,-27.939926147460938
1743586181.2001035,0.0,-0.0,"[174.0, 185.0, 181.0, 156.0, 154.0, 154.0, 156.0, 181.0, 185.0, 174.0]",0.13335704803466797,0.0,9.1552734375e-05,-0.000347137451171875,-27.93726348876953
1743586181.2029114,0.0,-0.0,"[174.0, 185.0, 181.0, 156.0, 154.0, 154.0, 156.0, 181.0, 185.0, 174.0]",0.09922454506158829,0.0,6.103515625e-05,-0.000415802001953125,-27.939247131347656
1743586181.2301898,0.0,-0.0,"[174.0, 185.0, 181.0, 156.0, 154.0, 154.0, 156.0, 181.0, 185.0, 174.0]",0.20827728509902954,0.0,6.103515625e-05,-0.000469207763671875,-27.935081481933594
1743586181.2583091,0.0,-0.0,"[174.0, 185.0, 181.0, 156.0, 154.0, 154.0, 156.0, 181.0, 185.0, 174.0]",0.06712517142295837,0.0,6.103515625e-05,-0.0005054473876953125,-27.933738708496094
1743586181.2854419,0.0,-0.0,"[174.0, 185.0, 181.0, 156.0, 154.0, 154.0, 156.0, 181.0, 185.0, 174.0]",0.17395839095115662,0.0,6.103515625e-05,-0.0005283355712890625,-27.937217712402344
1743586181.2888362,0.0,-0.0,"[174.0, 185.0, 181.0, 156.0, 154.0, 154.0, 156.0, 181.0, 185.0, 174.0]",0.13528132438659668,0.0,6.103515625e-05,-0.0005397796630859375,-27.939926147460938
1743586181.3157017,0.0,-0.0,"[174.0, 185.0, 181.0, 156.0, 154.0, 154.0, 156.0, 181.0, 185.0, 174.0]",0.0815906673669815,0.0,9.1552734375e-05,-0.0005397796630859375,-27.93829345703125
1743586181.344625,0.0,-0.0,"[174.0, 185.0, 181.0, 156.0, 154.0, 154.0, 156.0, 181.0, 185.0, 174.0]",0.19672243297100067,0.0,9.1552734375e-05,-0.000530242919921875,-27.942230224609375
1743586181.347226,0.0,-0.0,"[174.0, 185.0, 181.0, 156.0, 154.0, 154.0, 156.0, 181.0, 185.0, 174.0]",0.12213164567947388,0.0,9.1552734375e-05,-0.000514984130859375,-27.944671630859375
1743586181.3710136,0.0,-0.0,"[174.0, 185.0, 181.0, 156.0, 154.0, 154.0, 156.0, 181.0, 185.0, 174.0]",0.16021645069122314,0.0,9.1552734375e-05,-0.00049591064453125,-27.94146728515625
1743586181.3944032,0.0,-0.0,"[174.0, 185.0, 181.0, 156.0, 154.0, 154.0, 156.0, 181.0, 185.0, 174.0]",0.0760667473077774,0.0,9.1552734375e-05,-0.0004711151123046875,-27.93994140625
1743586181.4190161,0.0,-0.0,"[174.0, 185.0, 181.0, 156.0, 154.0, 154.0, 156.0, 181.0, 185.0, 174.0]",0.1817174255847931,0.0,9.1552734375e-05,-0.0004425048828125,-27.943572998046875
1743586181.4219172,0.0,-0.0,"[174.0, 185.0, 181.0, 156.0, 154.0, 154.0, 156.0, 181.0, 185.0, 174.0]",0.1440366506576538,0.0,9.1552734375e-05,-0.0004138946533203125,-27.946456909179688
1743586181.4543655,0.0,-0.0,"[174.0, 185.0, 181.0, 156.0, 154.0, 154.0, 156.0, 181.0, 185.0, 174.0]",0.012852810323238373,0.0,0.0001220703125,-0.0003833770751953125,-27.946197509765625
1743586181.4854984,0.0,-0.0,"[174.0, 185.0, 181.0, 156.0, 154.0, 154.0, 156.0, 181.0, 185.0, 174.0]",0.12332121282815933,0.0,9.1552734375e-05,-0.000354766845703125,-27.94866943359375
1743586181.4895086,0.0,-0.0,"[174.0, 185.0, 181.0, 156.0, 154.0, 154.0, 156.0, 181.0, 185.0, 174.0]",0.2079395204782486,0.0,9.1552734375e-05,-0.0003261566162109375,-27.94451141357422
1743586181.5140157,0.0,-0.0,"[174.0, 185.0, 181.0, 156.0, 154.0, 154.0, 156.0, 181.0, 185.0, 174.0]",0.0669592022895813,0.0,9.1552734375e-05,-0.00029754638671875,-27.94316864013672
1743586181.5412273,0.0,-0.0,"[174.0, 185.0, 181.0, 156.0, 154.0, 154.0, 156.0, 181.0, 185.0, 174.0]",0.17410273849964142,0.0,9.1552734375e-05,-0.0002727508544921875,-27.9466552734375
1743586181.5443535,0.0,-0.0,"[174.0, 185.0, 181.0, 156.0, 154.0, 154.0, 156.0, 181.0, 185.0, 174.0]",0.13323183357715607,0.0,9.1552734375e-05,-0.000247955322265625,-27.949317932128906
1743586181.5680478,0.0,-0.0,"[174.0, 185.0, 181.0, 156.0, 154.0, 154.0, 156.0, 181.0, 185.0, 174.0]",0.0962517112493515,0.0,0.0001220703125,-0.0002269744873046875,-27.94739532470703
1743586181.591824,0.0,-0.0,"[174.0, 185.0, 181.0, 156.0, 154.0, 154.0, 156.0, 181.0, 185.0, 174.0]",0.2091672420501709,0.0,0.0001220703125,-0.0002079010009765625,-27.951576232910156
1743586181.6151047,0.0,-0.0,"[174.0, 185.0, 181.0, 156.0, 154.0, 154.0, 156.0, 181.0, 185.0, 174.0]",0.06067642569541931,0.0,0.0001220703125,-0.0001926422119140625,-27.952789306640625
1743586181.6433153,0.0,-0.0,"[174.0, 185.0, 181.0, 156.0, 154.0, 154.0, 156.0, 181.0, 185.0, 174.0]",0.17608514428138733,0.0,0.0001220703125,-0.0001773834228515625,-27.949264526367188
1743586181.6478095,0.0,-0.0,"[174.0, 185.0, 181.0, 156.0, 154.0, 154.0, 156.0, 181.0, 185.0, 174.0]",0.13713236153125763,0.0,0.0001220703125,-0.0001659393310546875,-27.94652557373047
1743586181.672573,0.0,-0.0,"[174.0, 185.0, 181.0, 156.0, 154.0, 154.0, 156.0, 181.0, 185.0, 174.0]",0.06480831652879715,0.0,9.1552734375e-05,-0.000156402587890625,-27.94782257080078
1743586181.6970475,0.0,-0.0,"[174.0, 185.0, 181.0, 156.0, 154.0, 154.0, 156.0, 181.0, 185.0, 174.0]",0.17438949644565582,0.0,9.1552734375e-05,-0.0001506805419921875,-27.9443359375
1743586181.720495,0.0,-0.0,"[174.0, 185.0, 181.0, 156.0, 154.0, 154.0, 156.0, 181.0, 185.0, 174.0]",0.13370834290981293,0.0,9.1552734375e-05,-0.00014495849609375,-27.94165802001953
1743586181.7240574,0.0,-0.0,"[174.0, 185.0, 181.0, 156.0, 154.0, 154.0, 156.0, 181.0, 185.0, 174.0]",0.09249845147132874,0.0,9.1552734375e-05,-0.000141143798828125,-27.943511962890625
1743586181.7504802,0.0,-0.0,"[174.0, 185.0, 181.0, 156.0, 154.0, 154.0, 156.0, 181.0, 185.0, 174.0]",0.21058067679405212,0.0,9.1552734375e-05,-0.0001392364501953125,-27.939300537109375
1743586181.7741566,0.0,-0.0,"[174.0, 185.0, 181.0, 156.0, 154.0, 154.0, 156.0, 181.0, 185.0, 174.0]",0.05393916741013527,0.0,6.103515625e-05,-0.0001373291015625,-27.938217163085938
1743586181.7982423,0.0,-0.0,"[174.0, 185.0, 181.0, 156.0, 154.0, 154.0, 156.0, 181.0, 185.0, 174.0]",0.1854979246854782,0.0,6.103515625e-05,-0.0001392364501953125,-27.941925048828125
1743586181.8013325,0.0,-0.0,"[174.0, 185.0, 181.0, 156.0, 154.0, 154.0, 156.0, 181.0, 185.0, 174.0]",0.14315512776374817,0.0,9.1552734375e-05,-0.0001392364501953125,-27.944793701171875
1743586181.8281705,0.0,-0.0,"[174.0, 185.0, 181.0, 156.0, 154.0, 154.0, 156.0, 181.0, 185.0, 174.0]",0.01886877976357937,0.0,9.1552734375e-05,-0.000141143798828125,-27.944412231445312
1743586181.856124,0.0,-0.0,"[174.0, 185.0, 181.0, 156.0, 154.0, 154.0, 156.0, 181.0, 185.0, 174.0]",0.1857444792985916,0.0,9.1552734375e-05,-0.00014495849609375,-27.94812774658203
1743586181.8641667,0.0,-0.0,"[174.0, 185.0, 181.0, 156.0, 154.0, 154.0, 156.0, 181.0, 185.0, 174.0]",0.14279109239578247,0.0,9.1552734375e-05,-0.0001468658447265625,-27.95098876953125
1743586181.86667,0.0,-0.0,"[174.0, 185.0, 181.0, 156.0, 154.0, 154.0, 156.0, 181.0, 185.0, 174.0]",0.021517980843782425,0.0,9.1552734375e-05,-0.0001506805419921875,-27.95055389404297
1743586181.8813398,0.0,-0.0,"[174.0, 185.0, 181.0, 156.0, 154.0, 154.0, 156.0, 181.0, 185.0, 174.0]",0.19061842560768127,0.0,9.1552734375e-05,-0.0001544952392578125,-27.954368591308594
1743586181.9000244,0.0,-0.0,"[174.0, 185.0, 181.0, 156.0, 154.0, 154.0, 156.0, 181.0, 185.0, 174.0]",0.13788007199764252,0.0,0.0001220703125,-0.000156402587890625,-27.957122802734375
1743586181.9210055,0.0,-0.0,"[174.0, 185.0, 181.0, 156.0, 154.0, 154.0, 156.0, 181.0, 185.0, 174.0]",0.05934050306677818,0.0,0.0001220703125,-0.00016021728515625,-27.95594024658203
1743586181.9419875,0.0,-0.0,"[174.0, 185.0, 181.0, 156.0, 154.0, 154.0, 156.0, 181.0, 185.0, 174.0]",0.17605413496494293,0.0,0.0001220703125,-0.000164031982421875,-27.959457397460938
1743586181.9618988,0.0,-0.0,"[174.0, 185.0, 181.0, 156.0, 154.0, 154.0, 156.0, 181.0, 185.0, 174.0]",0.13735763728618622,0.0,0.0001220703125,-0.0001678466796875,-27.962203979492188
1743586181.981611,0.0,-0.0,"[174.0, 185.0, 181.0, 156.0, 154.0, 154.0, 156.0, 181.0, 185.0, 174.0]",0.06337516009807587,0.0,0.0001220703125,-0.0001697540283203125,-27.9609375
1743586182.0034692,0.0,-0.0,"[174.0, 185.0, 181.0, 156.0, 154.0, 154.0, 156.0, 181.0, 185.0, 174.0]",0.17461907863616943,0.0,0.000152587890625,-0.000171661376953125,-27.964431762695312
1743586182.0217705,0.0,-0.0,"[174.0, 185.0, 181.0, 156.0, 154.0, 154.0, 156.0, 181.0, 185.0, 174.0]",0.13459740579128265,0.0,0.000152587890625,-0.00017547607421875,-27.967117309570312
1743586182.041699,0.0,-0.0,"[174.0, 185.0, 181.0, 156.0, 154.0, 154.0, 156.0, 181.0, 185.0, 174.0]",0.08566658943891525,0.0,0.000152587890625,-0.0001773834228515625,-27.965408325195312
1743586182.0640368,0.0,-0.0,"[174.0, 185.0, 181.0, 156.0, 154.0, 154.0, 156.0, 181.0, 185.0, 174.0]",0.20570620894432068,0.0,0.000152587890625,-0.000179290771484375,-27.969520568847656
1743586182.082255,0.0,-0.0,"[174.0, 185.0, 181.0, 156.0, 154.0, 154.0, 156.0, 181.0, 185.0, 174.0]",0.0787673071026802,0.0,0.000152587890625,-0.0001811981201171875,-27.971099853515625
1743586182.101557,0.0,-0.0,"[174.0, 185.0, 181.0, 156.0, 154.0, 154.0, 156.0, 181.0, 185.0, 174.0]",0.18900468945503235,0.0,0.000152587890625,-0.0001811981201171875,-27.967315673828125
1743586182.1212125,0.0,-0.0,"[174.0, 185.0, 181.0, 156.0, 154.0, 154.0, 156.0, 181.0, 185.0, 174.0]",0.14054785668849945,0.0,0.000152587890625,-0.00018310546875,-27.964508056640625
1743586182.1425087,0.0,-0.0,"[174.0, 185.0, 181.0, 156.0, 154.0, 154.0, 156.0, 181.0, 185.0, 174.0]",0.03837021440267563,0.0,0.000152587890625,-0.00018310546875,-27.96527099609375
1743586182.1620486,0.0,-0.0,"[174.0, 185.0, 181.0, 156.0, 154.0, 154.0, 156.0, 181.0, 185.0, 174.0]",0.20896506309509277,0.0,0.000152587890625,-0.00018310546875,-27.961090087890625
1743586182.182178,0.0,-0.0,"[174.0, 185.0, 181.0, 156.0, 154.0, 154.0, 156.0, 181.0, 185.0, 174.0]",0.062023013830184937,0.0,0.000152587890625,-0.0001850128173828125,-27.959854125976562
1743586182.2037225,0.0,-0.0,"[174.0, 185.0, 181.0, 156.0, 154.0, 154.0, 156.0, 181.0, 185.0, 174.0]",0.1754089891910553,0.0,0.000152587890625,-0.0001850128173828125,-27.963363647460938
1743586182.2219267,0.0,-0.0,"[174.0, 185.0, 181.0, 156.0, 154.0, 154.0, 156.0, 181.0, 185.0, 174.0]",0.13622277975082397,0.0,0.000152587890625,-0.0001850128173828125,-27.966087341308594
1743586182.2425635,0.0,-0.0,"[174.0, 185.0, 181.0, 156.0, 154.0, 154.0, 156.0, 181.0, 185.0, 174.0]",0.07254893332719803,0.0,0.000152587890625,-0.0001850128173828125,-27.964630126953125
1743586182.262314,0.0,-0.0,"[174.0, 185.0, 181.0, 156.0, 154.0, 154.0, 156.0, 181.0, 185.0, 174.0]",0.17636223137378693,0.0,0.000152587890625,-0.0001850128173828125,-27.968162536621094
1743586182.281397,0.0,-0.0,"[174.0, 185.0, 181.0, 156.0, 154.0, 154.0, 156.0, 181.0, 185.0, 174.0]",0.1380479782819748,0.0,0.00018310546875,-0.00018310546875,-27.970924377441406
1743586182.3004336,0.0,-0.0,"[174.0, 185.0, 181.0, 156.0, 154.0, 154.0, 156.0, 181.0, 185.0, 174.0]",0.05780912563204765,0.0,0.00018310546875,-0.00018310546875,-27.969764709472656
1743586182.3210557,0.0,-0.0,"[174.0, 185.0, 181.0, 156.0, 154.0, 154.0, 156.0, 181.0, 185.0, 174.0]",0.17725570499897003,0.0,0.00018310546875,-0.00018310546875,-27.973312377929688
1743586182.3427305,0.0,-0.0,"[174.0, 185.0, 181.0, 156.0, 154.0, 154.0, 156.0, 181.0, 185.0, 174.0]",0.1392054706811905,0.0,0.00018310546875,-0.00018310546875,-27.976097106933594
1743586182.361148,0.0,-0.0,"[174.0, 185.0, 181.0, 156.0, 154.0, 154.0, 156.0, 181.0, 185.0, 174.0]",0.048737503588199615,0.0,0.00018310546875,-0.00018310546875,-27.975120544433594
1743586182.381269,0.0,-0.0,"[174.0, 185.0, 181.0, 156.0, 154.0, 154.0, 156.0, 181.0, 185.0, 174.0]",0.1981421709060669,0.0,0.000213623046875,-0.00018310546875,-27.979087829589844
1743586182.4025106,0.0,-0.0,"[174.0, 185.0, 181.0, 156.0, 154.0, 154.0, 156.0, 181.0, 185.0, 174.0]",0.11648369580507278,0.0,0.000213623046875,-0.0001811981201171875,-27.981414794921875
1743586182.420596,0.0,-0.0,"[174.0, 185.0, 181.0, 156.0, 154.0, 154.0, 156.0, 181.0, 185.0, 174.0]",0.18519602715969086,0.0,0.000213623046875,-0.0001811981201171875,-27.977706909179688
1743586182.441803,0.0,-0.0,"[174.0, 185.0, 181.0, 156.0, 154.0, 154.0, 156.0, 181.0, 185.0, 174.0]",0.14343687891960144,0.0,0.00018310546875,-0.0001811981201171875,-27.974838256835938
1743586182.4631844,0.0,-0.0,"[174.0, 185.0, 181.0, 156.0, 154.0, 154.0, 156.0, 181.0, 185.0, 174.0]",0.01688387431204319,0.0,0.00018310546875,-0.0001811981201171875,-27.975181579589844
1743586182.4808152,0.0,-0.0,"[174.0, 185.0, 181.0, 156.0, 154.0, 154.0, 156.0, 181.0, 185.0, 174.0]",0.1731792688369751,0.0,0.00018310546875,-0.0001811981201171875,-27.971717834472656
1743586182.5014408,0.0,-0.0,"[174.0, 185.0, 181.0, 156.0, 154.0, 154.0, 156.0, 181.0, 185.0, 174.0]",0.13266342878341675,0.0,0.00018310546875,-0.000179290771484375,-27.96906280517578
1743586182.5208654,0.0,-0.0,"[174.0, 185.0, 181.0, 156.0, 154.0, 154.0, 156.0, 181.0, 185.0, 174.0]",0.10055484622716904,0.0,0.00018310546875,-0.000179290771484375,-27.9710693359375
1743586182.5423691,0.0,-0.0,"[174.0, 185.0, 181.0, 156.0, 154.0, 154.0, 156.0, 181.0, 185.0, 174.0]",0.2048376351594925,0.0,0.00018310546875,-0.000179290771484375,-27.96697998046875
1743586182.5615122,0.0,-0.0,"[174.0, 185.0, 181.0, 156.0, 154.0, 154.0, 156.0, 181.0, 185.0, 174.0]",0.08337090909481049,0.0,0.000152587890625,-0.000179290771484375,-27.965309143066406
1743586182.5812812,0.0,-0.0,"[174.0, 185.0, 181.0, 156.0, 154.0, 154.0, 156.0, 181.0, 185.0, 174.0]",0.19898860156536102,0.0,0.000152587890625,-0.000179290771484375,-27.96929168701172
1743586182.6034029,0.0,-0.0,"[174.0, 185.0, 181.0, 156.0, 154.0, 154.0, 156.0, 181.0, 185.0, 174.0]",0.11288805305957794,0.0,0.00018310546875,-0.000179290771484375,-27.97154998779297
1743586182.621575,0.0,-0.0,"[174.0, 185.0, 181.0, 156.0, 154.0, 154.0, 156.0, 181.0, 185.0, 174.0]",0.19163648784160614,0.0,0.00018310546875,-0.000179290771484375,-27.96771240234375
1743586182.6427546,0.0,0.1537141001252726,"[174.0, 185.0, 181.0, 156.0, 154.0, 154.0, 156.0, 181.0, 185.0, 174.0]",0.13619527220726013,0.0,0.000152587890625,-0.000179290771484375,-27.964996337890625
1743586182.661494,-0.2160481198085028,0.4254164153482114,"[174.0, 185.0, 181.0, 156.0, 154.0, 154.0, 156.0, 181.0, 185.0, 174.0]",0.05755971744656563,0.0,-3.0517578125e-05,-0.000179290771484375,-27.96385955810547
1743586182.6817262,-0.3620442734972789,0.8129262747645339,"[174.0, 185.0, 181.0, 156.0, 154.0, 154.0, 156.0, 181.0, 185.0, 174.0]",0.19272764027118683,-0.10802406072616577,-0.0010986328125,-0.000179290771484375,-27.967559814453125
1743586182.7011983,-0.42293056180694794,0.9190831902751357,"[174.0, 185.0, 181.0, 156.0, 154.0, 154.0, 156.0, 181.0, 185.0, 174.0]",0.18636058270931244,-0.18102213740348816,-0.004425048828125,-0.000179290771484375,-27.96588134765625
1743586182.7205422,-0.42293056180694794,0.9190831902751357,"[174.0, 185.0, 181.0, 156.0, 154.0, 154.0, 156.0, 181.0, 185.0, 174.0]",0.3013790249824524,-0.2114652842283249,-0.010284423828125,-0.000179290771484375,-27.967391967773438
1743586182.742688,-0.42293056180694794,0.9190831902751357,"[174.0, 185.0, 181.0, 156.0, 154.0, 154.0, 156.0, 181.0, 185.0, 174.0]",0.4166029691696167,-0.2114652842283249,-0.018585205078125,-0.000179290771484375,-27.96723175048828
1743586182.7624683,-0.42293056180694794,0.9190831902751357,"[174.0, 185.0, 181.0, 156.0, 154.0, 154.0, 156.0, 181.0, 185.0, 174.0]",0.568338930606842,-0.2114652842283249,-0.029937744140625,-0.000179290771484375,-27.968177795410156
1743586182.782239,-0.42293056180694794,0.9190831902751357,"[174.0, 185.0, 181.0, 156.0, 154.0, 154.0, 156.0, 181.0, 185.0, 174.0]",0.6342489719390869,-0.2114652842283249,-0.042572021484375,-0.000179290771484375,-27.969009399414062
1743586182.804084,-0.42293056180694794,0.9190831902751357,"[174.0, 185.0, 181.0, 156.0, 154.0, 154.0, 156.0, 181.0, 185.0, 174.0]",0.7834452986717224,-0.2114652842283249,-0.0582275390625,-0.000179290771484375,-27.970138549804688
1743586182.8204968,-0.42293056180694794,0.9190831902751357,"[174.0, 185.0, 181.0, 156.0, 154.0, 154.0, 156.0, 181.0, 185.0, 174.0]",0.8664505481719971,-0.2114652842283249,-0.07550048828125,-0.000179290771484375,-27.971473693847656
1743586182.8420544,-0.42293056180694794,0.9190831902751357,"[174.0, 185.0, 181.0, 156.0, 154.0, 154.0, 156.0, 181.0, 185.0, 174.0]",0.9734530448913574,-0.2114652842283249,-0.09490966796875,-0.000179290771484375,-27.972946166992188
1743586182.862594,-0.3037767502761979,0.9836681668445229,"[174.0, 185.0, 181.0, 156.0, 155.0, 154.0, 156.0, 181.0, 185.0, 174.0]",1.1187496185302734,-0.2114652842283249,-0.117218017578125,-0.000179290771484375,-27.974655151367188
1743586182.8819277,-0.20884651581488603,1.0074235605252169,"[174.0, 185.0, 181.0, 156.0, 155.0, 154.0, 156.0, 181.0, 185.0, 174.0]",1.266156792640686,-0.15188837051391602,-0.142486572265625,-0.000179290771484375,-27.97612762451172
1743586182.9011552,-0.14010393223945333,1.0133624089453905,"[174.0, 185.0, 181.0, 156.0, 155.0, 154.0, 156.0, 181.0, 185.0, 174.0]",1.3917009830474854,-0.10442326217889786,-0.170318603515625,-0.000179290771484375,-27.977264404296875
1743586182.9214823,0.0,1.021528325523129,"[174.0, 185.0, 181.0, 156.0, 155.0, 154.0, 156.0, 181.0, 185.0, 174.0]",1.5058984756469727,-0.07005196809768677,-0.200408935546875,-0.0001811981201171875,-27.978164672851562
1743586182.941552,0.0,1.0230130376281723,"[174.0, 185.0, 181.0, 156.0, 155.0, 154.0, 156.0, 181.0, 185.0, 174.0]",1.6252553462982178,0.0,-0.23291015625,-0.0001811981201171875,-27.97838592529297
1743586182.9614701,0.0,1.0246833387463463,"[174.0, 185.0, 181.0, 156.0, 155.0, 154.0, 156.0, 181.0, 185.0, 174.0]",1.7981956005096436,0.0,-0.268890380859375,-0.0001811981201171875,-27.978614807128906
1743586182.9814653,0.0,1.0263072426112374,"[174.0, 185.0, 181.0, 156.0, 155.0, 154.0, 156.0, 181.0, 185.0, 174.0]",1.9097766876220703,0.0,-0.30706787109375,-0.0001811981201171875,-27.978858947753906
1743586183.0030718,0.0,1.0263072426112374,"[174.0, 185.0, 181.0, 156.0, 155.0, 154.0, 156.0, 181.0, 185.0, 174.0]",2.0357131958007812,0.0,-0.3477783203125,-0.0001811981201171875,-27.979110717773438
1743586183.0212102,0.0,1.0263072426112374,"[174.0, 185.0, 181.0, 156.0, 155.0, 154.0, 156.0, 181.0, 185.0, 174.0]",2.1618993282318115,0.0,-0.391021728515625,-0.0001811981201171875,-27.97937774658203
1743586183.041411,0.0,1.0263072426112374,"[174.0, 185.0, 181.0, 156.0, 155.0, 154.0, 156.0, 181.0, 185.0, 174.0]",2.3088784217834473,0.0,-0.43719482421875,-0.0001811981201171875,-27.97968292236328
1743586183.064711,0.0,1.0263072426112374,"[174.0, 185.0, 181.0, 156.0, 155.0, 154.0, 156.0, 181.0, 185.0, 174.0]",2.42354416847229,0.0,-0.48565673828125,-0.0001811981201171875,-27.980003356933594
1743586183.0817158,0.0,1.0263072426112374,"[174.0, 185.0, 181.0, 156.0, 155.0, 154.0, 156.0, 181.0, 185.0, 174.0]",2.5647575855255127,0.0,-0.536956787109375,-0.0001811981201171875,-27.980331420898438
1743586183.1003957,0.0,1.0263072426112374,"[174.0, 185.0, 181.0, 156.0, 155.0, 154.0, 156.0, 181.0, 185.0, 174.0]",2.70123553276062,0.0,-0.590972900390625,-0.0001811981201171875,-27.980674743652344
1743586183.1215515,0.0,1.0263072426112374,"[174.0, 185.0, 181.0, 156.0, 155.0, 154.0, 156.0, 181.0, 185.0, 174.0]",2.8103697299957275,0.0,-0.647186279296875,-0.0001811981201171875,-27.981033325195312
1743586183.1418774,0.0,1.0263072426112374,"[174.0, 185.0, 181.0, 156.0, 155.0, 154.0, 156.0, 181.0, 185.0, 174.0]",2.948145866394043,0.0,-0.706146240234375,-0.0001811981201171875,-27.981399536132812
1743586183.1610265,0.0,1.0263072426112374,"[174.0, 185.0, 181.0, 156.0, 155.0, 154.0, 156.0, 181.0, 185.0, 174.0]",3.115065336227417,0.0,-0.768463134765625,-0.0001811981201171875,-27.9818115234375
1743586183.1803658,0.0,1.0263072426112374,"[174.0, 185.0, 181.0, 156.0, 155.0, 154.0, 156.0, 181.0, 185.0, 174.0]",3.2060701847076416,0.0,-0.83258056640625,-0.0001811981201171875,-27.98224639892578
1743586183.204197,0.0,1.0263072426112374,"[174.0, 185.0, 181.0, 156.0, 155.0, 154.0, 156.0, 181.0, 185.0, 174.0]",3.3565611839294434,0.0,-0.899688720703125,-0.0001811981201171875,-27.982711791992188
1743586183.2230377,0.0,1.0263072426112374,"[174.0, 185.0, 181.0, 156.0, 155.0, 154.0, 156.0, 181.0, 185.0, 174.0]",3.4788448810577393,0.0,-0.969268798828125,-0.0001811981201171875,-27.983192443847656
1743586183.2428744,0.0,1.0263072426112374,"[174.0, 185.0, 181.0, 156.0, 155.0, 154.0, 156.0, 181.0, 185.0, 174.0]",3.6136271953582764,0.0,-1.041534423828125,-0.0001811981201171875,-27.983688354492188
1743586183.2601435,0.0,1.0263072426112374,"[174.0, 185.0, 181.0, 156.0, 155.0, 154.0, 156.0, 181.0, 185.0, 174.0]",3.7389016151428223,0.0,-1.1163330078125,-0.0001811981201171875,-27.98419189453125
1743586183.280606,0.0,1.0263072426112374,"[174.0, 185.0, 181.0, 156.0, 155.0, 154.0, 156.0, 181.0, 185.0, 174.0]",3.8539257049560547,0.0,-1.193389892578125,-0.0001811981201171875,-27.984725952148438
1743586183.3010523,0.0,1.0263072426112374,"[174.0, 185.0, 181.0, 156.0, 155.0, 154.0, 156.0, 181.0, 185.0, 174.0]",3.9960811138153076,0.0,-1.2733154296875,-0.0001811981201171875,-27.985275268554688
1743586183.320053,0.0,1.0263072426112374,"[174.0, 185.0, 181.0, 156.0, 155.0, 154.0, 156.0, 181.0, 185.0, 174.0]",4.116649150848389,0.0,-1.35565185546875,-0.0001811981201171875,-27.98583984375
1743586183.3420854,0.0,1.0263072426112374,"[174.0, 185.0, 181.0, 156.0, 155.0, 154.0, 156.0, 181.0, 185.0, 174.0]",4.292006015777588,0.0,-1.441497802734375,-0.0001811981201171875,-27.986419677734375
1743586183.3602507,0.0,1.0263072426112374,"[174.0, 185.0, 181.0, 156.0, 155.0, 154.0, 156.0, 181.0, 185.0, 174.0]",4.377336502075195,0.0,-1.529022216796875,-0.0001811981201171875,-27.987014770507812
1743586183.3814905,0.0,1.0263072426112374,"[174.0, 185.0, 181.0, 156.0, 155.0, 154.0, 156.0, 181.0, 185.0, 174.0]",4.536013603210449,0.0,-1.6197509765625,-0.0001811981201171875,-27.987640380859375
1743586183.4029686,0.0,1.0279311464761287,"[174.0, 185.0, 181.0, 156.0, 155.0, 154.0, 156.0, 181.0, 185.0, 174.0]",4.651569366455078,0.0,-1.7127685546875,-0.0001811981201171875,-27.98828125
1743586183.421988,0.0,1.0279311464761287,"[174.0, 185.0, 181.0, 156.0, 155.0, 154.0, 156.0, 181.0, 185.0, 174.0]",4.790339946746826,0.0,-1.80859375,-0.0001811981201171875,-27.988937377929688
1743586183.4418235,0.0,1.0279311464761287,"[174.0, 185.0, 181.0, 156.0, 155.0, 154.0, 156.0, 181.0, 185.0, 174.0]",4.931711673736572,0.0,-1.9072265625,-0.0001811981201171875,-27.98961639404297
1743586183.4618576,0.0,1.0279311464761287,"[174.0, 185.0, 181.0, 156.0, 155.0, 154.0, 156.0, 181.0, 185.0, 174.0]",5.029480934143066,0.0,-2.0078125,-0.0001811981201171875,-27.99030303955078
1743586183.4815693,0.0,1.0279311464761287,"[174.0, 185.0, 181.0, 156.0, 155.0, 154.0, 156.0, 181.0, 185.0, 174.0]",5.365250110626221,0.0,-2.1151123046875,0.000156402587890625,-27.991043090820312
1743586183.5012286,0.0,1.0279311464761287,"[174.0, 185.0, 181.0, 156.0, 155.0, 154.0, 156.0, 181.0, 185.0, 174.0]",5.131105422973633,0.0,-2.217742919921875,0.0004425048828125,-27.991744995117188
1743586183.5207694,0.0,1.0279311464761287,"[174.0, 185.0, 181.0, 156.0, 155.0, 154.0, 156.0, 181.0, 185.0, 174.0]",5.434676170349121,0.0,-2.326416015625,0.0006809234619140625,-27.99249267578125
1743586183.5417535,0.0,1.0279311464761287,"[174.0, 185.0, 181.0, 156.0, 155.0, 154.0, 156.0, 181.0, 185.0, 174.0]",5.505900859832764,0.0,-2.4365234375,0.0008716583251953125,-27.993255615234375
1743586183.5604715,0.0,1.0279311464761287,"[174.0, 185.0, 181.0, 156.0, 155.0, 154.0, 156.0, 181.0, 185.0, 174.0]",5.511762619018555,0.0,-2.5467529296875,0.001018524169921875,-27.99401092529297
1743586183.5817327,0.0,1.0279311464761287,"[174.0, 185.0, 181.0, 156.0, 155.0, 154.0, 156.0, 181.0, 185.0, 174.0]",5.821916580200195,0.0,-2.6632080078125,0.0011272430419921875,-27.99481201171875
1743586183.6040797,0.0,1.0279311464761287,"[174.0, 185.0, 181.0, 156.0, 155.0, 154.0, 156.0, 181.0, 185.0, 174.0]",5.836262226104736,0.0,-2.779937744140625,0.0011997222900390625,-27.995628356933594
1743586183.622674,0.0,1.0279311464761287,"[174.0, 185.0, 181.0, 156.0, 155.0, 154.0, 156.0, 181.0, 185.0, 174.0]",5.824061870574951,0.0,-2.896392822265625,0.001239776611328125,-27.99633026123047
1743586183.642768,0.0,1.0279311464761287,"[174.0, 185.0, 181.0, 156.0, 155.0, 154.0, 156.0, 181.0, 185.0, 174.0]",6.108208179473877,0.0,-3.0185546875,0.001255035400390625,-27.997238159179688
1743586183.663018,0.0,1.0279311464761287,"[174.0, 185.0, 181.0, 156.0, 155.0, 154.0, 156.0, 180.0, 185.0, 174.0]",6.235386848449707,0.0,-3.143280029296875,0.001247406005859375,-27.9979248046875
1743586183.6808834,0.0,1.0279311464761287,"[174.0, 185.0, 181.0, 156.0, 155.0, 154.0, 156.0, 181.0, 185.0, 174.0]",6.215788841247559,0.0,-3.267578125,0.0012226104736328125,-27.999038696289062
1743586183.7015784,0.0,1.0279311464761287,"[174.0, 185.0, 181.0, 156.0, 155.0, 154.0, 156.0, 180.0, 185.0, 174.0]",6.526761054992676,0.0,-3.398101806640625,0.00118255615234375,-27.99962615966797
1743586183.7208977,0.0,1.0279311464761287,"[174.0, 185.0, 181.0, 156.0, 155.0, 154.0, 156.0, 181.0, 185.0, 174.0]",6.551815509796143,0.0,-3.529144287109375,0.001132965087890625,-28.000831604003906
1743586183.7425306,0.0,1.0279311464761287,"[174.0, 185.0, 181.0, 157.0, 155.0, 154.0, 156.0, 180.0, 185.0, 174.0]",6.805729866027832,0.0,-3.665252685546875,0.00107574462890625,-28.001495361328125
1743586183.7607265,0.0,1.0279311464761287,"[174.0, 185.0, 181.0, 156.0, 155.0, 154.0, 156.0, 181.0, 185.0, 174.0]",6.830759048461914,0.0,-3.8018798828125,0.00101470947265625,-28.00286865234375
1743586183.780392,0.0,1.0279311464761287,"[174.0, 185.0, 181.0, 157.0, 155.0, 154.0, 156.0, 180.0, 185.0, 174.0]",6.7954583168029785,0.0,-3.937774658203125,0.0009517669677734375,-28.002731323242188
1743586183.8019319,0.0,1.0279311464761287,"[174.0, 185.0, 181.0, 156.0, 155.0, 154.0, 156.0, 181.0, 185.0, 174.0]",7.098282814025879,0.0,-4.0797119140625,0.000888824462890625,-28.00543975830078
1743586183.8223593,0.0,1.0279311464761287,"[174.0, 185.0, 181.0, 157.0, 155.0, 154.0, 156.0, 180.0, 185.0, 174.0]",7.085272312164307,0.0,-4.221405029296875,0.000827789306640625,-28.004310607910156
1743586183.8416395,0.0,1.0279311464761287,"[174.0, 185.0, 181.0, 156.0, 155.0, 154.0, 156.0, 181.0, 185.0, 174.0]",7.40175724029541,0.0,-4.369415283203125,0.00077056884765625,-28.007705688476562
1743586183.8611705,0.0,1.0279311464761287,"[174.0, 185.0, 181.0, 156.0, 155.0, 154.0, 156.0, 181.0, 185.0, 174.0]",7.475287914276123,0.0,-4.5189208984375,0.0007190704345703125,-28.006668090820312
1743586183.881629,0.0,1.0279311464761287,"[174.0, 185.0, 181.0, 157.0, 155.0, 154.0, 156.0, 180.0, 185.0, 174.0]",7.468824863433838,0.0,-4.66827392578125,0.0006694793701171875,-28.00835418701172
1743586183.9007537,0.0,1.0279311464761287,"[174.0, 185.0, 181.0, 157.0, 155.0, 154.0, 156.0, 180.0, 185.0, 174.0]",7.820317268371582,0.0,-4.824676513671875,0.0006275177001953125,-28.009246826171875
1743586183.9220467,0.0,1.0279311464761287,"[174.0, 185.0, 181.0, 156.0, 155.0, 154.0, 156.0, 180.0, 185.0, 174.0]",7.617884635925293,0.0,-4.97705078125,0.000591278076171875,-28.010391235351562
1743586183.9420288,0.0,1.0279311464761287,"[174.0, 185.0, 181.0, 156.0, 155.0, 154.0, 156.0, 180.0, 185.0, 174.0]",7.922366619110107,0.0,-5.135467529296875,0.000560760498046875,-28.011337280273438
1743586183.9615529,0.0,1.0279311464761287,"[174.0, 185.0, 181.0, 156.0, 155.0, 154.0, 156.0, 180.0, 185.0, 174.0]",7.910104274749756,0.0,-5.293670654296875,0.0005340576171875,-28.012405395507812
1743586183.9816034,0.0,1.0279311464761287,"[174.0, 185.0, 181.0, 156.0, 155.0, 154.0, 156.0, 180.0, 185.0, 174.0]",8.220789909362793,0.0,-5.458099365234375,0.000514984130859375,-28.013465881347656
1743586184.0044837,0.0,1.0279311464761287,"[174.0, 185.0, 181.0, 156.0, 155.0, 154.0, 156.0, 181.0, 185.0, 174.0]",8.270805358886719,0.0,-5.623504638671875,0.0004978179931640625,-28.014549255371094
1743586184.021693,0.0,1.0279311464761287,"[174.0, 185.0, 181.0, 157.0, 155.0, 154.0, 156.0, 180.0, 185.0, 174.0]",8.452995300292969,0.0,-5.792572021484375,0.00048828125,-28.01543426513672
1743586184.0416045,0.0,1.0279311464761287,"[174.0, 185.0, 181.0, 157.0, 155.0, 154.0, 156.0, 180.0, 185.0, 174.0]",8.459013938903809,0.0,-5.96173095703125,0.00048065185546875,-28.016738891601562
1743586184.06149,0.0,1.0279311464761287,"[174.0, 185.0, 181.0, 157.0, 155.0, 154.0, 156.0, 180.0, 185.0, 174.0]",8.819075584411621,0.0,-6.13812255859375,0.000476837158203125,-28.017837524414062
1743586184.0816245,0.0,1.0279311464761287,"[174.0, 185.0, 181.0, 157.0, 155.0, 154.0, 156.0, 180.0, 185.0, 174.0]",8.745378494262695,0.0,-6.313018798828125,0.0004749298095703125,-28.01905059814453
1743586184.1012344,0.0,1.0279311464761287,"[174.0, 185.0, 181.0, 157.0, 155.0, 154.0, 156.0, 180.0, 185.0, 174.0]",8.93584156036377,0.0,-6.491729736328125,0.000476837158203125,-28.020172119140625
1743586184.1211083,0.0,1.0279311464761287,"[174.0, 185.0, 181.0, 157.0, 155.0, 154.0, 156.0, 180.0, 185.0, 174.0]",9.13671588897705,0.0,-6.674468994140625,0.00048065185546875,-28.021713256835938
1743586184.1415188,0.0,1.0279311464761287,"[174.0, 185.0, 181.0, 157.0, 155.0, 154.0, 156.0, 180.0, 185.0, 174.0]",9.202513694763184,0.0,-6.8585205078125,0.000484466552734375,-28.022804260253906
1743586184.1625671,0.0,1.0279311464761287,"[174.0, 185.0, 181.0, 157.0, 155.0, 154.0, 156.0, 180.0, 185.0, 174.0]",9.386393547058105,0.0,-7.046234130859375,0.0004901885986328125,-28.024208068847656
1743586184.1819742,0.0,1.0279311464761287,"[174.0, 185.0, 181.0, 157.0, 155.0, 154.0, 156.0, 180.0, 185.0, 174.0]",9.42082405090332,0.0,-7.234649658203125,0.0004978179931640625,-28.02532958984375
1743586184.2061942,0.0,1.0279311464761287,"[174.0, 185.0, 181.0, 157.0, 155.0, 154.0, 156.0, 180.0, 185.0, 174.0]",9.411678314208984,0.0,-7.422882080078125,0.0005035400390625,-28.02655792236328
