timestamp,steering_input,acceleration_input,raycasts,speed,steering,position_x,position_y,position_z
1743610530.6991632,0.0,-0.0,"[174.0, 185.0, 227.0, 295.0, 259.0, 259.0, 295.0, 227.0, 185.0, 174.0]",0.0,0.0,0.0,0.10000038146972656,-27.93000030517578
1743610530.927764,0.0,-0.0,"[174.0, 185.0, 178.0, 155.0, 154.0, 154.0, 156.0, 179.0, 185.0, 174.0]",0.1431841105222702,0.0,0.0,0.097137451171875,-27.93000030517578
1743610530.9775803,0.0,-0.0,"[174.0, 185.0, 178.0, 155.0, 154.0, 154.0, 156.0, 179.0, 185.0, 174.0]",0.2360968291759491,0.0,0.0,0.09241485595703125,-27.93000030517578
1743610530.9806952,0.0,-0.0,"[174.0, 185.0, 178.0, 155.0, 154.0, 154.0, 156.0, 179.0, 185.0, 174.0]",0.30777978897094727,0.0,0.0,0.08625984191894531,-27.93000030517578
1743610531.0116837,0.0,-0.0,"[174.0, 185.0, 179.0, 155.0, 154.0, 154.0, 156.0, 179.0, 185.0, 174.0]",0.36006540060043335,0.0,0.0,0.07905769348144531,-27.93000030517578
1743610531.0144444,0.0,-0.0,"[174.0, 185.0, 179.0, 155.0, 154.0, 154.0, 156.0, 179.0, 185.0, 174.0]",0.3949472904205322,0.0,0.0,0.07115936279296875,-27.93000030517578
1743610531.0460176,0.0,-0.0,"[174.0, 185.0, 179.0, 155.0, 154.0, 154.0, 156.0, 180.0, 185.0, 174.0]",0.41450235247612,0.0,0.0,0.06286811828613281,-27.93000030517578
1743610531.0774555,0.0,-0.0,"[174.0, 185.0, 179.0, 155.0, 154.0, 154.0, 156.0, 180.0, 185.0, 174.0]",0.42082807421684265,0.0,0.0,0.05445289611816406,-27.93000030517578
1743610531.0803714,0.0,-0.0,"[174.0, 185.0, 179.0, 155.0, 154.0, 154.0, 156.0, 180.0, 185.0, 174.0]",0.41598936915397644,0.0,0.0,0.04613304138183594,-27.93000030517578
1743610531.1113207,0.0,-0.0,"[174.0, 185.0, 179.0, 155.0, 154.0, 154.0, 156.0, 181.0, 185.0, 174.0]",0.4019714593887329,0.0,0.0,0.03809356689453125,-27.93000030517578
1743610531.1143239,0.0,-0.0,"[174.0, 185.0, 179.0, 155.0, 154.0, 154.0, 156.0, 181.0, 185.0, 174.0]",0.3806484043598175,0.0,0.0,0.03047943115234375,-27.93000030517578
1743610531.1476007,0.0,-0.0,"[174.0, 185.0, 180.0, 156.0, 154.0, 154.0, 156.0, 181.0, 185.0, 174.0]",0.3537571132183075,0.0,0.0,0.023405075073242188,-27.93000030517578
1743610531.1799808,0.0,-0.0,"[174.0, 185.0, 180.0, 156.0, 154.0, 154.0, 156.0, 181.0, 185.0, 174.0]",0.3228750228881836,0.0,0.0,0.016946792602539062,-27.92999267578125
1743610531.1830955,0.0,-0.0,"[174.0, 185.0, 180.0, 156.0, 154.0, 154.0, 156.0, 181.0, 185.0, 174.0]",0.28941938281059265,0.0,0.0,0.011159896850585938,-27.930038452148438
1743610531.2169585,0.0,-0.0,"[174.0, 185.0, 180.0, 156.0, 154.0, 154.0, 156.0, 181.0, 185.0, 174.0]",0.2562173306941986,0.0,0.0,0.0060672760009765625,-27.929466247558594
1743610531.220279,0.0,-0.0,"[174.0, 185.0, 180.0, 156.0, 154.0, 154.0, 156.0, 181.0, 185.0, 174.0]",0.34839218854904175,0.0,0.0,0.0016765594482421875,-27.93487548828125
1743610531.2585151,0.0,-0.0,"[174.0, 185.0, 181.0, 156.0, 154.0, 154.0, 156.0, 181.0, 185.0, 174.0]",0.255353718996048,0.0,0.0,-0.0020236968994140625,-27.931358337402344
1743610531.2623646,0.0,-0.0,"[174.0, 185.0, 181.0, 156.0, 154.0, 154.0, 156.0, 181.0, 185.0, 174.0]",0.2815416157245636,0.0,0.0,-0.0050601959228515625,-27.926612854003906
1743610531.2954912,0.0,-0.0,"[174.0, 185.0, 181.0, 156.0, 154.0, 154.0, 156.0, 181.0, 185.0, 174.0]",0.15634490549564362,0.0,0.0,-0.007472991943359375,-27.928604125976562
1743610531.2983768,0.0,-0.0,"[174.0, 185.0, 181.0, 156.0, 154.0, 154.0, 156.0, 181.0, 185.0, 174.0]",0.27455902099609375,0.0,0.0,-0.009307861328125,-27.923431396484375
1743610531.3332758,0.0,-0.0,"[174.0, 185.0, 181.0, 156.0, 154.0, 154.0, 156.0, 181.0, 185.0, 174.0]",0.2245660424232483,0.0,0.0,-0.010616302490234375,-27.92772674560547
1743610531.3360035,0.0,-0.0,"[174.0, 185.0, 181.0, 156.0, 154.0, 154.0, 156.0, 181.0, 185.0, 174.0]",0.08891011029481888,0.0,0.0,-0.011455535888671875,-27.929290771484375
1743610531.3725994,0.0,-0.0,"[174.0, 185.0, 181.0, 156.0, 154.0, 154.0, 156.0, 181.0, 185.0, 174.0]",0.1896505206823349,0.0,0.0,-0.011884689331054688,-27.925521850585938
1743610531.4129028,0.0,-0.0,"[174.0, 185.0, 181.0, 156.0, 154.0, 154.0, 156.0, 181.0, 185.0, 174.0]",0.2066076397895813,0.0,0.0,-0.011960983276367188,-27.92139434814453
1743610531.4185698,0.0,-0.0,"[174.0, 185.0, 181.0, 156.0, 154.0, 154.0, 156.0, 181.0, 185.0, 174.0]",0.12101753056049347,0.0,0.0,-0.011743545532226562,-27.918983459472656
1743610531.4520054,0.0,-0.0,"[174.0, 185.0, 181.0, 156.0, 154.0, 154.0, 156.0, 181.0, 185.0, 174.0]",0.19259010255336761,0.0,0.0,-0.011285781860351562,-27.922805786132812
1743610531.4561715,0.0,-0.0,"[174.0, 185.0, 181.0, 156.0, 154.0, 154.0, 156.0, 181.0, 185.0, 174.0]",0.17800575494766235,0.0,0.0,-0.010637283325195312,-27.926307678222656
1743610531.459028,0.0,-0.0,"[174.0, 185.0, 181.0, 156.0, 154.0, 154.0, 156.0, 181.0, 185.0, 174.0]",0.16013549268245697,0.0,0.0,-0.009847640991210938,-27.929412841796875
1743610531.4896648,0.0,-0.0,"[174.0, 185.0, 181.0, 156.0, 154.0, 154.0, 156.0, 181.0, 185.0, 174.0]",0.07219173014163971,0.0,0.0,-0.0089569091796875,-27.9305419921875
1743610531.492897,0.0,-0.0,"[174.0, 185.0, 181.0, 156.0, 154.0, 154.0, 156.0, 181.0, 185.0, 174.0]",0.1852148175239563,0.0,0.0,-0.008007049560546875,-27.926963806152344
1743610531.526532,0.0,-0.0,"[174.0, 185.0, 181.0, 156.0, 154.0, 154.0, 156.0, 181.0, 185.0, 174.0]",0.15632963180541992,0.0,0.0,-0.00702667236328125,-27.923995971679688
1743610531.5627391,0.0,-0.0,"[174.0, 185.0, 181.0, 156.0, 154.0, 154.0, 156.0, 181.0, 185.0, 174.0]",0.051327187567949295,0.0,0.0,-0.0060482025146484375,-27.923690795898438
1743610531.5658333,0.0,-0.0,"[174.0, 185.0, 181.0, 156.0, 154.0, 154.0, 156.0, 181.0, 185.0, 174.0]",0.15988554060459137,0.0,0.0,-0.0050907135009765625,-27.926742553710938
1743610531.5990574,0.0,-0.0,"[174.0, 185.0, 181.0, 156.0, 154.0, 154.0, 156.0, 181.0, 185.0, 174.0]",0.05791441351175308,0.0,0.0,-0.004177093505859375,-27.927452087402344
1743610531.6027677,0.0,-0.0,"[174.0, 185.0, 181.0, 156.0, 154.0, 154.0, 156.0, 181.0, 185.0, 174.0]",0.19991730153560638,0.0,0.0,-0.0033206939697265625,-27.923545837402344
1743610531.692389,0.0,-0.0,"[174.0, 185.0, 180.0, 156.0, 154.0, 154.0, 156.0, 181.0, 185.0, 174.0]",0.12208718806505203,0.0,0.0,-0.0025310516357421875,-27.921234130859375
1743610531.6963258,0.0,-0.0,"[174.0, 185.0, 180.0, 156.0, 154.0, 154.0, 156.0, 181.0, 185.0, 174.0]",0.18460233509540558,0.0,0.0,-0.0018177032470703125,-27.92485809326172
1743610531.6993434,0.0,-0.0,"[174.0, 185.0, 180.0, 156.0, 154.0, 154.0, 156.0, 181.0, 185.0, 174.0]",0.13353228569030762,0.0,0.0,-0.0011844635009765625,-27.927452087402344
1743610531.7023976,0.0,-0.0,"[174.0, 185.0, 180.0, 156.0, 154.0, 154.0, 156.0, 181.0, 185.0, 174.0]",0.11446059495210648,0.0,3.0517578125e-05,-0.00063323974609375,-27.92523193359375
1743610531.7055304,0.0,-0.0,"[174.0, 185.0, 180.0, 156.0, 154.0, 154.0, 156.0, 181.0, 185.0, 174.0]",0.18039268255233765,0.0,3.0517578125e-05,-0.0001621246337890625,-27.928802490234375
1743610531.7417693,0.0,-0.0,"[174.0, 185.0, 181.0, 156.0, 154.0, 154.0, 156.0, 181.0, 185.0, 174.0]",0.12967412173748016,0.0,3.0517578125e-05,0.0002288818359375,-27.931365966796875
1743610531.7461476,0.0,-0.0,"[174.0, 185.0, 181.0, 156.0, 154.0, 154.0, 156.0, 181.0, 185.0, 174.0]",0.1237604022026062,0.0,3.0517578125e-05,0.000545501708984375,-27.928909301757812
1743610531.779008,0.0,-0.0,"[174.0, 185.0, 181.0, 156.0, 154.0, 154.0, 156.0, 181.0, 185.0, 174.0]",0.1935333013534546,0.0,3.0517578125e-05,0.0007915496826171875,-27.932777404785156
1743610531.7832348,0.0,-0.0,"[174.0, 185.0, 181.0, 156.0, 154.0, 154.0, 156.0, 181.0, 185.0, 174.0]",0.12180628627538681,0.0,6.103515625e-05,0.000972747802734375,-27.935203552246094
1743610531.8163295,0.0,-0.0,"[174.0, 185.0, 181.0, 156.0, 154.0, 154.0, 156.0, 181.0, 185.0, 174.0]",0.16159525513648987,0.0,6.103515625e-05,0.0010967254638671875,-27.931976318359375
1743610531.8208644,0.0,-0.0,"[174.0, 185.0, 181.0, 156.0, 154.0, 154.0, 156.0, 181.0, 185.0, 174.0]",0.0772232785820961,0.0,6.103515625e-05,0.0011692047119140625,-27.930435180664062
1743610531.8525493,0.0,-0.0,"[174.0, 185.0, 181.0, 156.0, 154.0, 154.0, 156.0, 181.0, 185.0, 174.0]",0.184142604470253,0.0,6.103515625e-05,0.00119781494140625,-27.934112548828125
1743610531.8562195,0.0,-0.0,"[174.0, 185.0, 181.0, 156.0, 154.0, 154.0, 156.0, 181.0, 185.0, 174.0]",0.1367751508951187,0.0,6.103515625e-05,0.0011882781982421875,-27.936851501464844
1743610531.888037,0.0,-0.0,"[174.0, 185.0, 181.0, 156.0, 154.0, 154.0, 156.0, 181.0, 185.0, 174.0]",0.06419677287340164,0.0,6.103515625e-05,0.001148223876953125,-27.935569763183594
1743610531.920556,0.0,-0.0,"[174.0, 185.0, 181.0, 156.0, 154.0, 154.0, 156.0, 181.0, 185.0, 174.0]",0.1747168004512787,0.0,6.103515625e-05,0.0010833740234375,-27.939064025878906
1743610531.9241087,0.0,-0.0,"[174.0, 185.0, 181.0, 156.0, 154.0, 154.0, 156.0, 181.0, 185.0, 174.0]",0.1311485320329666,0.0,9.1552734375e-05,0.00099945068359375,-27.941680908203125
1743610531.9592748,0.0,-0.0,"[174.0, 185.0, 181.0, 156.0, 154.0, 154.0, 156.0, 181.0, 185.0, 174.0]",0.11074256151914597,0.0,9.1552734375e-05,0.0009002685546875,-27.939468383789062
1743610531.962983,0.0,-0.0,"[174.0, 185.0, 181.0, 156.0, 154.0, 154.0, 156.0, 181.0, 185.0, 174.0]",0.1801898330450058,0.0,9.1552734375e-05,0.00079345703125,-27.943069458007812
1743610531.9974272,0.0,-0.0,"[174.0, 185.0, 181.0, 156.0, 154.0, 154.0, 156.0, 181.0, 185.0, 174.0]",0.14138393104076385,0.0,9.1552734375e-05,0.00067901611328125,-27.945899963378906
1743610532.0019078,0.0,-0.0,"[174.0, 185.0, 181.0, 156.0, 154.0, 154.0, 156.0, 181.0, 185.0, 174.0]",0.0333004854619503,0.0,9.1552734375e-05,0.0005645751953125,-27.94524383544922
1743610532.0350928,0.0,-0.0,"[174.0, 185.0, 181.0, 156.0, 154.0, 154.0, 156.0, 181.0, 185.0, 174.0]",0.19635771214962006,0.0,9.1552734375e-05,0.0004520416259765625,-27.94916534423828
1743610532.0397737,0.0,-0.0,"[174.0, 185.0, 181.0, 156.0, 154.0, 154.0, 156.0, 181.0, 185.0, 174.0]",0.12271545082330704,0.0,0.0001220703125,0.00034332275390625,-27.951614379882812
1743610532.0732486,0.0,-0.0,"[174.0, 185.0, 181.0, 156.0, 154.0, 154.0, 156.0, 181.0, 185.0, 174.0]",0.15798240900039673,0.0,0.0001220703125,0.0002384185791015625,-27.948455810546875
1743610532.0774288,0.0,-0.0,"[174.0, 185.0, 181.0, 156.0, 154.0, 154.0, 156.0, 181.0, 185.0, 174.0]",0.0622306689620018,0.0,0.0001220703125,0.0001430511474609375,-27.947219848632812
1743610532.1110997,0.0,-0.0,"[174.0, 185.0, 181.0, 156.0, 154.0, 154.0, 156.0, 181.0, 185.0, 174.0]",0.17492303252220154,0.0,0.0001220703125,5.53131103515625e-05,-27.950714111328125
1743610532.115601,0.0,-0.0,"[174.0, 185.0, 181.0, 156.0, 154.0, 154.0, 156.0, 181.0, 185.0, 174.0]",0.13653863966464996,0.0,0.0001220703125,-2.288818359375e-05,-27.953445434570312
1743610532.1508083,0.0,-0.0,"[174.0, 185.0, 181.0, 156.0, 154.0, 154.0, 156.0, 181.0, 185.0, 174.0]",0.0718504786491394,0.0,0.0001220703125,-9.34600830078125e-05,-27.952011108398438
1743610532.1861043,0.0,-0.0,"[174.0, 185.0, 181.0, 156.0, 154.0, 154.0, 156.0, 181.0, 185.0, 174.0]",0.17569200694561005,0.0,0.0001220703125,-0.000152587890625,-27.955520629882812
1743610532.1914895,0.0,-0.0,"[174.0, 185.0, 181.0, 156.0, 154.0, 154.0, 156.0, 181.0, 185.0, 174.0]",0.13826613128185272,0.0,0.000152587890625,-0.000202178955078125,-27.958290100097656
1743610532.2249348,0.0,-0.0,"[174.0, 185.0, 181.0, 156.0, 154.0, 154.0, 156.0, 181.0, 185.0, 174.0]",0.05745533108711243,0.0,0.000152587890625,-0.000244140625,-27.957138061523438
1743610532.2298834,0.0,-0.0,"[174.0, 185.0, 181.0, 156.0, 154.0, 154.0, 156.0, 181.0, 185.0, 174.0]",0.1775936484336853,0.0,0.000152587890625,-0.000278472900390625,-27.960693359375
1743610532.2638693,0.0,-0.0,"[174.0, 185.0, 181.0, 156.0, 154.0, 154.0, 156.0, 181.0, 185.0, 174.0]",0.14114311337471008,0.0,0.000152587890625,-0.0003032684326171875,-27.963516235351562
1743610532.2678874,0.0,-0.0,"[174.0, 185.0, 181.0, 156.0, 154.0, 154.0, 156.0, 181.0, 185.0, 174.0]",0.034520473331213,0.0,0.000152587890625,-0.0003204345703125,-27.96282196044922
1743610532.3023345,0.0,-0.0,"[174.0, 185.0, 181.0, 156.0, 154.0, 154.0, 156.0, 181.0, 185.0, 174.0]",0.20195074379444122,0.0,0.00018310546875,-0.000331878662109375,-27.96686553955078
1743610532.3069189,0.0,-0.0,"[174.0, 185.0, 181.0, 156.0, 154.0, 154.0, 156.0, 181.0, 185.0, 174.0]",0.09901262819766998,0.0,0.00018310546875,-0.000339508056640625,-27.968841552734375
1743610532.3423946,0.0,-0.0,"[174.0, 185.0, 181.0, 156.0, 154.0, 154.0, 156.0, 181.0, 185.0, 174.0]",0.20315459370613098,0.0,0.00018310546875,-0.000339508056640625,-27.96478271484375
1743610532.3471065,0.0,-0.0,"[174.0, 185.0, 181.0, 156.0, 154.0, 154.0, 156.0, 181.0, 185.0, 174.0]",0.09250973165035248,0.0,0.000152587890625,-0.0003376007080078125,-27.962928771972656
1743610532.3810146,0.0,-0.0,"[174.0, 185.0, 181.0, 156.0, 154.0, 154.0, 156.0, 181.0, 185.0, 174.0]",0.21048150956630707,0.0,0.00018310546875,-0.000331878662109375,-27.967140197753906
1743610532.3855803,0.0,-0.0,"[174.0, 185.0, 181.0, 156.0, 154.0, 154.0, 156.0, 181.0, 185.0, 174.0]",0.054807256907224655,0.0,0.00018310546875,-0.0003223419189453125,-27.968238830566406
1743610532.4187555,0.0,-0.0,"[174.0, 185.0, 181.0, 156.0, 154.0, 154.0, 156.0, 181.0, 185.0, 174.0]",0.18342110514640808,0.0,0.00018310546875,-0.00031280517578125,-27.964569091796875
1743610532.4230015,0.0,-0.0,"[174.0, 185.0, 181.0, 156.0, 154.0, 154.0, 156.0, 181.0, 185.0, 174.0]",0.14437030255794525,0.0,0.000152587890625,-0.0002994537353515625,-27.961685180664062
1743610532.456364,0.0,-0.0,"[174.0, 185.0, 181.0, 156.0, 154.0, 154.0, 156.0, 181.0, 185.0, 174.0]",0.010325106792151928,0.0,0.000152587890625,-0.0002880096435546875,-27.961883544921875
1743610532.46089,0.0,-0.0,"[174.0, 185.0, 181.0, 156.0, 154.0, 154.0, 156.0, 181.0, 185.0, 174.0]",0.08798801898956299,0.0,0.000152587890625,-0.000274658203125,-27.960128784179688
1743610532.4946074,0.0,-0.0,"[174.0, 185.0, 181.0, 156.0, 154.0, 154.0, 156.0, 181.0, 185.0, 174.0]",0.2099931389093399,0.0,0.00018310546875,-0.0002613067626953125,-27.964324951171875
1743610532.499455,0.0,-0.0,"[174.0, 185.0, 181.0, 156.0, 154.0, 154.0, 156.0, 181.0, 185.0, 174.0]",0.05686913803219795,0.0,0.00018310546875,-0.000247955322265625,-27.96546173095703
1743610532.5350807,0.0,-0.0,"[174.0, 185.0, 181.0, 156.0, 154.0, 154.0, 156.0, 181.0, 185.0, 174.0]",0.17966091632843018,0.0,0.00018310546875,-0.0002346038818359375,-27.961868286132812
1743610532.5398474,0.0,-0.0,"[174.0, 185.0, 181.0, 156.0, 154.0, 154.0, 156.0, 181.0, 185.0, 174.0]",0.14235873520374298,0.0,0.000152587890625,-0.0002231597900390625,-27.959022521972656
1743610532.574956,0.0,-0.0,"[174.0, 185.0, 181.0, 156.0, 154.0, 154.0, 156.0, 181.0, 185.0, 174.0]",0.024575751274824142,0.0,0.000152587890625,-0.000213623046875,-27.959518432617188
1743610532.5802064,0.0,-0.0,"[174.0, 185.0, 181.0, 156.0, 154.0, 154.0, 156.0, 181.0, 185.0, 174.0]",0.1880163848400116,0.0,0.000152587890625,-0.0002040863037109375,-27.95575714111328
1743610532.6370728,0.0,-0.0,"[174.0, 185.0, 227.0, 295.0, 259.0, 161.0, 182.0, 190.0, 185.0, 174.0]",0.0,0.0,0.0,0.10000038146972656,-27.93000030517578
1743610532.6427968,0.0,-0.0,"[174.0, 185.0, 227.0, 295.0, 259.0, 161.0, 182.0, 190.0, 185.0, 174.0]",0.8977364897727966,0.0,0.0,0.0820465087890625,-27.93000030517578
1743610532.6476114,0.0,-0.0,"[174.0, 185.0, 227.0, 295.0, 259.0, 161.0, 182.0, 190.0, 185.0, 174.0]",0.8461640477180481,0.0,0.0,0.06512260437011719,-27.93000030517578
1743610532.681345,0.0,-0.0,"[174.0, 185.0, 179.0, 155.0, 154.0, 154.0, 156.0, 181.0, 185.0, 174.0]",0.782906711101532,0.0,0.0,0.049465179443359375,-27.930038452148438
1743610532.685829,0.0,-0.0,"[174.0, 185.0, 179.0, 155.0, 154.0, 154.0, 156.0, 181.0, 185.0, 174.0]",0.7164702415466309,0.0,0.0,0.035236358642578125,-27.9283447265625
1743610532.7200913,0.0,-0.0,"[174.0, 185.0, 180.0, 156.0, 154.0, 154.0, 156.0, 181.0, 185.0, 174.0]",0.683032751083374,0.0,0.0,0.022539138793945312,-27.933380126953125
1743610532.7246702,0.0,-0.0,"[174.0, 185.0, 180.0, 156.0, 154.0, 154.0, 156.0, 181.0, 185.0, 174.0]",0.6315932869911194,0.0,0.0,0.01142120361328125,-27.927383422851562
1743610532.760494,0.0,-0.0,"[174.0, 185.0, 181.0, 156.0, 154.0, 154.0, 156.0, 181.0, 185.0, 174.0]",0.5497382283210754,0.0,0.0,0.0018863677978515625,-27.932861328125
1743610532.7657082,0.0,-0.0,"[174.0, 185.0, 181.0, 156.0, 154.0, 154.0, 156.0, 181.0, 185.0, 174.0]",0.4417929947376251,0.0,0.0,-0.0061016082763671875,-27.92908477783203
1743610532.8048985,0.0,-0.0,"[174.0, 185.0, 181.0, 156.0, 154.0, 154.0, 158.0, 181.0, 185.0, 174.0]",0.386442095041275,0.0,0.0,-0.012609481811523438,-27.924911499023438
1743610532.8102415,0.0,-0.0,"[174.0, 185.0, 181.0, 156.0, 154.0, 154.0, 158.0, 181.0, 185.0, 174.0]",0.33594346046447754,0.0,0.0,-0.017730712890625,-27.920562744140625
1743610532.8453891,0.0,-0.0,"[174.0, 185.0, 181.0, 156.0, 154.0, 154.0, 158.0, 183.0, 185.0, 174.0]",0.28075480461120605,0.0,0.0,-0.021574020385742188,-27.916473388671875
1743610532.851295,0.0,-0.0,"[174.0, 185.0, 181.0, 156.0, 154.0, 154.0, 158.0, 183.0, 185.0, 174.0]",0.33501136302948,0.0,0.0,-0.024261474609375,-27.91033935546875
1743610532.8848782,0.0,-0.0,"[174.0, 185.0, 181.0, 156.0, 154.0, 154.0, 158.0, 183.0, 185.0, 174.0]",0.27982673048973083,0.0,0.0,-0.025920867919921875,-27.915679931640625
1743610532.8894718,0.0,-0.0,"[174.0, 185.0, 181.0, 156.0, 154.0, 154.0, 158.0, 183.0, 185.0, 174.0]",0.16709637641906738,0.0,0.0,-0.026685714721679688,-27.912429809570312
1743610532.9225013,0.0,-0.0,"[174.0, 185.0, 181.0, 156.0, 154.0, 154.0, 158.0, 183.0, 185.0, 174.0]",0.20732378959655762,0.0,0.0,-0.026685714721679688,-27.908279418945312
1743610532.9266746,0.0,-0.0,"[174.0, 185.0, 181.0, 156.0, 154.0, 154.0, 158.0, 183.0, 185.0, 174.0]",0.1994047909975052,0.0,-3.0517578125e-05,-0.026052474975585938,-27.904342651367188
1743610532.9613254,0.0,-0.0,"[174.0, 185.0, 181.0, 156.0, 154.0, 154.0, 158.0, 183.0, 185.0, 174.0]",0.2337716519832611,0.0,-3.0517578125e-05,-0.02490234375,-27.899810791015625
1743610532.9663365,0.0,-0.0,"[174.0, 185.0, 181.0, 156.0, 154.0, 154.0, 158.0, 183.0, 185.0, 174.0]",0.07757941633462906,0.0,-3.0517578125e-05,-0.02335357666015625,-27.89989471435547
1743610532.999954,0.0,-0.0,"[174.0, 185.0, 181.0, 156.0, 154.0, 154.0, 158.0, 183.0, 185.0, 174.0]",0.10072321444749832,0.0,-3.0517578125e-05,-0.02150726318359375,-27.899085998535156
1743610533.0046244,0.0,-0.0,"[174.0, 185.0, 181.0, 156.0, 154.0, 154.0, 158.0, 183.0, 185.0, 174.0]",0.24847109615802765,0.0,-3.0517578125e-05,-0.019460678100585938,-27.90361785888672
1743610533.0387456,0.0,-0.0,"[174.0, 185.0, 181.0, 156.0, 154.0, 154.0, 156.0, 181.0, 185.0, 174.0]",0.1087695062160492,0.0,-3.0517578125e-05,-0.017292022705078125,-27.903427124023438
1743610533.0430443,0.0,-0.0,"[174.0, 185.0, 181.0, 156.0, 154.0, 154.0, 156.0, 181.0, 185.0, 174.0]",0.13935236632823944,0.0,-3.0517578125e-05,-0.015077590942382812,-27.905120849609375
1743610533.0754027,0.0,-0.0,"[174.0, 185.0, 180.0, 156.0, 154.0, 154.0, 156.0, 181.0, 185.0, 174.0]",0.23161010444164276,0.0,-3.0517578125e-05,-0.012876510620117188,-27.901046752929688
1743610533.0800576,0.0,-0.0,"[174.0, 185.0, 180.0, 156.0, 154.0, 154.0, 156.0, 181.0, 185.0, 174.0]",0.13363589346408844,0.0,-3.0517578125e-05,-0.010740280151367188,-27.899444580078125
1743610533.113562,0.0,-0.0,"[174.0, 185.0, 180.0, 156.0, 154.0, 154.0, 156.0, 181.0, 185.0, 174.0]",0.21236492693424225,0.0,-3.0517578125e-05,-0.008707046508789062,-27.903167724609375
1743610533.118124,0.0,-0.0,"[174.0, 185.0, 180.0, 156.0, 154.0, 154.0, 156.0, 181.0, 185.0, 174.0]",0.15395893156528473,0.0,-3.0517578125e-05,-0.0068111419677734375,-27.905593872070312
1743610533.1533842,0.0,-0.0,"[174.0, 185.0, 180.0, 156.0, 154.0, 154.0, 156.0, 181.0, 185.0, 174.0]",0.17514513432979584,0.0,-3.0517578125e-05,-0.0050716400146484375,-27.902557373046875
1743610533.1577585,0.0,-0.0,"[174.0, 185.0, 180.0, 156.0, 154.0, 154.0, 156.0, 181.0, 185.0, 174.0]",0.08137955516576767,0.0,-3.0517578125e-05,-0.0035076141357421875,-27.90210723876953
1743610533.191952,0.0,-0.0,"[174.0, 185.0, 180.0, 156.0, 154.0, 154.0, 156.0, 181.0, 185.0, 174.0]",0.20330491662025452,0.0,-3.0517578125e-05,-0.002124786376953125,-27.905929565429688
1743610533.1965606,0.0,-0.0,"[174.0, 185.0, 180.0, 156.0, 154.0, 154.0, 156.0, 181.0, 185.0, 174.0]",0.12215962260961533,0.0,0.0,-0.000926971435546875,-27.908058166503906
1743610533.2289965,0.0,-0.0,"[174.0, 185.0, 180.0, 156.0, 154.0, 154.0, 156.0, 181.0, 185.0, 174.0]",0.19102919101715088,0.0,0.0,8.96453857421875e-05,-27.904373168945312
1743610533.265779,0.0,-0.0,"[174.0, 185.0, 180.0, 156.0, 154.0, 154.0, 156.0, 181.0, 185.0, 174.0]",0.12199176847934723,0.0,-3.0517578125e-05,0.0009288787841796875,-27.902084350585938
1743610533.2701056,0.0,-0.0,"[174.0, 185.0, 180.0, 156.0, 154.0, 154.0, 156.0, 181.0, 185.0, 174.0]",0.18023644387722015,0.0,-3.0517578125e-05,0.0016002655029296875,-27.905624389648438
1743610533.3055525,0.0,-0.0,"[174.0, 185.0, 180.0, 156.0, 154.0, 154.0, 156.0, 181.0, 185.0, 174.0]",0.11664547771215439,0.0,0.0,0.002117156982421875,-27.90790557861328
1743610533.3101509,0.0,-0.0,"[174.0, 185.0, 180.0, 156.0, 154.0, 154.0, 156.0, 181.0, 185.0, 174.0]",0.1823684722185135,0.0,0.0,0.00249481201171875,-27.904273986816406
1743610533.3463058,0.0,-0.0,"[174.0, 185.0, 180.0, 156.0, 154.0, 154.0, 156.0, 181.0, 185.0, 174.0]",0.1222521960735321,0.0,-3.0517578125e-05,0.002742767333984375,-27.901840209960938
1743610533.350658,0.0,-0.0,"[174.0, 185.0, 180.0, 156.0, 154.0, 154.0, 156.0, 181.0, 185.0, 174.0]",0.15657103061676025,0.0,-3.0517578125e-05,0.002880096435546875,-27.90496826171875
1743610533.3855999,0.0,-0.0,"[174.0, 185.0, 180.0, 156.0, 154.0, 154.0, 156.0, 181.0, 185.0, 174.0]",0.04615260660648346,0.0,-3.0517578125e-05,0.00292205810546875,-27.90589141845703
1743610533.3907332,0.0,-0.0,"[174.0, 185.0, 180.0, 156.0, 154.0, 154.0, 156.0, 181.0, 185.0, 174.0]",0.201072096824646,0.0,-3.0517578125e-05,0.0028820037841796875,-27.901870727539062
1743610533.4253812,0.0,-0.0,"[174.0, 185.0, 180.0, 156.0, 154.0, 154.0, 156.0, 181.0, 185.0, 174.0]",0.09325076639652252,0.0,-3.0517578125e-05,0.002777099609375,-27.900009155273438
1743610533.430033,0.0,-0.0,"[174.0, 185.0, 180.0, 156.0, 154.0, 154.0, 156.0, 181.0, 185.0, 174.0]",0.20509830117225647,0.0,-3.0517578125e-05,0.00261688232421875,-27.90411376953125
1743610533.4661098,0.0,-0.0,"[174.0, 185.0, 180.0, 156.0, 154.0, 154.0, 156.0, 181.0, 185.0, 174.0]",0.07847989350557327,0.0,-3.0517578125e-05,0.00241851806640625,-27.905670166015625
1743610533.4714456,0.0,-0.0,"[174.0, 185.0, 180.0, 156.0, 154.0, 154.0, 156.0, 181.0, 185.0, 174.0]",0.18739493191242218,0.0,-3.0517578125e-05,0.0021915435791015625,-27.90192413330078
1743610533.5103884,0.0,-0.0,"[174.0, 185.0, 180.0, 156.0, 154.0, 154.0, 156.0, 181.0, 185.0, 174.0]",0.13886967301368713,0.0,-3.0517578125e-05,0.0019435882568359375,-27.89916229248047
1743610533.5146995,0.0,-0.0,"[174.0, 185.0, 180.0, 156.0, 154.0, 154.0, 156.0, 181.0, 185.0, 174.0]",0.05636401101946831,0.0,-3.0517578125e-05,0.0016880035400390625,-27.90026092529297
1743610533.552035,0.0,-0.0,"[174.0, 185.0, 180.0, 156.0, 154.0, 154.0, 156.0, 181.0, 185.0, 174.0]",0.1823178380727768,0.0,-3.0517578125e-05,0.001430511474609375,-27.896621704101562
1743610533.557739,0.0,-0.0,"[174.0, 185.0, 180.0, 156.0, 154.0, 154.0, 156.0, 181.0, 185.0, 174.0]",0.14411211013793945,0.0,-6.103515625e-05,0.0011768341064453125,-27.893753051757812
1743610533.5927746,0.0,-0.0,"[174.0, 185.0, 180.0, 156.0, 154.0, 154.0, 156.0, 181.0, 185.0, 174.0]",0.020645741373300552,0.0,-6.103515625e-05,0.000934600830078125,-27.894088745117188
1743610533.5975342,0.0,-0.0,"[174.0, 185.0, 180.0, 156.0, 154.0, 154.0, 156.0, 181.0, 185.0, 174.0]",0.1739402711391449,0.0,-6.103515625e-05,0.000705718994140625,-27.890609741210938
1743610533.6017148,0.0,-0.0,"[174.0, 185.0, 180.0, 156.0, 154.0, 154.0, 156.0, 181.0, 185.0, 174.0]",0.13677111268043518,0.0,-6.103515625e-05,0.0004940032958984375,-27.88788604736328
1743610533.6347713,0.0,-0.0,"[174.0, 185.0, 180.0, 156.0, 154.0, 154.0, 156.0, 181.0, 185.0, 174.0]",0.07272017002105713,0.0,-6.103515625e-05,0.000301361083984375,-27.889328002929688
1743610533.639033,0.0,-0.0,"[174.0, 185.0, 180.0, 156.0, 154.0, 154.0, 156.0, 181.0, 185.0, 174.0]",0.1760072112083435,0.0,-6.103515625e-05,0.00012969970703125,-27.88581085205078
1743610533.6722357,0.0,-0.0,"[174.0, 185.0, 180.0, 156.0, 154.0, 154.0, 156.0, 181.0, 185.0, 174.0]",0.14059486985206604,0.0,-6.103515625e-05,-2.09808349609375e-05,-27.88300323486328
1743610533.6763394,0.0,-0.0,"[174.0, 185.0, 180.0, 156.0, 154.0, 154.0, 156.0, 181.0, 185.0, 174.0]",0.04215790703892708,0.0,-9.1552734375e-05,-0.0001506805419921875,-27.883834838867188
1743610533.7092245,0.0,-0.0,"[174.0, 185.0, 180.0, 156.0, 154.0, 154.0, 158.0, 181.0, 185.0, 174.0]",0.21238692104816437,0.0,-6.103515625e-05,-0.0002593994140625,-27.879592895507812
1743610533.7458425,0.0,-0.0,"[174.0, 185.0, 180.0, 156.0, 154.0, 154.0, 158.0, 181.0, 185.0, 174.0]",0.04776233062148094,0.0,-9.1552734375e-05,-0.000347137451171875,-27.878639221191406
1743610533.7502565,0.0,-0.0,"[174.0, 185.0, 180.0, 156.0, 154.0, 154.0, 158.0, 181.0, 185.0, 174.0]",0.20190416276454926,0.0,-9.1552734375e-05,-0.000415802001953125,-27.882675170898438
1743610533.784369,0.0,-0.0,"[174.0, 185.0, 180.0, 156.0, 154.0, 154.0, 156.0, 181.0, 185.0, 174.0]",0.1011391282081604,0.0,-9.1552734375e-05,-0.000469207763671875,-27.88470458984375
1743610533.789215,0.0,-0.0,"[174.0, 185.0, 180.0, 156.0, 154.0, 154.0, 156.0, 181.0, 185.0, 174.0]",0.19966401159763336,0.0,-6.103515625e-05,-0.0005054473876953125,-27.880706787109375
1743610533.8228672,0.0,-0.0,"[174.0, 185.0, 179.0, 156.0, 154.0, 154.0, 158.0, 181.0, 185.0, 174.0]",0.11108431965112686,0.0,-9.1552734375e-05,-0.0005283355712890625,-27.87848663330078
1743610533.8272514,0.0,-0.0,"[174.0, 185.0, 179.0, 156.0, 154.0, 154.0, 158.0, 181.0, 185.0, 174.0]",0.19392141699790955,0.0,-9.1552734375e-05,-0.0005397796630859375,-27.882362365722656
1743610533.8595676,0.0,-0.0,"[174.0, 185.0, 180.0, 156.0, 154.0, 154.0, 156.0, 181.0, 185.0, 174.0]",0.13249754905700684,0.0,-6.103515625e-05,-0.0005397796630859375,-27.885009765625
1743610533.863702,0.0,-0.0,"[174.0, 185.0, 180.0, 156.0, 154.0, 154.0, 156.0, 181.0, 185.0, 174.0]",0.10364769399166107,0.0,-6.103515625e-05,-0.000530242919921875,-27.8829345703125
1743610533.8961825,0.0,-0.0,"[174.0, 185.0, 180.0, 156.0, 154.0, 154.0, 156.0, 181.0, 185.0, 174.0]",0.19716373085975647,0.0,-6.103515625e-05,-0.000514984130859375,-27.886878967285156
1743610533.9004269,0.0,-0.0,"[174.0, 185.0, 180.0, 156.0, 154.0, 154.0, 156.0, 181.0, 185.0, 174.0]",0.12149327248334885,0.0,-6.103515625e-05,-0.00049591064453125,-27.889312744140625
1743610533.9364586,0.0,-0.0,"[174.0, 185.0, 180.0, 156.0, 154.0, 154.0, 156.0, 181.0, 185.0, 174.0]",0.16516567766666412,0.0,-6.103515625e-05,-0.0004711151123046875,-27.886009216308594
1743610533.9408772,0.0,-0.0,"[174.0, 185.0, 180.0, 156.0, 154.0, 154.0, 156.0, 181.0, 185.0, 174.0]",0.10292096436023712,0.0,-6.103515625e-05,-0.0004425048828125,-27.883949279785156
1743610533.9757173,0.0,-0.0,"[174.0, 185.0, 180.0, 156.0, 154.0, 154.0, 156.0, 181.0, 185.0, 174.0]",0.19651766121387482,0.0,-6.103515625e-05,-0.0004138946533203125,-27.88787841796875
1743610533.9809382,0.0,-0.0,"[174.0, 185.0, 180.0, 156.0, 154.0, 154.0, 156.0, 181.0, 185.0, 174.0]",0.12133057415485382,0.0,-6.103515625e-05,-0.0003833770751953125,-27.890304565429688
1743610534.0113337,0.0,-0.0,"[174.0, 185.0, 180.0, 156.0, 154.0, 154.0, 156.0, 181.0, 185.0, 174.0]",0.16320331394672394,0.0,-6.103515625e-05,-0.000354766845703125,-27.887039184570312
1743610534.0156548,0.0,-0.0,"[174.0, 185.0, 180.0, 156.0, 154.0, 154.0, 156.0, 181.0, 185.0, 174.0]",0.09242638945579529,0.0,-6.103515625e-05,-0.0003261566162109375,-27.88519287109375
1743610534.0446057,0.0,-0.0,"[174.0, 185.0, 180.0, 156.0, 154.0, 154.0, 156.0, 181.0, 185.0, 174.0]",0.2103557586669922,0.0,-6.103515625e-05,-0.00029754638671875,-27.889404296875
1743610534.0506654,0.0,-0.0,"[174.0, 185.0, 180.0, 156.0, 154.0, 154.0, 156.0, 181.0, 185.0, 174.0]",0.05504205822944641,0.0,-6.103515625e-05,-0.0002727508544921875,-27.8905029296875
1743610534.0784178,0.0,-0.0,"[174.0, 185.0, 180.0, 156.0, 154.0, 154.0, 156.0, 181.0, 185.0, 174.0]",0.18299634754657745,0.0,-6.103515625e-05,-0.000247955322265625,-27.8868408203125
1743610534.1062894,0.0,-0.0,"[174.0, 185.0, 180.0, 156.0, 154.0, 154.0, 156.0, 181.0, 185.0, 174.0]",0.14373362064361572,0.0,-6.103515625e-05,-0.0002269744873046875,-27.88397216796875
1743610534.1106176,0.0,-0.0,"[174.0, 185.0, 180.0, 156.0, 154.0, 154.0, 156.0, 181.0, 185.0, 174.0]",0.014625371433794498,0.0,-6.103515625e-05,-0.0002079010009765625,-27.884262084960938
1743610534.1405401,0.0,-0.0,"[174.0, 185.0, 180.0, 156.0, 154.0, 154.0, 156.0, 181.0, 185.0, 174.0]",0.14807374775409698,0.0,-6.103515625e-05,-0.0001926422119140625,-27.881301879882812
1743610534.1697383,0.0,-0.0,"[174.0, 185.0, 180.0, 156.0, 154.0, 154.0, 156.0, 181.0, 185.0, 174.0]",0.008531663566827774,0.0,-6.103515625e-05,-0.0001773834228515625,-27.881126403808594
1743610534.1743426,0.0,-0.0,"[174.0, 185.0, 180.0, 156.0, 154.0, 154.0, 156.0, 181.0, 185.0, 174.0]",0.06161385402083397,0.0,-6.103515625e-05,-0.0001659393310546875,-27.882362365722656
1743610534.2019954,0.0,-0.0,"[174.0, 185.0, 180.0, 156.0, 154.0, 154.0, 156.0, 181.0, 185.0, 174.0]",0.17447532713413239,0.0,-6.103515625e-05,-0.0001583099365234375,-27.878875732421875
1743610534.229572,0.0,-0.0,"[174.0, 185.0, 180.0, 156.0, 154.0, 154.0, 156.0, 181.0, 185.0, 174.0]",0.1338622123003006,0.0,-6.103515625e-05,-0.0001506805419921875,-27.876190185546875
1743610534.2341082,0.0,-0.0,"[174.0, 185.0, 180.0, 156.0, 154.0, 154.0, 156.0, 181.0, 185.0, 174.0]",0.09127399325370789,0.0,-6.103515625e-05,-0.00014495849609375,-27.878021240234375
1743610534.2621646,0.0,-0.0,"[174.0, 185.0, 180.0, 156.0, 154.0, 154.0, 156.0, 181.0, 185.0, 174.0]",0.2104693502187729,0.0,-6.103515625e-05,-0.000141143798828125,-27.873809814453125
1743610534.2908547,0.0,-0.0,"[174.0, 185.0, 180.0, 156.0, 154.0, 154.0, 156.0, 181.0, 185.0, 174.0]",0.05452503636479378,0.0,-6.103515625e-05,-0.0001392364501953125,-27.872718811035156
1743610534.2952976,0.0,-0.0,"[174.0, 185.0, 180.0, 156.0, 154.0, 154.0, 156.0, 181.0, 185.0, 174.0]",0.1841260939836502,0.0,-9.1552734375e-05,-0.0001373291015625,-27.87640380859375
1743610534.3259497,0.0,-0.0,"[174.0, 185.0, 180.0, 156.0, 154.0, 154.0, 156.0, 181.0, 185.0, 174.0]",0.14370818436145782,0.0,-6.103515625e-05,-0.0001392364501953125,-27.8792724609375
1743610534.3552806,0.0,-0.0,"[174.0, 185.0, 180.0, 156.0, 154.0, 154.0, 156.0, 181.0, 185.0, 174.0]",0.014885324984788895,0.0,-6.103515625e-05,-0.0001392364501953125,-27.878982543945312
1743610534.3596394,0.0,-0.0,"[174.0, 185.0, 180.0, 156.0, 154.0, 154.0, 156.0, 181.0, 185.0, 174.0]",0.15197597444057465,0.0,-6.103515625e-05,-0.000141143798828125,-27.88201904296875
1743610534.3882473,0.0,-0.0,"[174.0, 185.0, 180.0, 156.0, 154.0, 154.0, 156.0, 181.0, 185.0, 174.0]",0.026090143248438835,0.0,-6.103515625e-05,-0.00014495849609375,-27.882537841796875
1743610534.392709,0.0,-0.0,"[174.0, 185.0, 180.0, 156.0, 154.0, 154.0, 156.0, 181.0, 185.0, 174.0]",0.17727971076965332,0.0,-6.103515625e-05,-0.0001468658447265625,-27.878997802734375
1743610534.4044428,0.0,-0.0,"[174.0, 185.0, 180.0, 156.0, 154.0, 154.0, 156.0, 181.0, 185.0, 174.0]",0.13948972523212433,0.0,-6.103515625e-05,-0.0001506805419921875,-27.876205444335938
1743610534.414038,0.0,-0.0,"[174.0, 185.0, 180.0, 156.0, 154.0, 154.0, 156.0, 181.0, 185.0, 174.0]",0.046389151364564896,0.0,-9.1552734375e-05,-0.0001544952392578125,-27.87713623046875
1743610534.429512,0.0,-0.0,"[174.0, 185.0, 179.0, 156.0, 154.0, 154.0, 158.0, 181.0, 185.0, 174.0]",0.2042238861322403,0.0,-9.1552734375e-05,-0.000156402587890625,-27.873046875
1743610534.448105,0.0,-0.0,"[174.0, 185.0, 179.0, 156.0, 154.0, 154.0, 158.0, 181.0, 185.0, 174.0]",0.08664139360189438,0.0,-9.1552734375e-05,-0.00016021728515625,-27.871315002441406
1743610534.4694426,0.0,-0.0,"[174.0, 185.0, 179.0, 156.0, 154.0, 154.0, 158.0, 181.0, 185.0, 174.0]",0.20535624027252197,0.0,-9.1552734375e-05,-0.000164031982421875,-27.87542724609375
1743610534.4903827,0.0,-0.0,"[174.0, 185.0, 179.0, 156.0, 154.0, 154.0, 156.0, 181.0, 185.0, 174.0]",0.08056895434856415,0.0,-9.1552734375e-05,-0.0001678466796875,-27.877037048339844
1743610534.5104806,0.0,-0.0,"[174.0, 185.0, 179.0, 156.0, 154.0, 154.0, 158.0, 181.0, 185.0, 174.0]",0.19295579195022583,0.0,-9.1552734375e-05,-0.0001697540283203125,-27.87317657470703
1743610534.5295262,0.0,-0.0,"[174.0, 185.0, 179.0, 156.0, 154.0, 154.0, 158.0, 181.0, 185.0, 174.0]",0.13318565487861633,0.0,-9.1552734375e-05,-0.000171661376953125,-27.870513916015625
1743610534.547828,0.0,-0.0,"[174.0, 185.0, 179.0, 156.0, 154.0, 154.0, 158.0, 181.0, 185.0, 174.0]",0.09697732329368591,0.0,-9.1552734375e-05,-0.00017547607421875,-27.872451782226562
1743610534.5687406,0.0,-0.0,"[174.0, 185.0, 179.0, 156.0, 154.0, 154.0, 158.0, 183.0, 185.0, 174.0]",0.20891991257667542,0.0,-9.1552734375e-05,-0.0001773834228515625,-27.868270874023438
1743610534.5899353,0.0,-0.0,"[174.0, 185.0, 179.0, 156.0, 154.0, 154.0, 158.0, 183.0, 185.0, 174.0]",0.06223173812031746,0.0,-0.0001220703125,-0.000179290771484375,-27.867027282714844
1743610534.6076257,0.0,-0.0,"[174.0, 185.0, 179.0, 156.0, 154.0, 154.0, 158.0, 183.0, 185.0, 174.0]",0.17532403767108917,0.0,-0.0001220703125,-0.000179290771484375,-27.870529174804688
1743610534.628421,0.0,-0.0,"[174.0, 185.0, 179.0, 156.0, 154.0, 154.0, 158.0, 181.0, 185.0, 174.0]",0.13607017695903778,0.0,-9.1552734375e-05,-0.0001811981201171875,-27.873252868652344
1743610534.6485431,0.0,-0.0,"[174.0, 185.0, 179.0, 156.0, 154.0, 154.0, 158.0, 181.0, 185.0, 174.0]",0.07372091710567474,0.0,-9.1552734375e-05,-0.00018310546875,-27.871780395507812
1743610534.6695757,0.0,-0.0,"[174.0, 185.0, 179.0, 156.0, 154.0, 154.0, 158.0, 181.0, 185.0, 174.0]",0.17772920429706573,0.0,-9.1552734375e-05,-0.00018310546875,-27.875335693359375
1743610534.6906767,0.0,-0.0,"[174.0, 185.0, 179.0, 156.0, 154.0, 154.0, 156.0, 181.0, 185.0, 174.0]",0.1401660293340683,0.0,-9.1552734375e-05,-0.00018310546875,-27.878143310546875
1743610534.7117717,0.0,-0.0,"[174.0, 185.0, 179.0, 156.0, 154.0, 154.0, 156.0, 181.0, 185.0, 174.0]",0.0411965437233448,0.0,-9.1552734375e-05,-0.0001850128173828125,-27.8773193359375
1743610534.728939,0.0,-0.0,"[174.0, 185.0, 180.0, 156.0, 154.0, 154.0, 156.0, 181.0, 185.0, 174.0]",0.21062032878398895,0.0,-9.1552734375e-05,-0.0001850128173828125,-27.88153076171875
1743610534.7470455,0.0,-0.0,"[174.0, 185.0, 180.0, 156.0, 154.0, 154.0, 156.0, 181.0, 185.0, 174.0]",0.05385627597570419,0.0,-6.103515625e-05,-0.0001850128173828125,-27.882606506347656
1743610534.7676604,0.0,-0.0,"[174.0, 185.0, 180.0, 156.0, 154.0, 154.0, 156.0, 181.0, 185.0, 174.0]",0.18566934764385223,0.0,-6.103515625e-05,-0.0001850128173828125,-27.878890991210938
1743610534.7887242,0.0,-0.0,"[174.0, 185.0, 180.0, 156.0, 154.0, 154.0, 156.0, 181.0, 185.0, 174.0]",0.14335228502750397,0.0,-9.1552734375e-05,-0.0001850128173828125,-27.876022338867188
1743610534.8090107,0.0,-0.0,"[174.0, 185.0, 180.0, 156.0, 154.0, 154.0, 156.0, 181.0, 185.0, 174.0]",0.017529670149087906,0.0,-9.1552734375e-05,-0.00018310546875,-27.876373291015625
1743610534.826994,0.0,-0.0,"[174.0, 185.0, 179.0, 156.0, 154.0, 154.0, 156.0, 181.0, 185.0, 174.0]",0.17821034789085388,0.0,-9.1552734375e-05,-0.00018310546875,-27.87281036376953
1743610534.8481138,0.0,-0.0,"[174.0, 185.0, 179.0, 156.0, 154.0, 154.0, 158.0, 181.0, 185.0, 174.0]",0.1416560709476471,0.0,-9.1552734375e-05,-0.00018310546875,-27.869979858398438
1743610534.8697152,0.0,-0.0,"[174.0, 185.0, 179.0, 156.0, 154.0, 154.0, 158.0, 181.0, 185.0, 174.0]",0.02908085286617279,0.0,-9.1552734375e-05,-0.00018310546875,-27.870559692382812
1743610534.8909628,0.0,-0.0,"[174.0, 185.0, 179.0, 156.0, 154.0, 154.0, 158.0, 181.0, 185.0, 174.0]",0.1861979216337204,0.0,-9.1552734375e-05,-0.00018310546875,-27.866836547851562
1743610534.9083552,0.0,-0.0,"[174.0, 185.0, 179.0, 156.0, 154.0, 154.0, 158.0, 181.0, 185.0, 174.0]",0.14300638437271118,0.0,-9.1552734375e-05,-0.00018310546875,-27.863975524902344
1743610534.9269829,0.0,-0.0,"[174.0, 185.0, 179.0, 156.0, 154.0, 154.0, 158.0, 181.0, 185.0, 174.0]",0.019971786066889763,0.0,-9.1552734375e-05,-0.0001811981201171875,-27.8643798828125
1743610534.9470265,0.0,-0.0,"[174.0, 185.0, 179.0, 156.0, 154.0, 154.0, 158.0, 183.0, 185.0, 174.0]",0.18874117732048035,0.0,-9.1552734375e-05,-0.0001811981201171875,-27.86060333251953
1743610534.968051,0.0,-0.0,"[174.0, 185.0, 179.0, 156.0, 154.0, 154.0, 158.0, 183.0, 185.0, 174.0]",0.1403416395187378,0.0,-9.1552734375e-05,-0.0001811981201171875,-27.85779571533203
1743610534.988669,0.0,-0.0,"[174.0, 185.0, 179.0, 156.0, 154.0, 154.0, 158.0, 183.0, 185.0, 174.0]",0.04012395814061165,0.0,-0.0001220703125,-0.0001811981201171875,-27.858596801757812
1743610535.009097,0.0,-0.0,"[174.0, 185.0, 179.0, 156.0, 154.0, 154.0, 158.0, 183.0, 185.0, 174.0]",0.21025380492210388,0.0,-0.0001220703125,-0.0001811981201171875,-27.854393005371094
1743610535.0296166,0.0,-0.0,"[174.0, 185.0, 179.0, 155.0, 154.0, 154.0, 158.0, 183.0, 185.0, 174.0]",0.05562771484255791,0.0,-0.0001220703125,-0.0001811981201171875,-27.85327911376953
1743610535.0476782,0.0,-0.0,"[174.0, 185.0, 179.0, 156.0, 154.0, 154.0, 158.0, 183.0, 185.0, 174.0]",0.18176712095737457,0.0,-0.0001220703125,-0.000179290771484375,-27.856918334960938
1743610535.068562,0.0,-0.0,"[174.0, 185.0, 179.0, 156.0, 154.0, 154.0, 158.0, 183.0, 185.0, 174.0]",0.14377383887767792,0.0,-0.0001220703125,-0.000179290771484375,-27.859786987304688
1743610535.08918,0.0,-0.0,"[174.0, 185.0, 179.0, 156.0, 154.0, 154.0, 158.0, 183.0, 185.0, 174.0]",0.014375001192092896,0.0,-0.0001220703125,-0.000179290771484375,-27.85950469970703
1743610535.1089334,0.0,-0.0,"[174.0, 185.0, 179.0, 156.0, 154.0, 154.0, 158.0, 183.0, 185.0, 174.0]",0.1456564962863922,0.0,-0.0001220703125,-0.000179290771484375,-27.862411499023438
1743610535.1272497,0.0,-0.0,"[174.0, 185.0, 179.0, 156.0, 154.0, 154.0, 158.0, 183.0, 185.0, 174.0]",0.0001481231884099543,0.0,-0.0001220703125,-0.000179290771484375,-27.86241912841797
1743610535.1477766,0.0,-0.0,"[174.0, 185.0, 179.0, 156.0, 154.0, 154.0, 158.0, 183.0, 185.0, 174.0]",0.0004333425604272634,0.0,-0.0001220703125,-0.000179290771484375,-27.862411499023438
1743610535.1688385,0.0,-0.0,"[174.0, 185.0, 179.0, 156.0, 154.0, 154.0, 158.0, 183.0, 185.0, 174.0]",0.001310193445533514,0.0,-0.0001220703125,-0.000179290771484375,-27.86243438720703
1743610535.1893694,0.0,-0.0,"[174.0, 185.0, 179.0, 156.0, 154.0, 154.0, 158.0, 183.0, 185.0, 174.0]",0.004359594080597162,0.0,-0.0001220703125,-0.000179290771484375,-27.862350463867188
1743610535.2075446,0.0,0.26061337168839604,"[174.0, 185.0, 179.0, 156.0, 154.0, 154.0, 158.0, 183.0, 185.0, 174.0]",0.020375479012727737,0.0,-0.0001220703125,-0.000179290771484375,-27.862754821777344
1743610535.2288947,0.0,0.38013269614438827,"[174.0, 185.0, 179.0, 156.0, 154.0, 154.0, 158.0, 183.0, 185.0, 174.0]",0.20809337496757507,0.0,-0.0001220703125,-0.000179290771484375,-27.858596801757812
1743610535.2502317,0.0,0.49297081612768523,"[174.0, 185.0, 179.0, 156.0, 154.0, 154.0, 158.0, 183.0, 185.0, 174.0]",0.06643710285425186,0.0,-0.0001220703125,-0.000179290771484375,-27.857269287109375
1743610535.2685118,0.0,0.680786897415673,"[174.0, 185.0, 179.0, 156.0, 154.0, 154.0, 158.0, 183.0, 185.0, 174.0]",0.17265468835830688,0.0,-0.001678466796875,-0.000179290771484375,-27.860336303710938
1743610535.2902818,0.0,0.8552405697582703,"[174.0, 185.0, 179.0, 156.0, 154.0, 154.0, 156.0, 181.0, 185.0, 174.0]",0.15966080129146576,0.0,-0.004547119140625,-0.000179290771484375,-27.858909606933594
1743610535.3123505,0.0,0.9725328260566974,"[174.0, 185.0, 179.0, 155.0, 154.0, 155.0, 158.0, 183.0, 185.0, 174.0]",0.23297230899333954,0.0,-0.009185791015625,-0.000179290771484375,-27.85930633544922
1743610535.3276687,0.0,0.9725328260566974,"[174.0, 185.0, 179.0, 156.0, 154.0, 154.0, 158.0, 183.0, 185.0, 174.0]",0.3918587863445282,0.0,-0.0169677734375,-0.000179290771484375,-27.858428955078125
1743610535.3485222,0.0,0.9420962279033082,"[174.0, 185.0, 179.0, 155.0, 154.0, 155.0, 158.0, 183.0, 185.0, 174.0]",0.5145877003669739,0.0,-0.027252197265625,-0.000179290771484375,-27.858909606933594
1743610535.3698783,0.0,0.939869159745743,"[174.0, 185.0, 179.0, 156.0, 154.0, 154.0, 158.0, 183.0, 185.0, 174.0]",0.6469433903694153,0.0,-0.040191650390625,-0.000179290771484375,-27.858749389648438
1743610535.3881965,0.0,0.937642091588178,"[174.0, 185.0, 179.0, 156.0, 154.0, 154.0, 158.0, 183.0, 185.0, 174.0]",0.728297770023346,0.0,-0.05474853515625,-0.000179290771484375,-27.858749389648438
1743610535.4097035,0.0,0.9357862014568737,"[174.0, 185.0, 179.0, 156.0, 154.0, 154.0, 158.0, 183.0, 185.0, 174.0]",0.8962022066116333,0.0,-0.07269287109375,-0.000179290771484375,-27.858741760253906
1743610535.4272928,0.0,0.9357862014568737,"[174.0, 185.0, 179.0, 156.0, 154.0, 154.0, 158.0, 183.0, 185.0, 174.0]",0.9759865403175354,0.0,-0.092193603515625,-0.000179290771484375,-27.858726501464844
1743610535.4481683,0.0,0.9357862014568737,"[174.0, 185.0, 179.0, 156.0, 154.0, 154.0, 158.0, 183.0, 185.0, 174.0]",1.1053205728530884,0.0,-0.11431884765625,-0.000179290771484375,-27.858718872070312
1743610535.4686306,0.0,0.9357862014568737,"[174.0, 185.0, 179.0, 156.0, 154.0, 154.0, 158.0, 183.0, 185.0, 174.0]",1.2332065105438232,0.0,-0.13897705078125,-0.000179290771484375,-27.85870361328125
1743610535.489472,0.0,0.9357862014568737,"[174.0, 185.0, 179.0, 156.0, 154.0, 154.0, 158.0, 183.0, 185.0, 174.0]",1.343459963798523,0.0,-0.16583251953125,-0.000179290771484375,-27.858688354492188
1743610535.5112162,0.0,0.9289194079710481,"[174.0, 185.0, 179.0, 156.0, 154.0, 154.0, 158.0, 183.0, 185.0, 174.0]",1.5140610933303833,0.0,-0.196136474609375,-0.000179290771484375,-27.858673095703125
1743610535.5297806,0.0,0.9184336287291792,"[174.0, 185.0, 179.0, 156.0, 154.0, 154.0, 158.0, 183.0, 185.0, 174.0]",1.6274338960647583,0.0,-0.228668212890625,-0.0001811981201171875,-27.858657836914062
1743610535.5487242,0.0,0.9113348489769406,"[174.0, 185.0, 179.0, 156.0, 154.0, 154.0, 158.0, 183.0, 185.0, 174.0]",1.7362900972366333,0.0,-0.263397216796875,-0.0001811981201171875,-27.858627319335938
1743610535.5679824,0.0,0.909757342365332,"[174.0, 185.0, 179.0, 155.0, 154.0, 154.0, 158.0, 183.0, 185.0, 174.0]",1.8684335947036743,0.0,-0.30078125,-0.0001811981201171875,-27.858612060546875
1743610535.587237,0.0,0.909757342365332,"[174.0, 185.0, 179.0, 155.0, 154.0, 154.0, 158.0, 183.0, 185.0, 174.0]",1.9382591247558594,0.0,-0.33953857421875,-0.0001811981201171875,-27.85858154296875
1743610535.6080747,0.0,0.909757342365332,"[174.0, 185.0, 179.0, 155.0, 154.0, 154.0, 158.0, 183.0, 185.0, 174.0]",2.0503103733062744,0.0,-0.38055419921875,-0.0001811981201171875,-27.858535766601562
1743610535.6290479,0.0,0.909757342365332,"[174.0, 185.0, 179.0, 155.0, 154.0, 154.0, 158.0, 183.0, 185.0, 174.0]",2.2072057723999023,0.0,-0.4246826171875,-0.0001811981201171875,-27.858497619628906
1743610535.648882,0.0,0.909757342365332,"[174.0, 185.0, 179.0, 155.0, 154.0, 154.0, 158.0, 183.0, 185.0, 174.0]",2.322585344314575,0.0,-0.47113037109375,-0.0001811981201171875,-27.858444213867188
1743610535.6677344,0.0,0.909757342365332,"[174.0, 185.0, 179.0, 155.0, 154.0, 154.0, 158.0, 183.0, 185.0, 174.0]",2.424788236618042,0.0,-0.519622802734375,-0.0001811981201171875,-27.8583984375
1743610535.6920414,0.0,0.909757342365332,"[174.0, 185.0, 179.0, 155.0, 154.0, 154.0, 158.0, 183.0, 185.0, 174.0]",2.5364654064178467,0.0,-0.57037353515625,-0.0001811981201171875,-27.85833740234375
1743610535.7096689,0.0,0.909757342365332,"[174.0, 185.0, 179.0, 155.0, 154.0, 154.0, 158.0, 183.0, 185.0, 174.0]",2.64412260055542,0.0,-0.62322998046875,-0.0001811981201171875,-27.85828399658203
1743610535.7287135,0.0,0.909757342365332,"[174.0, 185.0, 179.0, 155.0, 154.0, 154.0, 158.0, 183.0, 185.0, 174.0]",2.800603151321411,0.0,-0.67926025390625,-0.0001811981201171875,-27.858230590820312
1743610535.750274,0.0,0.909757342365332,"[174.0, 185.0, 179.0, 155.0, 154.0, 154.0, 158.0, 183.0, 185.0, 174.0]",2.8681869506835938,0.0,-0.73663330078125,-0.0001811981201171875,-27.858169555664062
1743610535.7679534,0.0,0.909757342365332,"[174.0, 185.0, 179.0, 155.0, 154.0, 154.0, 158.0, 183.0, 185.0, 174.0]",3.0214285850524902,0.0,-0.79705810546875,-0.0001811981201171875,-27.858116149902344
1743610535.7885537,0.0,0.909757342365332,"[174.0, 185.0, 179.0, 155.0, 154.0, 154.0, 158.0, 183.0, 185.0, 174.0]",3.118682384490967,0.0,-0.85943603515625,-0.0001811981201171875,-27.858062744140625
1743610535.8085773,0.0,0.909757342365332,"[174.0, 185.0, 179.0, 155.0, 154.0, 154.0, 158.0, 183.0, 185.0, 174.0]",3.2485885620117188,0.0,-0.924407958984375,-0.0001811981201171875,-27.858001708984375
1743610535.8295908,0.0,0.909757342365332,"[174.0, 185.0, 179.0, 155.0, 154.0, 154.0, 158.0, 183.0, 185.0, 174.0]",3.3376386165618896,0.0,-0.99114990234375,-0.0001811981201171875,-27.857940673828125
1743610535.8478987,0.0,0.909757342365332,"[174.0, 185.0, 179.0, 155.0, 154.0, 154.0, 158.0, 183.0, 185.0, 174.0]",3.453918695449829,0.0,-1.060211181640625,-0.0001811981201171875,-27.857887268066406
1743610535.8688343,0.0,0.9203823133670487,"[174.0, 185.0, 179.0, 155.0, 154.0, 154.0, 158.0, 183.0, 185.0, 174.0]",3.600607395172119,0.0,-1.132232666015625,-0.0001811981201171875,-27.857826232910156
1743610535.889969,0.0,0.9349974481510694,"[174.0, 185.0, 179.0, 155.0, 154.0, 154.0, 158.0, 183.0, 185.0, 174.0]",3.6974267959594727,0.0,-1.2061767578125,-0.0001811981201171875,-27.857757568359375
1743610535.9118676,0.0,0.9368069410290911,"[174.0, 185.0, 179.0, 155.0, 154.0, 154.0, 158.0, 183.0, 185.0, 174.0]",3.8184237480163574,0.0,-1.282562255859375,-0.0001811981201171875,-27.857696533203125
1743610535.9304404,0.0,0.9368069410290911,"[174.0, 185.0, 179.0, 155.0, 154.0, 154.0, 158.0, 183.0, 185.0, 174.0]",3.920846462249756,0.0,-1.3609619140625,-0.0001811981201171875,-27.857627868652344
1743610535.9480205,0.0,0.9368069410290911,"[174.0, 185.0, 179.0, 155.0, 154.0, 154.0, 158.0, 183.0, 185.0, 174.0]",4.043759346008301,0.0,-1.44183349609375,-0.0001811981201171875,-27.857559204101562
1743610535.968417,0.0,0.9385236394005475,"[174.0, 185.0, 179.0, 155.0, 154.0, 154.0, 158.0, 183.0, 185.0, 174.0]",4.173865795135498,0.0,-1.52532958984375,-0.0001811981201171875,-27.85748291015625
1743610535.9886484,0.0,0.9385236394005475,"[174.0, 185.0, 179.0, 155.0, 154.0, 154.0, 158.0, 183.0, 185.0, 174.0]",4.281870365142822,0.0,-1.6109619140625,-0.0001811981201171875,-27.85741424560547
1743610536.0095677,0.0,0.9385236394005475,"[174.0, 185.0, 179.0, 155.0, 154.0, 154.0, 158.0, 183.0, 185.0, 174.0]",4.3965044021606445,0.0,-1.698883056640625,-0.0001811981201171875,-27.857337951660156
1743610536.0281126,0.0,0.9385236394005475,"[174.0, 185.0, 179.0, 155.0, 154.0, 154.0, 158.0, 183.0, 185.0, 174.0]",4.524038314819336,0.0,-1.78936767578125,-0.0001811981201171875,-27.857261657714844
1743610536.049619,0.0,0.9385236394005475,"[174.0, 185.0, 179.0, 155.0, 154.0, 154.0, 158.0, 183.0, 185.0, 174.0]",4.6334967613220215,0.0,-1.882049560546875,-0.0001811981201171875,-27.857177734375
1743610536.067672,0.0,0.9385236394005475,"[174.0, 185.0, 179.0, 155.0, 154.0, 154.0, 158.0, 183.0, 185.0, 174.0]",4.771548748016357,0.0,-1.97747802734375,-0.0001811981201171875,-27.857101440429688
1743610536.0918655,0.0,0.9411218855843734,"[174.0, 185.0, 179.0, 155.0, 154.0, 154.0, 158.0, 183.0, 185.0, 174.0]",4.861318588256836,0.0,-2.07470703125,-0.0001811981201171875,-27.857017517089844
1743610536.1082718,0.0,0.9483134598431773,"[174.0, 185.0, 179.0, 155.0, 154.0, 154.0, 158.0, 183.0, 185.0, 174.0]",4.988096714019775,0.0,-2.174468994140625,-0.0001811981201171875,-27.85693359375
1743610536.1298063,0.0,0.9483134598431773,"[174.0, 185.0, 179.0, 155.0, 154.0, 154.0, 158.0, 183.0, 185.0, 174.0]",5.124061107635498,0.0,-2.276947021484375,-0.0001811981201171875,-27.856849670410156
1743610536.1480803,0.0,0.9499373637080685,"[174.0, 185.0, 179.0, 155.0, 154.0, 154.0, 158.0, 183.0, 185.0, 174.0]",5.078995227813721,0.0,-2.378509521484375,0.000156402587890625,-27.856765747070312
1743610536.16946,0.0,0.9530923769312857,"[174.0, 185.0, 179.0, 155.0, 154.0, 154.0, 158.0, 183.0, 185.0, 174.0]",5.404603481292725,0.0,-2.486602783203125,0.0004425048828125,-27.856674194335938
1743610536.187434,0.0,0.9530923769312857,"[174.0, 185.0, 179.0, 155.0, 154.0, 154.0, 158.0, 183.0, 185.0, 174.0]",5.381629943847656,0.0,-2.59423828125,0.0006809234619140625,-27.856582641601562
1743610536.2083504,0.0,0.9530923769312857,"[174.0, 185.0, 179.0, 155.0, 154.0, 154.0, 158.0, 183.0, 185.0, 174.0]",5.287988185882568,0.0,-2.70001220703125,0.0008716583251953125,-27.85650634765625
1743610536.2295852,0.0,0.9530923769312857,"[174.0, 185.0, 179.0, 155.0, 154.0, 154.0, 158.0, 183.0, 185.0, 174.0]",5.607396602630615,0.0,-2.812164306640625,0.001018524169921875,-27.856399536132812
1743610536.2474651,0.0,0.9530923769312857,"[174.0, 185.0, 179.0, 155.0, 154.0, 154.0, 158.0, 183.0, 185.0, 174.0]",5.606924533843994,0.0,-2.924285888671875,0.0011272430419921875,-27.8563232421875
1743610536.2676017,0.0,0.9530923769312857,"[174.0, 185.0, 179.0, 155.0, 154.0, 154.0, 158.0, 183.0, 185.0, 174.0]",5.909646034240723,0.0,-3.04248046875,0.0011997222900390625,-27.856216430664062
1743610536.2918835,0.0,0.9546234862896117,"[174.0, 185.0, 179.0, 155.0, 154.0, 154.0, 158.0, 183.0, 185.0, 174.0]",5.973280429840088,0.0,-3.161956787109375,0.001239776611328125,-27.85613250732422
1743610536.3090346,0.0,0.9546234862896117,"[174.0, 185.0, 179.0, 155.0, 154.0, 154.0, 158.0, 183.0, 185.0, 174.0]",5.912989139556885,0.0,-3.28021240234375,0.001255035400390625,-27.85602569580078
1743610536.328414,0.0,0.9546234862896117,"[174.0, 185.0, 179.0, 155.0, 154.0, 154.0, 158.0, 183.0, 185.0, 174.0]",6.238830089569092,0.0,-3.404998779296875,0.001247406005859375,-27.85596466064453
1743610536.3491948,0.0,0.9546234862896117,"[174.0, 185.0, 179.0, 155.0, 154.0, 154.0, 158.0, 183.0, 185.0, 174.0]",6.2502760887146,0.0,-3.529998779296875,0.0012226104736328125,-27.855850219726562
1743610536.367469,0.0,0.9546234862896117,"[174.0, 185.0, 179.0, 155.0, 154.0, 154.0, 158.0, 183.0, 185.0, 174.0]",6.624228000640869,0.0,-3.6624755859375,0.00118255615234375,-27.855789184570312
1743610536.3884885,0.0,0.9546234862896117,"[174.0, 185.0, 179.0, 155.0, 154.0, 155.0, 158.0, 183.0, 185.0, 174.0]",6.552056312561035,0.0,-3.79351806640625,0.001132965087890625,-27.855728149414062
1743610536.4093986,0.0,0.9546234862896117,"[174.0, 185.0, 179.0, 156.0, 154.0, 154.0, 156.0, 181.0, 185.0, 174.0]",6.7398271560668945,0.0,-3.928314208984375,0.00107574462890625,-27.855361938476562
1743610536.4278657,0.0,0.9546234862896117,"[174.0, 185.0, 179.0, 155.0, 154.0, 155.0, 158.0, 183.0, 185.0, 174.0]",6.7603302001953125,0.0,-4.063507080078125,0.00101470947265625,-27.85572052001953
1743610536.4488063,0.0,0.9546234862896117,"[174.0, 185.0, 179.0, 156.0, 154.0, 154.0, 156.0, 181.0, 185.0, 174.0]",6.777442455291748,0.0,-4.199066162109375,0.0009517669677734375,-27.85456085205078
1743610536.4669898,0.0,0.9546234862896117,"[174.0, 185.0, 179.0, 155.0, 154.0, 155.0, 158.0, 183.0, 185.0, 174.0]",7.102681636810303,0.0,-4.341094970703125,0.000888824462890625,-27.85608673095703
1743610536.4935596,0.0,0.9546234862896117,"[174.0, 185.0, 179.0, 156.0, 154.0, 154.0, 156.0, 181.0, 185.0, 174.0]",7.150748252868652,0.0,-4.484100341796875,0.000827789306640625,-27.854049682617188
1743610536.5108702,0.0,0.9546234862896117,"[174.0, 185.0, 179.0, 155.0, 154.0, 155.0, 158.0, 183.0, 185.0, 174.0]",7.19578218460083,0.0,-4.628021240234375,0.00077056884765625,-27.8558349609375
1743610536.528888,0.0,0.9546234862896117,"[174.0, 185.0, 179.0, 155.0, 154.0, 154.0, 158.0, 183.0, 185.0, 174.0]",7.367343425750732,0.0,-4.775360107421875,0.0007190704345703125,-27.85413360595703
1743610536.5497196,0.0,0.9546234862896117,"[174.0, 185.0, 179.0, 155.0, 154.0, 154.0, 158.0, 183.0, 185.0, 174.0]",7.564353942871094,0.0,-4.9266357421875,0.0006694793701171875,-27.854873657226562
1743610536.568063,0.0,0.9546234862896117,"[174.0, 185.0, 179.0, 155.0, 154.0, 155.0, 158.0, 183.0, 185.0, 174.0]",7.439498424530029,0.0,-5.075408935546875,0.0006275177001953125,-27.854476928710938
1743610536.5893538,0.0,0.9546234862896117,"[174.0, 185.0, 179.0, 155.0, 154.0, 155.0, 158.0, 183.0, 185.0, 174.0]",7.784903049468994,0.0,-5.231109619140625,0.000591278076171875,-27.854278564453125
1743610536.6072125,0.0,0.9546234862896117,"[174.0, 185.0, 179.0, 156.0, 154.0, 154.0, 158.0, 181.0, 185.0, 174.0]",7.732138633728027,0.0,-5.385772705078125,0.000560760498046875,-27.85401153564453
1743610536.6278555,0.0,0.9546234862896117,"[174.0, 185.0, 179.0, 155.0, 154.0, 154.0, 158.0, 183.0, 185.0, 174.0]",8.014328002929688,0.0,-5.546051025390625,0.0005340576171875,-27.854209899902344
1743610536.6484165,0.0,0.9546234862896117,"[174.0, 185.0, 179.0, 156.0, 154.0, 154.0, 158.0, 183.0, 185.0, 174.0]",8.073440551757812,0.0,-5.70751953125,0.000514984130859375,-27.85387420654297
1743610536.6690617,0.0,0.9546234862896117,"[174.0, 185.0, 179.0, 155.0, 154.0, 155.0, 158.0, 183.0, 185.0, 174.0]",8.321155548095703,0.0,-5.873931884765625,0.0004978179931640625,-27.853958129882812
1743610536.6898448,0.0,0.9546234862896117,"[174.0, 185.0, 179.0, 156.0, 154.0, 154.0, 156.0, 181.0, 185.0, 174.0]",8.222138404846191,0.0,-6.03839111328125,0.00048828125,-27.853515625
1743610536.7124934,0.0,0.9546234862896117,"[174.0, 185.0, 179.0, 155.0, 154.0, 155.0, 158.0, 183.0, 185.0, 174.0]",8.421015739440918,0.0,-6.206817626953125,0.00048065185546875,-27.853836059570312
1743610536.7287195,0.0,0.9546234862896117,"[174.0, 185.0, 179.0, 155.0, 154.0, 154.0, 158.0, 183.0, 185.0, 174.0]",8.46224594116211,0.0,-6.37603759765625,0.000476837158203125,-27.853317260742188
1743610536.7475183,0.0,0.9546234862896117,"[174.0, 185.0, 179.0, 155.0, 154.0, 155.0, 158.0, 183.0, 185.0, 174.0]",8.619235038757324,0.0,-6.548431396484375,0.0004749298095703125,-27.853302001953125
1743610536.7690923,0.0,0.9546234862896117,"[174.0, 185.0, 179.0, 156.0, 154.0, 154.0, 156.0, 181.0, 185.0, 174.0]",8.61377239227295,0.0,-6.720703125,0.000476837158203125,-27.852783203125
1743610536.788927,0.0,0.9546234862896117,"[174.0, 185.0, 179.0, 155.0, 154.0, 155.0, 158.0, 183.0, 185.0, 174.0]",8.77087688446045,0.0,-6.8961181640625,0.00048065185546875,-27.853286743164062
1743610536.8085282,0.0,0.9546234862896117,"[174.0, 185.0, 179.0, 155.0, 154.0, 155.0, 158.0, 183.0, 185.0, 174.0]",8.976057052612305,0.0,-7.075653076171875,0.000484466552734375,-27.85279083251953
1743610536.8280075,0.0,0.9546234862896117,"[174.0, 185.0, 179.0, 155.0, 154.0, 154.0, 158.0, 183.0, 185.0, 174.0]",9.108915328979492,0.0,-7.2578125,0.0004901885986328125,-27.852561950683594
1743610536.8494453,0.0,0.9546234862896117,"[174.0, 185.0, 179.0, 155.0, 154.0, 155.0, 158.0, 183.0, 185.0, 174.0]",9.291986465454102,0.0,-7.44366455078125,0.0004978179931640625,-27.852447509765625
1743610536.869073,0.0,0.9546234862896117,"[174.0, 185.0, 179.0, 155.0, 154.0, 154.0, 158.0, 183.0, 185.0, 174.0]",9.266432762145996,0.0,-7.628997802734375,0.0005035400390625,-27.852088928222656
1743610536.8893442,0.0,0.9546234862896117,"[174.0, 185.0, 179.0, 155.0, 154.0, 155.0, 158.0, 183.0, 185.0, 174.0]",9.555132865905762,0.0,-7.820098876953125,0.00051116943359375,-27.851959228515625
1743610536.9127965,0.0,0.9546234862896117,"[174.0, 185.0, 179.0, 155.0, 154.0, 154.0, 158.0, 183.0, 185.0, 174.0]",9.462523460388184,0.0,-8.00933837890625,0.000518798828125,-27.851524353027344
1743610536.9293075,0.0,0.9546234862896117,"[174.0, 185.0, 179.0, 155.0, 154.0, 155.0, 158.0, 183.0, 185.0, 174.0]",9.718438148498535,0.0,-8.203704833984375,0.0005245208740234375,-27.851470947265625
1743610536.952124,0.0,0.9546234862896117,"[174.0, 185.0, 179.0, 155.0, 154.0, 154.0, 158.0, 183.0, 185.0, 174.0]",9.603778839111328,0.0,-8.395782470703125,0.0005321502685546875,-27.85095977783203
1743610536.9778955,0.0,0.9546234862896117,"[174.0, 185.0, 179.0, 155.0, 154.0, 154.0, 158.0, 183.0, 185.0, 174.0]",10.003728866577148,0.0,-8.595855712890625,0.000537872314453125,-27.850845336914062
1743610537.0031648,0.0,0.9546234862896117,"[174.0, 185.0, 179.0, 155.0, 154.0, 154.0, 158.0, 183.0, 185.0, 174.0]",9.597318649291992,0.0,-8.787811279296875,0.0005435943603515625,-27.850624084472656
1743610537.0304575,0.0,0.9546234862896117,"[174.0, 185.0, 179.0, 155.0, 154.0, 154.0, 158.0, 183.0, 185.0, 174.0]",9.866796493530273,0.0,-8.985137939453125,0.0005474090576171875,-27.850479125976562
1743610537.0375767,0.0,0.9546234862896117,"[174.0, 185.0, 179.0, 155.0, 154.0, 154.0, 158.0, 183.0, 185.0, 174.0]",10.0567045211792,0.0,-9.186279296875,0.0005512237548828125,-27.850372314453125
1743610537.0714788,0.0,0.9546234862896117,"[174.0, 185.0, 179.0, 155.0, 154.0, 154.0, 158.0, 183.0, 185.0, 174.0]",10.472143173217773,0.0,-9.395721435546875,0.0005550384521484375,-27.850074768066406
1743610537.0918581,0.0,0.9561545956479376,"[174.0, 185.0, 179.0, 155.0, 154.0, 154.0, 158.0, 183.0, 185.0, 174.0]",10.11076831817627,0.0,-9.597930908203125,0.00055694580078125,-27.849838256835938
1743610537.099505,0.0,0.9561545956479376,"[174.0, 185.0, 179.0, 155.0, 154.0, 154.0, 158.0, 183.0, 185.0, 174.0]",10.427997589111328,0.0,-9.806488037109375,0.000560760498046875,-27.849624633789062
1743610537.1278675,0.0,0.9561545956479376,"[174.0, 185.0, 179.0, 155.0, 154.0, 155.0, 158.0, 183.0, 185.0, 174.0]",10.574049949645996,0.0,-10.017974853515625,0.000560760498046875,-27.84943389892578
1743610537.147888,0.0,0.9584280610587853,"[174.0, 185.0, 179.0, 155.0, 154.0, 154.0, 158.0, 183.0, 185.0, 174.0]",10.79304313659668,0.0,-10.23382568359375,0.0005626678466796875,-27.849029541015625
1743610537.1592798,0.0,0.9584280610587853,"[174.0, 185.0, 179.0, 155.0, 154.0, 155.0, 158.0, 183.0, 185.0, 174.0]",10.632490158081055,0.0,-10.44647216796875,0.0005626678466796875,-27.849021911621094
1743610537.1703207,0.0,0.9584280610587853,"[174.0, 185.0, 179.0, 155.0, 154.0, 155.0, 158.0, 183.0, 185.0, 174.0]",10.997027397155762,0.0,-10.666412353515625,0.0005645751953125,-27.848655700683594
1743610537.1884987,0.0,0.9610263072426113,"[174.0, 185.0, 179.0, 155.0, 154.0, 155.0, 158.0, 183.0, 185.0, 174.0]",11.039131164550781,0.0,-10.88720703125,0.0005645751953125,-27.84832000732422
1743610537.209751,0.0,0.9631605808936111,"[174.0, 185.0, 179.0, 155.0, 154.0, 155.0, 158.0, 183.0, 185.0, 174.0]",11.08941650390625,0.0,-11.108978271484375,0.0005645751953125,-27.847923278808594
1743610537.227555,0.0,0.9649700737716327,"[174.0, 185.0, 179.0, 155.0, 154.0, 154.0, 158.0, 183.0, 185.0, 174.0]",11.314778327941895,0.0,-11.335296630859375,0.0005626678466796875,-27.847427368164062
1743610537.2482903,0.0,0.9649700737716327,"[174.0, 185.0, 179.0, 155.0, 154.0, 155.0, 158.0, 183.0, 185.0, 174.0]",11.341347694396973,0.0,-11.562103271484375,0.0005626678466796875,-27.847183227539062
1743610537.2678556,0.0,0.9665011831299587,"[174.0, 185.0, 179.0, 155.0, 154.0, 154.0, 158.0, 183.0, 185.0, 174.0]",11.335110664367676,0.0,-11.788818359375,0.0005626678466796875,-27.846878051757812
1743610537.2921948,0.0,0.9665011831299587,"[174.0, 185.0, 179.0, 155.0, 154.0, 154.0, 158.0, 183.0, 185.0, 174.0]",11.696955680847168,0.0,-12.02276611328125,0.000560760498046875,-27.846633911132812
1743610537.3111172,0.0,0.9665011831299587,"[174.0, 185.0, 179.0, 155.0, 154.0, 155.0, 158.0, 183.0, 185.0, 174.0]",11.496201515197754,0.0,-12.252685546875,0.000560760498046875,-27.846481323242188
