timestamp,steering_input,acceleration_input,raycasts,speed,steering,position_x,position_y,position_z
1743601006.3958519,0.0,-0.0,"[174.0, 185.0, 227.0, 295.0, 259.0, 259.0, 295.0, 227.0, 185.0, 174.0]",0.0,0.0,0.0,0.10000038146972656,-27.93000030517578
1743601006.6182718,0.0,-0.0,"[174.0, 185.0, 178.0, 155.0, 154.0, 154.0, 156.0, 179.0, 185.0, 174.0]",0.1431841105222702,0.0,0.0,0.097137451171875,-27.93000030517578
1743601006.6657166,0.0,-0.0,"[174.0, 185.0, 178.0, 155.0, 154.0, 154.0, 156.0, 179.0, 185.0, 174.0]",0.2360968291759491,0.0,0.0,0.09241485595703125,-27.93000030517578
1743601006.6709347,0.0,-0.0,"[174.0, 185.0, 178.0, 155.0, 154.0, 154.0, 156.0, 179.0, 185.0, 174.0]",0.30777978897094727,0.0,0.0,0.08625984191894531,-27.93000030517578
1743601006.7041705,0.0,-0.0,"[174.0, 185.0, 179.0, 155.0, 154.0, 154.0, 156.0, 179.0, 185.0, 174.0]",0.36006540060043335,0.0,0.0,0.07905769348144531,-27.93000030517578
1743601006.7073944,0.0,-0.0,"[174.0, 185.0, 179.0, 155.0, 154.0, 154.0, 156.0, 179.0, 185.0, 174.0]",0.3949472904205322,0.0,0.0,0.07115936279296875,-27.93000030517578
1743601006.7390754,0.0,-0.0,"[174.0, 185.0, 179.0, 155.0, 154.0, 154.0, 156.0, 180.0, 185.0, 174.0]",0.41450235247612,0.0,0.0,0.06286811828613281,-27.93000030517578
1743601006.741808,0.0,-0.0,"[174.0, 185.0, 179.0, 155.0, 154.0, 154.0, 156.0, 180.0, 185.0, 174.0]",0.42082807421684265,0.0,0.0,0.05445289611816406,-27.93000030517578
1743601006.7705748,0.0,-0.0,"[174.0, 185.0, 179.0, 155.0, 154.0, 154.0, 156.0, 181.0, 185.0, 174.0]",0.41598936915397644,0.0,0.0,0.04613304138183594,-27.93000030517578
1743601006.7993538,0.0,-0.0,"[174.0, 185.0, 179.0, 155.0, 154.0, 154.0, 156.0, 181.0, 185.0, 174.0]",0.4019714593887329,0.0,0.0,0.03809356689453125,-27.93000030517578
1743601006.802027,0.0,-0.0,"[174.0, 185.0, 179.0, 155.0, 154.0, 154.0, 156.0, 181.0, 185.0, 174.0]",0.3806484043598175,0.0,0.0,0.03047943115234375,-27.93000030517578
1743601006.8333879,0.0,-0.0,"[174.0, 185.0, 180.0, 156.0, 154.0, 154.0, 156.0, 181.0, 185.0, 174.0]",0.3537571132183075,0.0,0.0,0.023405075073242188,-27.93000030517578
1743601006.8636966,0.0,-0.0,"[174.0, 185.0, 180.0, 156.0, 154.0, 154.0, 156.0, 181.0, 185.0, 174.0]",0.3228750228881836,0.0,0.0,0.016946792602539062,-27.92999267578125
1743601006.8666227,0.0,-0.0,"[174.0, 185.0, 180.0, 156.0, 154.0, 154.0, 156.0, 181.0, 185.0, 174.0]",0.28941938281059265,0.0,0.0,0.011159896850585938,-27.930038452148438
1743601006.8953843,0.0,-0.0,"[174.0, 185.0, 180.0, 156.0, 154.0, 154.0, 156.0, 181.0, 185.0, 174.0]",0.2562173306941986,0.0,0.0,0.0060672760009765625,-27.929466247558594
1743601006.8982177,0.0,-0.0,"[174.0, 185.0, 180.0, 156.0, 154.0, 154.0, 156.0, 181.0, 185.0, 174.0]",0.34839218854904175,0.0,0.0,0.0016765594482421875,-27.93487548828125
1743601006.9281087,0.0,-0.0,"[174.0, 185.0, 181.0, 156.0, 154.0, 154.0, 156.0, 181.0, 185.0, 174.0]",0.255353718996048,0.0,0.0,-0.0020236968994140625,-27.931358337402344
1743601006.9570875,0.0,-0.0,"[174.0, 185.0, 181.0, 156.0, 154.0, 154.0, 156.0, 181.0, 185.0, 174.0]",0.2815416157245636,0.0,0.0,-0.0050601959228515625,-27.926612854003906
1743601006.9597533,0.0,-0.0,"[174.0, 185.0, 181.0, 156.0, 154.0, 154.0, 156.0, 181.0, 185.0, 174.0]",0.15634490549564362,0.0,0.0,-0.007472991943359375,-27.928604125976562
1743601006.988481,0.0,-0.0,"[174.0, 185.0, 181.0, 156.0, 154.0, 154.0, 156.0, 181.0, 185.0, 174.0]",0.27455902099609375,0.0,0.0,-0.009307861328125,-27.923431396484375
1743601007.020523,0.0,-0.0,"[174.0, 185.0, 181.0, 156.0, 154.0, 154.0, 156.0, 181.0, 185.0, 174.0]",0.2245660424232483,0.0,0.0,-0.010616302490234375,-27.92772674560547
1743601007.0249286,0.0,-0.0,"[174.0, 185.0, 181.0, 156.0, 154.0, 154.0, 156.0, 181.0, 185.0, 174.0]",0.08891011029481888,0.0,0.0,-0.011455535888671875,-27.929290771484375
1743601007.0551631,0.0,-0.0,"[174.0, 185.0, 181.0, 156.0, 154.0, 154.0, 156.0, 181.0, 185.0, 174.0]",0.1896505206823349,0.0,0.0,-0.011884689331054688,-27.925521850585938
1743601007.0897253,0.0,-0.0,"[174.0, 185.0, 181.0, 156.0, 154.0, 154.0, 156.0, 181.0, 185.0, 174.0]",0.2066076397895813,0.0,0.0,-0.011960983276367188,-27.92139434814453
1743601007.0958874,0.0,-0.0,"[174.0, 185.0, 181.0, 156.0, 154.0, 154.0, 156.0, 181.0, 185.0, 174.0]",0.12101753056049347,0.0,0.0,-0.011743545532226562,-27.918983459472656
1743601007.126946,0.0,-0.0,"[174.0, 185.0, 181.0, 156.0, 154.0, 154.0, 156.0, 181.0, 185.0, 174.0]",0.19259010255336761,0.0,0.0,-0.011285781860351562,-27.922805786132812
1743601007.1328895,0.0,-0.0,"[174.0, 185.0, 181.0, 156.0, 154.0, 154.0, 156.0, 181.0, 185.0, 174.0]",0.17800575494766235,0.0,0.0,-0.010637283325195312,-27.926307678222656
1743601007.164532,0.0,-0.0,"[174.0, 185.0, 181.0, 156.0, 154.0, 154.0, 156.0, 181.0, 185.0, 174.0]",0.16013549268245697,0.0,0.0,-0.009847640991210938,-27.929412841796875
1743601007.1689367,0.0,-0.0,"[174.0, 185.0, 181.0, 156.0, 154.0, 154.0, 156.0, 181.0, 185.0, 174.0]",0.07219173014163971,0.0,0.0,-0.0089569091796875,-27.9305419921875
1743601007.1989024,0.0,-0.0,"[174.0, 185.0, 181.0, 156.0, 154.0, 154.0, 156.0, 181.0, 185.0, 174.0]",0.1852148175239563,0.0,0.0,-0.008007049560546875,-27.926963806152344
1743601007.2021878,0.0,-0.0,"[174.0, 185.0, 181.0, 156.0, 154.0, 154.0, 156.0, 181.0, 185.0, 174.0]",0.15632963180541992,0.0,0.0,-0.00702667236328125,-27.923995971679688
1743601007.2365804,0.0,-0.0,"[174.0, 185.0, 181.0, 156.0, 154.0, 154.0, 156.0, 181.0, 185.0, 174.0]",0.051327187567949295,0.0,0.0,-0.0060482025146484375,-27.923690795898438
1743601007.2699008,0.0,-0.0,"[174.0, 185.0, 181.0, 156.0, 154.0, 154.0, 156.0, 181.0, 185.0, 174.0]",0.15988554060459137,0.0,0.0,-0.0050907135009765625,-27.926742553710938
1743601007.2738955,0.0,-0.0,"[174.0, 185.0, 181.0, 156.0, 154.0, 154.0, 156.0, 181.0, 185.0, 174.0]",0.05791441351175308,0.0,0.0,-0.004177093505859375,-27.927452087402344
1743601007.3047261,0.0,-0.0,"[174.0, 185.0, 181.0, 156.0, 154.0, 154.0, 156.0, 181.0, 185.0, 174.0]",0.19991730153560638,0.0,0.0,-0.0033206939697265625,-27.923545837402344
1743601007.308243,0.0,-0.0,"[174.0, 185.0, 181.0, 156.0, 154.0, 154.0, 156.0, 181.0, 185.0, 174.0]",0.12208718806505203,0.0,0.0,-0.0025310516357421875,-27.921234130859375
1743601007.3392067,0.0,-0.0,"[174.0, 185.0, 181.0, 156.0, 154.0, 154.0, 156.0, 181.0, 185.0, 174.0]",0.18460233509540558,0.0,0.0,-0.0018177032470703125,-27.92485809326172
1743601007.3432229,0.0,-0.0,"[174.0, 185.0, 181.0, 156.0, 154.0, 154.0, 156.0, 181.0, 185.0, 174.0]",0.13353228569030762,0.0,0.0,-0.0011844635009765625,-27.927452087402344
1743601007.3736274,0.0,-0.0,"[174.0, 185.0, 181.0, 156.0, 154.0, 154.0, 156.0, 181.0, 185.0, 174.0]",0.11446059495210648,0.0,3.0517578125e-05,-0.00063323974609375,-27.92523193359375
1743601007.4056714,0.0,-0.0,"[174.0, 185.0, 181.0, 156.0, 154.0, 154.0, 156.0, 181.0, 185.0, 174.0]",0.18039268255233765,0.0,3.0517578125e-05,-0.0001621246337890625,-27.928802490234375
1743601007.4094625,0.0,-0.0,"[174.0, 185.0, 181.0, 156.0, 154.0, 154.0, 156.0, 181.0, 185.0, 174.0]",0.12967412173748016,0.0,3.0517578125e-05,0.0002288818359375,-27.931365966796875
1743601007.4420562,0.0,-0.0,"[174.0, 185.0, 181.0, 156.0, 154.0, 154.0, 156.0, 181.0, 185.0, 174.0]",0.1237604022026062,0.0,3.0517578125e-05,0.000545501708984375,-27.928909301757812
1743601007.4456859,0.0,-0.0,"[174.0, 185.0, 181.0, 156.0, 154.0, 154.0, 156.0, 181.0, 185.0, 174.0]",0.1935333013534546,0.0,3.0517578125e-05,0.0007915496826171875,-27.932777404785156
1743601007.4765913,0.0,-0.0,"[174.0, 185.0, 181.0, 156.0, 154.0, 154.0, 156.0, 181.0, 185.0, 174.0]",0.12180628627538681,0.0,6.103515625e-05,0.000972747802734375,-27.935203552246094
1743601007.5081549,0.0,-0.0,"[174.0, 185.0, 181.0, 156.0, 154.0, 154.0, 156.0, 181.0, 185.0, 174.0]",0.16159525513648987,0.0,6.103515625e-05,0.0010967254638671875,-27.931976318359375
1743601007.511789,0.0,-0.0,"[174.0, 185.0, 181.0, 156.0, 154.0, 154.0, 156.0, 181.0, 185.0, 174.0]",0.0772232785820961,0.0,6.103515625e-05,0.0011692047119140625,-27.930435180664062
1743601007.5430553,0.0,-0.0,"[174.0, 185.0, 181.0, 156.0, 154.0, 154.0, 156.0, 181.0, 185.0, 174.0]",0.184142604470253,0.0,6.103515625e-05,0.00119781494140625,-27.934112548828125
1743601007.5467815,0.0,-0.0,"[174.0, 185.0, 181.0, 156.0, 154.0, 154.0, 156.0, 181.0, 185.0, 174.0]",0.1367751508951187,0.0,6.103515625e-05,0.0011882781982421875,-27.936851501464844
1743601007.5772371,0.0,-0.0,"[174.0, 185.0, 181.0, 156.0, 154.0, 154.0, 156.0, 181.0, 185.0, 174.0]",0.06419677287340164,0.0,6.103515625e-05,0.001148223876953125,-27.935569763183594
1743601007.5809126,0.0,-0.0,"[174.0, 185.0, 181.0, 156.0, 154.0, 154.0, 156.0, 181.0, 185.0, 174.0]",0.1747168004512787,0.0,6.103515625e-05,0.0010833740234375,-27.939064025878906
1743601007.6139185,0.0,-0.0,"[174.0, 185.0, 181.0, 156.0, 154.0, 154.0, 156.0, 181.0, 185.0, 174.0]",0.1311485320329666,0.0,9.1552734375e-05,0.00099945068359375,-27.941680908203125
1743601007.646373,0.0,-0.0,"[174.0, 185.0, 181.0, 156.0, 154.0, 154.0, 156.0, 181.0, 185.0, 174.0]",0.11074256151914597,0.0,9.1552734375e-05,0.0009002685546875,-27.939468383789062
1743601007.6506352,0.0,-0.0,"[174.0, 185.0, 181.0, 156.0, 154.0, 154.0, 156.0, 181.0, 185.0, 174.0]",0.1801898330450058,0.0,9.1552734375e-05,0.00079345703125,-27.943069458007812
1743601007.6816132,0.0,-0.0,"[174.0, 185.0, 181.0, 156.0, 154.0, 154.0, 156.0, 181.0, 185.0, 174.0]",0.14138393104076385,0.0,9.1552734375e-05,0.00067901611328125,-27.945899963378906
1743601007.6852667,0.0,-0.0,"[174.0, 185.0, 181.0, 156.0, 154.0, 154.0, 156.0, 181.0, 185.0, 174.0]",0.0333004854619503,0.0,9.1552734375e-05,0.0005645751953125,-27.94524383544922
1743601007.7183168,0.0,-0.0,"[174.0, 185.0, 181.0, 156.0, 154.0, 154.0, 156.0, 181.0, 185.0, 174.0]",0.19635771214962006,0.0,9.1552734375e-05,0.0004520416259765625,-27.94916534423828
1743601007.7530725,0.0,-0.0,"[174.0, 185.0, 181.0, 156.0, 154.0, 154.0, 156.0, 181.0, 185.0, 174.0]",0.12271545082330704,0.0,0.0001220703125,0.00034332275390625,-27.951614379882812
1743601007.7575064,0.0,-0.0,"[174.0, 185.0, 181.0, 156.0, 154.0, 154.0, 156.0, 181.0, 185.0, 174.0]",0.15798240900039673,0.0,0.0001220703125,0.0002384185791015625,-27.948455810546875
1743601007.7888412,0.0,-0.0,"[174.0, 185.0, 181.0, 156.0, 154.0, 154.0, 156.0, 181.0, 185.0, 174.0]",0.0622306689620018,0.0,0.0001220703125,0.0001430511474609375,-27.947219848632812
1743601007.7924275,0.0,-0.0,"[174.0, 185.0, 181.0, 156.0, 154.0, 154.0, 156.0, 181.0, 185.0, 174.0]",0.17492303252220154,0.0,0.0001220703125,5.53131103515625e-05,-27.950714111328125
1743601007.8256245,0.0,-0.0,"[174.0, 185.0, 181.0, 156.0, 154.0, 154.0, 156.0, 181.0, 185.0, 174.0]",0.13653863966464996,0.0,0.0001220703125,-2.288818359375e-05,-27.953445434570312
1743601007.8292332,0.0,-0.0,"[174.0, 185.0, 181.0, 156.0, 154.0, 154.0, 156.0, 181.0, 185.0, 174.0]",0.0718504786491394,0.0,0.0001220703125,-9.34600830078125e-05,-27.952011108398438
1743601007.8608673,0.0,-0.0,"[174.0, 185.0, 181.0, 156.0, 154.0, 154.0, 156.0, 181.0, 185.0, 174.0]",0.17569200694561005,0.0,0.0001220703125,-0.000152587890625,-27.955520629882812
1743601007.864554,0.0,-0.0,"[174.0, 185.0, 181.0, 156.0, 154.0, 154.0, 156.0, 181.0, 185.0, 174.0]",0.13826613128185272,0.0,0.000152587890625,-0.000202178955078125,-27.958290100097656
1743601007.8977284,0.0,-0.0,"[174.0, 185.0, 181.0, 156.0, 154.0, 154.0, 156.0, 181.0, 185.0, 174.0]",0.05745533108711243,0.0,0.000152587890625,-0.000244140625,-27.957138061523438
1743601007.9277651,0.0,-0.0,"[174.0, 185.0, 181.0, 156.0, 154.0, 154.0, 156.0, 181.0, 185.0, 174.0]",0.1775936484336853,0.0,0.000152587890625,-0.000278472900390625,-27.960693359375
1743601007.930629,0.0,-0.0,"[174.0, 185.0, 181.0, 156.0, 154.0, 154.0, 156.0, 181.0, 185.0, 174.0]",0.14114311337471008,0.0,0.000152587890625,-0.0003032684326171875,-27.963516235351562
1743601007.9604824,0.0,-0.0,"[174.0, 185.0, 181.0, 156.0, 154.0, 154.0, 156.0, 181.0, 185.0, 174.0]",0.034520473331213,0.0,0.000152587890625,-0.0003204345703125,-27.96282196044922
1743601007.9631438,0.0,-0.0,"[174.0, 185.0, 181.0, 156.0, 154.0, 154.0, 156.0, 181.0, 185.0, 174.0]",0.20195074379444122,0.0,0.00018310546875,-0.000331878662109375,-27.96686553955078
1743601007.9927752,0.0,-0.0,"[174.0, 185.0, 181.0, 156.0, 154.0, 154.0, 156.0, 181.0, 185.0, 174.0]",0.09901262819766998,0.0,0.00018310546875,-0.000339508056640625,-27.968841552734375
1743601008.0264804,0.0,-0.0,"[174.0, 185.0, 181.0, 156.0, 154.0, 154.0, 156.0, 181.0, 185.0, 174.0]",0.20315459370613098,0.0,0.00018310546875,-0.000339508056640625,-27.96478271484375
1743601008.031028,0.0,-0.0,"[174.0, 185.0, 181.0, 156.0, 154.0, 154.0, 156.0, 181.0, 185.0, 174.0]",0.09250973165035248,0.0,0.000152587890625,-0.0003376007080078125,-27.962928771972656
1743601008.0626376,0.0,-0.0,"[174.0, 185.0, 181.0, 156.0, 154.0, 154.0, 156.0, 181.0, 185.0, 174.0]",0.21048150956630707,0.0,0.00018310546875,-0.000331878662109375,-27.967140197753906
1743601008.065541,0.0,-0.0,"[174.0, 185.0, 181.0, 156.0, 154.0, 154.0, 156.0, 181.0, 185.0, 174.0]",0.054807256907224655,0.0,0.00018310546875,-0.0003223419189453125,-27.968238830566406
1743601008.0958695,0.0,-0.0,"[174.0, 185.0, 181.0, 156.0, 154.0, 154.0, 156.0, 181.0, 185.0, 174.0]",0.18342110514640808,0.0,0.00018310546875,-0.00031280517578125,-27.964569091796875
1743601008.127976,0.0,-0.0,"[174.0, 185.0, 181.0, 156.0, 154.0, 154.0, 156.0, 181.0, 185.0, 174.0]",0.14437030255794525,0.0,0.000152587890625,-0.0002994537353515625,-27.961685180664062
1743601008.1336856,0.0,-0.0,"[174.0, 185.0, 181.0, 156.0, 154.0, 154.0, 156.0, 181.0, 185.0, 174.0]",0.010325106792151928,0.0,0.000152587890625,-0.0002880096435546875,-27.961883544921875
1743601008.1649919,0.0,-0.0,"[174.0, 185.0, 181.0, 156.0, 154.0, 154.0, 156.0, 181.0, 185.0, 174.0]",0.08798801898956299,0.0,0.000152587890625,-0.000274658203125,-27.960128784179688
1743601008.1699448,0.0,-0.0,"[174.0, 185.0, 181.0, 156.0, 154.0, 154.0, 156.0, 181.0, 185.0, 174.0]",0.2099931389093399,0.0,0.00018310546875,-0.0002613067626953125,-27.964324951171875
1743601008.200393,0.0,-0.0,"[174.0, 185.0, 181.0, 156.0, 154.0, 154.0, 156.0, 181.0, 185.0, 174.0]",0.05686913803219795,0.0,0.00018310546875,-0.000247955322265625,-27.96546173095703
1743601008.2050636,0.0,-0.0,"[174.0, 185.0, 181.0, 156.0, 154.0, 154.0, 156.0, 181.0, 185.0, 174.0]",0.17966091632843018,0.0,0.00018310546875,-0.0002346038818359375,-27.961868286132812
1743601008.2391655,0.0,-0.0,"[174.0, 185.0, 181.0, 156.0, 154.0, 154.0, 156.0, 181.0, 185.0, 174.0]",0.14235873520374298,0.0,0.000152587890625,-0.0002231597900390625,-27.959022521972656
1743601008.2727828,0.0,-0.0,"[174.0, 185.0, 181.0, 156.0, 154.0, 154.0, 156.0, 181.0, 185.0, 174.0]",0.024575751274824142,0.0,0.000152587890625,-0.000213623046875,-27.959518432617188
1743601008.275401,0.0,-0.0,"[174.0, 185.0, 181.0, 156.0, 154.0, 154.0, 156.0, 181.0, 185.0, 174.0]",0.1880163848400116,0.0,0.000152587890625,-0.0002040863037109375,-27.95575714111328
1743601008.3069057,0.0,-0.0,"[174.0, 185.0, 181.0, 156.0, 154.0, 154.0, 156.0, 181.0, 185.0, 174.0]",0.14146263897418976,0.0,0.000152587890625,-0.000194549560546875,-27.952926635742188
1743601008.3095734,0.0,-0.0,"[174.0, 185.0, 181.0, 156.0, 154.0, 154.0, 156.0, 181.0, 185.0, 174.0]",0.031307123601436615,0.0,0.000152587890625,-0.000186920166015625,-27.95355224609375
1743601008.3394454,0.0,-0.0,"[174.0, 185.0, 181.0, 156.0, 154.0, 154.0, 156.0, 181.0, 185.0, 174.0]",0.19213135540485382,0.0,0.000152587890625,-0.0001811981201171875,-27.94970703125
1743601008.3423705,0.0,-0.0,"[174.0, 185.0, 181.0, 156.0, 154.0, 154.0, 156.0, 181.0, 185.0, 174.0]",0.1337447315454483,0.0,0.0001220703125,-0.00017547607421875,-27.947036743164062
1743601008.3713796,0.0,-0.0,"[174.0, 185.0, 181.0, 156.0, 154.0, 154.0, 156.0, 181.0, 185.0, 174.0]",0.09263762831687927,0.0,0.0001220703125,-0.000171661376953125,-27.948883056640625
1743601008.4002242,0.0,-0.0,"[174.0, 185.0, 181.0, 156.0, 154.0, 154.0, 156.0, 181.0, 185.0, 174.0]",0.2106226533651352,0.0,0.0001220703125,-0.0001678466796875,-27.944671630859375
1743601008.4029164,0.0,-0.0,"[174.0, 185.0, 181.0, 156.0, 154.0, 154.0, 156.0, 181.0, 185.0, 174.0]",0.053793199360370636,0.0,0.0001220703125,-0.000164031982421875,-27.94359588623047
1743601008.4347026,0.0,-0.0,"[174.0, 185.0, 181.0, 156.0, 154.0, 154.0, 156.0, 181.0, 185.0, 174.0]",0.18583746254444122,0.0,0.0001220703125,-0.0001621246337890625,-27.947311401367188
1743601008.4657042,0.0,-0.0,"[174.0, 185.0, 181.0, 156.0, 154.0, 154.0, 156.0, 181.0, 185.0, 174.0]",0.1430375576019287,0.0,0.0001220703125,-0.0001621246337890625,-27.950180053710938
1743601008.4686172,0.0,-0.0,"[174.0, 185.0, 181.0, 156.0, 154.0, 154.0, 156.0, 181.0, 185.0, 174.0]",0.019723525270819664,0.0,0.0001220703125,-0.0001621246337890625,-27.949783325195312
1743601008.4984622,0.0,-0.0,"[174.0, 185.0, 181.0, 156.0, 154.0, 154.0, 156.0, 181.0, 185.0, 174.0]",0.18836303055286407,0.0,0.0001220703125,-0.0001621246337890625,-27.95355224609375
1743601008.5013084,0.0,-0.0,"[174.0, 185.0, 181.0, 156.0, 154.0, 154.0, 156.0, 181.0, 185.0, 174.0]",0.14051376283168793,0.0,0.0001220703125,-0.0001621246337890625,-27.95635986328125
1743601008.5357053,0.0,-0.0,"[174.0, 185.0, 181.0, 156.0, 154.0, 154.0, 156.0, 181.0, 185.0, 174.0]",0.038770899176597595,0.0,0.000152587890625,-0.0001621246337890625,-27.955581665039062
1743601008.5748167,0.0,-0.0,"[174.0, 185.0, 181.0, 156.0, 154.0, 154.0, 156.0, 181.0, 185.0, 174.0]",0.20928703248500824,0.0,0.000152587890625,-0.000164031982421875,-27.95977020263672
1743601008.5781362,0.0,-0.0,"[174.0, 185.0, 181.0, 156.0, 154.0, 154.0, 156.0, 181.0, 185.0, 174.0]",0.0603407584130764,0.0,0.000152587890625,-0.000164031982421875,-27.960975646972656
1743601008.6095603,0.0,-0.0,"[174.0, 185.0, 181.0, 156.0, 154.0, 154.0, 156.0, 181.0, 185.0, 174.0]",0.176280215382576,0.0,0.000152587890625,-0.0001659393310546875,-27.95745086669922
1743601008.612772,0.0,-0.0,"[174.0, 185.0, 181.0, 156.0, 154.0, 154.0, 156.0, 181.0, 185.0, 174.0]",0.13787387311458588,0.0,0.000152587890625,-0.0001678466796875,-27.954696655273438
1743601008.6446314,0.0,-0.0,"[174.0, 185.0, 181.0, 156.0, 154.0, 154.0, 156.0, 181.0, 185.0, 174.0]",0.059169523417949677,0.0,0.0001220703125,-0.0001697540283203125,-27.95587158203125
1743601008.6490333,0.0,-0.0,"[174.0, 185.0, 181.0, 156.0, 154.0, 154.0, 156.0, 181.0, 185.0, 174.0]",0.17614339292049408,0.0,0.0001220703125,-0.000171661376953125,-27.952354431152344
1743601008.6790707,0.0,-0.0,"[174.0, 185.0, 181.0, 156.0, 154.0, 154.0, 156.0, 181.0, 185.0, 174.0]",0.13753186166286469,0.0,0.0001220703125,-0.000171661376953125,-27.949600219726562
1743601008.6820261,0.0,-0.0,"[174.0, 185.0, 181.0, 156.0, 154.0, 154.0, 156.0, 181.0, 185.0, 174.0]",0.06201857328414917,0.0,0.0001220703125,-0.0001735687255859375,-27.950843811035156
1743601008.711263,0.0,-0.0,"[174.0, 185.0, 181.0, 156.0, 154.0, 154.0, 156.0, 181.0, 185.0, 174.0]",0.17492681741714478,0.0,0.0001220703125,-0.00017547607421875,-27.947341918945312
1743601008.741791,0.0,-0.0,"[174.0, 185.0, 181.0, 156.0, 154.0, 154.0, 156.0, 181.0, 185.0, 174.0]",0.13515165448188782,0.0,9.1552734375e-05,-0.00017547607421875,-27.94464111328125
1743601008.744595,0.0,-0.0,"[174.0, 185.0, 181.0, 156.0, 154.0, 154.0, 156.0, 181.0, 185.0, 174.0]",0.08116552978754044,0.0,9.1552734375e-05,-0.0001773834228515625,-27.946266174316406
1743601008.7746682,0.0,-0.0,"[174.0, 185.0, 181.0, 156.0, 154.0, 154.0, 156.0, 181.0, 185.0, 174.0]",0.19521167874336243,0.0,9.1552734375e-05,-0.0001773834228515625,-27.942359924316406
1743601008.8059056,0.0,-0.0,"[174.0, 185.0, 181.0, 156.0, 154.0, 154.0, 156.0, 181.0, 185.0, 174.0]",0.1258745640516281,0.0,9.1552734375e-05,-0.000179290771484375,-27.939842224121094
1743601008.8089907,0.0,-0.0,"[174.0, 185.0, 181.0, 156.0, 154.0, 154.0, 156.0, 181.0, 185.0, 174.0]",0.14341174066066742,0.0,9.1552734375e-05,-0.000179290771484375,-27.942710876464844
1743601008.8408792,0.0,-0.0,"[174.0, 185.0, 181.0, 156.0, 154.0, 154.0, 156.0, 181.0, 185.0, 174.0]",0.007905163802206516,0.0,9.1552734375e-05,-0.0001811981201171875,-27.942550659179688
1743601008.8449326,0.0,-0.0,"[174.0, 185.0, 181.0, 156.0, 154.0, 154.0, 156.0, 181.0, 185.0, 174.0]",0.05470709130167961,0.0,9.1552734375e-05,-0.0001811981201171875,-27.943649291992188
1743601008.8757768,0.0,-0.0,"[174.0, 185.0, 181.0, 156.0, 154.0, 154.0, 156.0, 181.0, 185.0, 174.0]",0.17918594181537628,0.0,9.1552734375e-05,-0.0001811981201171875,-27.9400634765625
1743601008.9054759,0.0,-0.0,"[174.0, 185.0, 181.0, 156.0, 154.0, 154.0, 156.0, 181.0, 185.0, 174.0]",0.14194144308567047,0.0,6.103515625e-05,-0.0001811981201171875,-27.937225341796875
1743601008.9083462,0.0,-0.0,"[174.0, 185.0, 181.0, 156.0, 154.0, 154.0, 156.0, 181.0, 185.0, 174.0]",0.02775217778980732,0.0,6.103515625e-05,-0.0001811981201171875,-27.937782287597656
1743601008.93848,0.0,-0.0,"[174.0, 185.0, 181.0, 156.0, 154.0, 154.0, 156.0, 181.0, 185.0, 174.0]",0.18445590138435364,0.0,6.103515625e-05,-0.0001811981201171875,-27.93408966064453
1743601008.941533,0.0,-0.0,"[174.0, 185.0, 181.0, 156.0, 154.0, 154.0, 156.0, 181.0, 185.0, 174.0]",0.14395101368427277,0.0,6.103515625e-05,-0.0001811981201171875,-27.93121337890625
1743601008.9718525,0.0,-0.0,"[174.0, 185.0, 181.0, 156.0, 154.0, 154.0, 156.0, 181.0, 185.0, 174.0]",0.013245252892374992,0.0,6.103515625e-05,-0.0001811981201171875,-27.931480407714844
1743601009.0013502,0.0,-0.0,"[174.0, 185.0, 181.0, 156.0, 154.0, 154.0, 156.0, 181.0, 185.0, 174.0]",0.13011495769023895,0.0,6.103515625e-05,-0.0001811981201171875,-27.928878784179688
1743601009.0039296,0.0,-0.0,"[174.0, 185.0, 181.0, 156.0, 154.0, 154.0, 156.0, 181.0, 185.0, 174.0]",0.14088380336761475,0.0,6.103515625e-05,-0.0001811981201171875,-27.93169403076172
1743601009.0363615,0.0,-0.0,"[174.0, 185.0, 181.0, 156.0, 154.0, 154.0, 156.0, 181.0, 185.0, 174.0]",0.024702437222003937,0.0,6.103515625e-05,-0.0001811981201171875,-27.931198120117188
1743601009.0670369,0.0,-0.0,"[174.0, 185.0, 181.0, 156.0, 154.0, 154.0, 156.0, 181.0, 185.0, 174.0]",0.1831579953432083,0.0,6.103515625e-05,-0.0001811981201171875,-27.934860229492188
1743601009.0702124,0.0,-0.0,"[174.0, 185.0, 181.0, 156.0, 154.0, 154.0, 156.0, 181.0, 185.0, 174.0]",0.14374779164791107,0.0,6.103515625e-05,-0.0001811981201171875,-27.93773651123047
1743601009.0994697,0.0,-0.0,"[174.0, 185.0, 181.0, 156.0, 154.0, 154.0, 156.0, 181.0, 185.0, 174.0]",0.014733509160578251,0.0,6.103515625e-05,-0.0001811981201171875,-27.93744659423828
1743601009.1026418,0.0,-0.0,"[174.0, 185.0, 181.0, 156.0, 154.0, 154.0, 156.0, 181.0, 185.0, 174.0]",0.15011316537857056,0.0,6.103515625e-05,-0.0001811981201171875,-27.940444946289062
1743601009.1316931,0.0,-0.0,"[174.0, 185.0, 181.0, 156.0, 154.0, 154.0, 156.0, 181.0, 185.0, 174.0]",0.017039312049746513,0.0,6.103515625e-05,-0.0001811981201171875,-27.94078826904297
1743601009.1604722,0.0,-0.0,"[174.0, 185.0, 181.0, 156.0, 154.0, 154.0, 156.0, 181.0, 185.0, 174.0]",0.1960044503211975,0.0,6.103515625e-05,-0.0001811981201171875,-27.936866760253906
1743601009.1633236,0.0,-0.0,"[174.0, 185.0, 181.0, 156.0, 154.0, 154.0, 156.0, 181.0, 185.0, 174.0]",0.1244548112154007,0.0,6.103515625e-05,-0.0001811981201171875,-27.93437957763672
1743601009.192515,0.0,-0.0,"[174.0, 185.0, 181.0, 156.0, 154.0, 154.0, 156.0, 181.0, 185.0, 174.0]",0.15166708827018738,0.0,6.103515625e-05,-0.000179290771484375,-27.937408447265625
1743601009.2253299,0.0,-0.0,"[174.0, 185.0, 181.0, 156.0, 154.0, 154.0, 156.0, 181.0, 185.0, 174.0]",0.024429697543382645,0.0,6.103515625e-05,-0.000179290771484375,-27.937896728515625
1743601009.2302704,0.0,-0.0,"[174.0, 185.0, 181.0, 156.0, 154.0, 154.0, 156.0, 181.0, 185.0, 174.0]",0.18264131247997284,0.0,6.103515625e-05,-0.000179290771484375,-27.934249877929688
1743601009.2606041,0.0,-0.0,"[174.0, 185.0, 181.0, 156.0, 154.0, 154.0, 156.0, 181.0, 185.0, 174.0]",0.14400862157344818,0.0,6.103515625e-05,-0.000179290771484375,-27.931365966796875
1743601009.2635689,0.0,-0.0,"[174.0, 185.0, 181.0, 156.0, 154.0, 154.0, 156.0, 181.0, 185.0, 174.0]",0.012792165391147137,0.0,3.0517578125e-05,-0.000179290771484375,-27.931625366210938
1743601009.292599,0.0,-0.0,"[174.0, 185.0, 181.0, 156.0, 154.0, 154.0, 156.0, 181.0, 185.0, 174.0]",0.12370611727237701,0.0,6.103515625e-05,-0.000179290771484375,-27.929153442382812
1743601009.3226247,0.0,-0.0,"[174.0, 185.0, 181.0, 156.0, 154.0, 154.0, 156.0, 181.0, 185.0, 174.0]",0.20664112269878387,0.0,6.103515625e-05,-0.000179290771484375,-27.93328094482422
1743601009.3255827,0.0,-0.0,"[174.0, 185.0, 181.0, 156.0, 154.0, 154.0, 156.0, 181.0, 185.0, 174.0]",0.07386399805545807,0.0,6.103515625e-05,-0.000179290771484375,-27.93476104736328
1743601009.3547533,0.0,-0.0,"[174.0, 185.0, 181.0, 156.0, 154.0, 154.0, 156.0, 181.0, 185.0, 174.0]",0.17904315888881683,0.0,6.103515625e-05,-0.000179290771484375,-27.931182861328125
1743601009.3842545,0.0,-0.0,"[174.0, 185.0, 181.0, 156.0, 154.0, 154.0, 156.0, 181.0, 185.0, 174.0]",0.1415465772151947,0.0,6.103515625e-05,-0.000179290771484375,-27.92835235595703
1743601009.3870876,0.0,-0.0,"[174.0, 185.0, 181.0, 156.0, 154.0, 154.0, 156.0, 181.0, 185.0, 174.0]",0.030746741220355034,0.0,3.0517578125e-05,-0.000179290771484375,-27.92896270751953
1743601009.420441,0.0,-0.0,"[174.0, 185.0, 181.0, 156.0, 154.0, 154.0, 156.0, 181.0, 185.0, 174.0]",0.19082938134670258,0.0,3.0517578125e-05,-0.000179290771484375,-27.925148010253906
1743601009.4244525,0.0,-0.0,"[174.0, 185.0, 181.0, 156.0, 154.0, 154.0, 156.0, 181.0, 185.0, 174.0]",0.13662977516651154,0.0,3.0517578125e-05,-0.000179290771484375,-27.92241668701172
1743601009.4548652,0.0,-0.0,"[174.0, 185.0, 181.0, 156.0, 154.0, 154.0, 156.0, 181.0, 185.0, 174.0]",0.06969776004552841,0.0,3.0517578125e-05,-0.000179290771484375,-27.923812866210938
1743601009.484111,0.0,-0.0,"[174.0, 185.0, 180.0, 156.0, 154.0, 154.0, 156.0, 181.0, 185.0, 174.0]",0.17465703189373016,0.0,3.0517578125e-05,-0.000179290771484375,-27.920318603515625
1743601009.487044,0.0,-0.0,"[174.0, 185.0, 180.0, 156.0, 154.0, 154.0, 156.0, 181.0, 185.0, 174.0]",0.13456955552101135,0.0,3.0517578125e-05,-0.000179290771484375,-27.917625427246094
1743601009.5164294,0.0,-0.0,"[174.0, 185.0, 180.0, 156.0, 154.0, 154.0, 156.0, 181.0, 185.0, 174.0]",0.08586595952510834,0.0,0.0,-0.000179290771484375,-27.919342041015625
1743601009.5196002,0.0,-0.0,"[174.0, 185.0, 180.0, 156.0, 154.0, 154.0, 156.0, 181.0, 185.0, 174.0]",0.20599845051765442,0.0,0.0,-0.000179290771484375,-27.91522216796875
1743601009.5486882,0.0,-0.0,"[174.0, 185.0, 180.0, 156.0, 154.0, 154.0, 156.0, 181.0, 185.0, 174.0]",0.07721193134784698,0.0,0.0,-0.000179290771484375,-27.913681030273438
1743601009.5901334,0.0,-0.0,"[174.0, 185.0, 180.0, 156.0, 154.0, 154.0, 156.0, 181.0, 185.0, 174.0]",0.18560084700584412,0.0,0.0,-0.000179290771484375,-27.917388916015625
1743601009.593079,0.0,-0.0,"[174.0, 185.0, 180.0, 156.0, 154.0, 154.0, 156.0, 181.0, 185.0, 174.0]",0.1434808373451233,0.0,0.0,-0.000179290771484375,-27.920257568359375
1743601009.625099,0.0,-0.0,"[174.0, 185.0, 180.0, 156.0, 154.0, 154.0, 156.0, 181.0, 185.0, 174.0]",0.016560178250074387,0.0,0.0,-0.000179290771484375,-27.91992950439453
1743601009.6289692,0.0,-0.0,"[174.0, 185.0, 180.0, 156.0, 154.0, 154.0, 156.0, 181.0, 185.0, 174.0]",0.17030370235443115,0.0,0.0,-0.000179290771484375,-27.92333221435547
1743601009.6595926,0.0,-0.0,"[174.0, 185.0, 180.0, 156.0, 154.0, 154.0, 156.0, 181.0, 185.0, 174.0]",0.12422386556863785,0.0,0.0,-0.000179290771484375,-27.925819396972656
1743601009.6620693,0.0,-0.0,"[174.0, 185.0, 180.0, 156.0, 154.0, 154.0, 156.0, 181.0, 185.0, 174.0]",0.16053979098796844,0.0,3.0517578125e-05,-0.000179290771484375,-27.922607421875
1743601009.6920068,0.0,-0.0,"[174.0, 185.0, 180.0, 156.0, 154.0, 154.0, 156.0, 181.0, 185.0, 174.0]",0.0767679214477539,0.0,0.0,-0.000179290771484375,-27.92107391357422
1743601009.7229817,0.0,-0.0,"[174.0, 185.0, 180.0, 156.0, 154.0, 154.0, 156.0, 181.0, 185.0, 174.0]",0.18297992646694183,0.0,3.0517578125e-05,-0.000179290771484375,-27.92473602294922
1743601009.7258286,0.0,-0.0,"[174.0, 185.0, 180.0, 156.0, 154.0, 154.0, 156.0, 181.0, 185.0, 174.0]",0.14384323358535767,0.0,3.0517578125e-05,-0.000179290771484375,-27.9276123046875
1743601009.7557368,0.0,-0.0,"[174.0, 185.0, 181.0, 156.0, 154.0, 154.0, 156.0, 181.0, 185.0, 174.0]",0.014026904478669167,0.0,3.0517578125e-05,-0.000179290771484375,-27.927330017089844
1743601009.7852876,0.0,-0.0,"[174.0, 185.0, 181.0, 156.0, 154.0, 154.0, 156.0, 181.0, 185.0, 174.0]",0.14092013239860535,0.0,3.0517578125e-05,-0.000179290771484375,-27.930145263671875
1743601009.787806,0.0,-0.0,"[174.0, 185.0, 181.0, 156.0, 154.0, 154.0, 156.0, 181.0, 185.0, 174.0]",0.020095907151699066,0.0,3.0517578125e-05,-0.000179290771484375,-27.92974853515625
1743601009.819405,0.0,-0.0,"[174.0, 185.0, 181.0, 156.0, 154.0, 154.0, 156.0, 181.0, 185.0, 174.0]",0.2090282142162323,0.0,3.0517578125e-05,-0.000179290771484375,-27.933929443359375
1743601009.822729,0.0,-0.0,"[174.0, 185.0, 181.0, 156.0, 154.0, 154.0, 156.0, 181.0, 185.0, 174.0]",0.06167265400290489,0.0,3.0517578125e-05,-0.000179290771484375,-27.935165405273438
1743601009.8524086,0.0,-0.0,"[174.0, 185.0, 181.0, 156.0, 154.0, 154.0, 156.0, 181.0, 185.0, 174.0]",0.17556063830852509,0.0,3.0517578125e-05,-0.000179290771484375,-27.93164825439453
1743601009.882039,0.0,-0.0,"[174.0, 185.0, 181.0, 156.0, 154.0, 154.0, 156.0, 181.0, 185.0, 174.0]",0.1365300714969635,0.0,3.0517578125e-05,-0.000179290771484375,-27.928916931152344
1743601009.8852196,0.0,-0.0,"[174.0, 185.0, 181.0, 156.0, 154.0, 154.0, 156.0, 181.0, 185.0, 174.0]",0.06997218728065491,0.0,0.0,-0.000179290771484375,-27.930320739746094
1743601009.9138508,0.0,-0.0,"[174.0, 185.0, 181.0, 156.0, 154.0, 154.0, 156.0, 181.0, 185.0, 174.0]",0.17474128305912018,0.0,0.0,-0.000179290771484375,-27.92682647705078
1743601009.942632,0.0,-0.0,"[174.0, 185.0, 181.0, 156.0, 154.0, 154.0, 156.0, 181.0, 185.0, 174.0]",0.13476093113422394,0.0,0.0,-0.000179290771484375,-27.92413330078125
1743601009.945365,0.0,-0.0,"[174.0, 185.0, 181.0, 156.0, 154.0, 154.0, 156.0, 181.0, 185.0, 174.0]",0.08431100100278854,0.0,0.0,-0.000179290771484375,-27.925811767578125
1743601009.9740293,0.0,-0.0,"[174.0, 185.0, 180.0, 156.0, 154.0, 154.0, 156.0, 181.0, 185.0, 174.0]",0.20318099856376648,0.0,0.0,-0.000179290771484375,-27.9217529296875
1743601010.0032635,0.0,-0.0,"[174.0, 185.0, 180.0, 156.0, 154.0, 154.0, 156.0, 181.0, 185.0, 174.0]",0.09192772209644318,0.0,0.0,-0.000179290771484375,-27.91991424560547
1743601010.0062504,0.0,-0.0,"[174.0, 185.0, 180.0, 156.0, 154.0, 154.0, 156.0, 181.0, 185.0, 174.0]",0.21027913689613342,0.0,0.0,-0.000179290771484375,-27.924118041992188
1743601010.0378032,0.0,-0.0,"[174.0, 185.0, 181.0, 156.0, 154.0, 154.0, 156.0, 181.0, 185.0, 174.0]",0.05561499670147896,0.0,0.0,-0.000179290771484375,-27.92523193359375
1743601010.0681002,0.0,-0.0,"[174.0, 185.0, 180.0, 156.0, 154.0, 154.0, 156.0, 181.0, 185.0, 174.0]",0.18181699514389038,0.0,0.0,-0.000179290771484375,-27.921592712402344
1743601010.0710802,0.0,-0.0,"[174.0, 185.0, 180.0, 156.0, 154.0, 154.0, 156.0, 181.0, 185.0, 174.0]",0.1437644213438034,0.0,0.0,-0.000179290771484375,-27.918716430664062
1743601010.1007288,0.0,-0.0,"[174.0, 185.0, 180.0, 156.0, 154.0, 154.0, 156.0, 181.0, 185.0, 174.0]",0.014495091512799263,0.0,-3.0517578125e-05,-0.000179290771484375,-27.91900634765625
1743601010.1036036,0.0,-0.0,"[174.0, 185.0, 180.0, 156.0, 154.0, 154.0, 156.0, 181.0, 185.0, 174.0]",0.14724399149417877,0.0,0.0,-0.000179290771484375,-27.916061401367188
1743601010.1331072,0.0,-0.0,"[174.0, 185.0, 180.0, 156.0, 154.0, 154.0, 156.0, 181.0, 185.0, 174.0]",0.00547351548448205,0.0,0.0,-0.000179290771484375,-27.91595458984375
1743601010.1623437,0.0,-0.0,"[174.0, 185.0, 180.0, 156.0, 154.0, 154.0, 156.0, 181.0, 185.0, 174.0]",0.028875602409243584,0.0,0.0,-0.000179290771484375,-27.916534423828125
1743601010.165475,0.0,-0.0,"[174.0, 185.0, 180.0, 156.0, 154.0, 154.0, 156.0, 181.0, 185.0, 174.0]",0.17943133413791656,0.0,0.0,-0.000179290771484375,-27.912948608398438
1743601010.1964085,0.0,-0.0,"[174.0, 185.0, 180.0, 156.0, 154.0, 154.0, 156.0, 181.0, 185.0, 174.0]",0.14199844002723694,0.0,-3.0517578125e-05,-0.000179290771484375,-27.910110473632812
1743601010.2319243,0.0,-0.0,"[174.0, 185.0, 180.0, 156.0, 154.0, 154.0, 156.0, 181.0, 185.0, 174.0]",0.027397073805332184,0.0,-3.0517578125e-05,-0.000179290771484375,-27.91065216064453
1743601010.238464,0.0,-0.0,"[174.0, 185.0, 180.0, 156.0, 154.0, 154.0, 156.0, 181.0, 185.0, 174.0]",0.1843552142381668,0.0,-3.0517578125e-05,-0.000179290771484375,-27.906967163085938
1743601010.2679644,0.0,-0.0,"[174.0, 185.0, 180.0, 156.0, 154.0, 154.0, 156.0, 181.0, 185.0, 174.0]",0.14393474161624908,0.0,-3.0517578125e-05,-0.000179290771484375,-27.904090881347656
1743601010.2710385,0.0,-0.0,"[174.0, 185.0, 180.0, 156.0, 154.0, 154.0, 156.0, 181.0, 185.0, 174.0]",0.013359985314309597,0.0,-3.0517578125e-05,-0.000179290771484375,-27.90435791015625
1743601010.3009443,0.0,-0.0,"[174.0, 185.0, 180.0, 156.0, 154.0, 154.0, 156.0, 181.0, 185.0, 174.0]",0.131731316447258,0.0,-3.0517578125e-05,-0.000179290771484375,-27.901718139648438
1743601010.3045716,0.0,-0.0,"[174.0, 185.0, 180.0, 156.0, 154.0, 154.0, 156.0, 181.0, 185.0, 174.0]",0.11773700267076492,0.0,-3.0517578125e-05,-0.000179290771484375,-27.904075622558594
1743601010.3364298,0.0,-0.0,"[174.0, 185.0, 180.0, 156.0, 154.0, 154.0, 156.0, 181.0, 185.0, 174.0]",0.19435150921344757,0.0,-3.0517578125e-05,-0.000179290771484375,-27.900192260742188
1743601010.339505,0.0,-0.0,"[174.0, 185.0, 180.0, 156.0, 154.0, 154.0, 156.0, 181.0, 185.0, 174.0]",0.12966327369213104,0.0,-3.0517578125e-05,-0.000179290771484375,-27.897598266601562
1743601010.3484569,0.0,-0.0,"[174.0, 185.0, 180.0, 156.0, 154.0, 154.0, 156.0, 181.0, 185.0, 174.0]",0.1228010430932045,0.0,-6.103515625e-05,-0.000179290771484375,-27.900054931640625
1743601010.353676,0.0,-0.0,"[174.0, 185.0, 180.0, 156.0, 154.0, 154.0, 156.0, 181.0, 185.0, 174.0]",0.20046159625053406,0.0,-6.103515625e-05,-0.000179290771484375,-27.896041870117188
1743601010.3749895,0.0,-0.0,"[174.0, 185.0, 180.0, 156.0, 154.0, 154.0, 156.0, 181.0, 185.0, 174.0]",0.10632103681564331,0.0,-6.103515625e-05,-0.000179290771484375,-27.8939208984375
1743601010.3922505,0.0,-0.0,"[174.0, 185.0, 180.0, 156.0, 154.0, 154.0, 156.0, 181.0, 185.0, 174.0]",0.19288887083530426,0.0,-6.103515625e-05,-0.000179290771484375,-27.89777374267578
1743601010.4121685,0.0,-0.0,"[174.0, 185.0, 180.0, 156.0, 154.0, 154.0, 156.0, 181.0, 185.0, 174.0]",0.13201972842216492,0.0,-6.103515625e-05,-0.000179290771484375,-27.900413513183594
1743601010.4310508,0.0,-0.0,"[174.0, 185.0, 180.0, 156.0, 154.0, 154.0, 156.0, 181.0, 185.0, 174.0]",0.10589899867773056,0.0,-3.0517578125e-05,-0.000179290771484375,-27.898300170898438
1743601010.4521387,0.0,-0.0,"[174.0, 185.0, 180.0, 156.0, 154.0, 154.0, 156.0, 181.0, 185.0, 174.0]",0.1903151124715805,0.0,-3.0517578125e-05,-0.000179290771484375,-27.90210723876953
1743601010.4721224,0.0,-0.0,"[174.0, 185.0, 180.0, 156.0, 154.0, 154.0, 156.0, 181.0, 185.0, 174.0]",0.13858768343925476,0.0,-3.0517578125e-05,-0.000179290771484375,-27.904876708984375
1743601010.4916146,0.0,-0.0,"[174.0, 185.0, 180.0, 156.0, 154.0, 154.0, 156.0, 181.0, 185.0, 174.0]",0.05363059416413307,0.0,-3.0517578125e-05,-0.000179290771484375,-27.90380859375
1743601010.5115242,0.0,-0.0,"[174.0, 185.0, 180.0, 156.0, 154.0, 154.0, 156.0, 181.0, 185.0, 174.0]",0.18464604020118713,0.0,-3.0517578125e-05,-0.000179290771484375,-27.907501220703125
1743601010.531375,0.0,-0.0,"[174.0, 185.0, 180.0, 156.0, 154.0, 154.0, 156.0, 181.0, 185.0, 174.0]",0.1436898410320282,0.0,-3.0517578125e-05,-0.000179290771484375,-27.910369873046875
1743601010.5513308,0.0,-0.0,"[174.0, 185.0, 180.0, 156.0, 154.0, 154.0, 156.0, 181.0, 185.0, 174.0]",0.015141986310482025,0.0,0.0,-0.000179290771484375,-27.910064697265625
1743601010.5743299,0.0,-0.0,"[174.0, 185.0, 180.0, 156.0, 154.0, 154.0, 156.0, 181.0, 185.0, 174.0]",0.15516433119773865,0.0,-3.0517578125e-05,-0.000179290771484375,-27.913169860839844
1743601010.5937686,0.0,-0.0,"[174.0, 185.0, 180.0, 156.0, 154.0, 154.0, 156.0, 181.0, 185.0, 174.0]",0.04399123787879944,0.0,-3.0517578125e-05,-0.000179290771484375,-27.914047241210938
1743601010.6133246,0.0,-0.0,"[174.0, 185.0, 180.0, 156.0, 154.0, 154.0, 156.0, 181.0, 185.0, 174.0]",0.20951826870441437,0.0,-3.0517578125e-05,-0.000179290771484375,-27.90985870361328
1743601010.6316514,0.0,-0.0,"[174.0, 185.0, 180.0, 156.0, 154.0, 154.0, 156.0, 181.0, 185.0, 174.0]",0.0593106746673584,0.0,-3.0517578125e-05,-0.000179290771484375,-27.908676147460938
1743601010.6528463,0.0,-0.0,"[174.0, 185.0, 180.0, 156.0, 154.0, 154.0, 156.0, 181.0, 185.0, 174.0]",0.17699338495731354,0.0,-3.0517578125e-05,-0.000179290771484375,-27.912216186523438
1743601010.671162,0.0,-0.0,"[174.0, 185.0, 180.0, 156.0, 154.0, 154.0, 156.0, 181.0, 185.0, 174.0]",0.13908328115940094,0.0,-3.0517578125e-05,-0.000179290771484375,-27.914993286132812
1743601010.7373273,0.0,-0.0,"[174.0, 185.0, 180.0, 156.0, 154.0, 154.0, 156.0, 181.0, 185.0, 174.0]",0.049643032252788544,0.0,0.0,-0.000179290771484375,-27.91400146484375
1743601010.7397337,0.0,-0.0,"[174.0, 185.0, 180.0, 156.0, 154.0, 154.0, 156.0, 181.0, 185.0, 174.0]",0.19558149576187134,0.0,0.0,-0.000179290771484375,-27.91791534423828
1743601010.7422552,0.0,-0.0,"[174.0, 185.0, 180.0, 156.0, 154.0, 154.0, 156.0, 181.0, 185.0, 174.0]",0.1257869452238083,0.0,0.0,-0.000179290771484375,-27.920425415039062
1743601010.751835,0.0,-0.0,"[174.0, 185.0, 181.0, 156.0, 154.0, 154.0, 156.0, 181.0, 185.0, 174.0]",0.14523577690124512,0.0,0.0,-0.000179290771484375,-27.917526245117188
1743601010.7731626,0.0,-0.0,"[174.0, 185.0, 181.0, 156.0, 154.0, 154.0, 156.0, 181.0, 185.0, 174.0]",0.0013888112735003233,0.0,0.0,-0.000179290771484375,-27.917556762695312
1743601010.7919996,0.0,-0.0,"[174.0, 185.0, 181.0, 156.0, 154.0, 154.0, 156.0, 181.0, 185.0, 174.0]",0.004666541703045368,0.0,0.0,-0.000179290771484375,-27.917457580566406
1743601010.8117669,0.0,-0.0,"[174.0, 185.0, 181.0, 156.0, 154.0, 154.0, 156.0, 181.0, 185.0, 174.0]",0.02259548380970955,0.0,0.0,-0.000179290771484375,-27.91790771484375
1743601010.8314452,0.0,-0.0,"[174.0, 185.0, 180.0, 156.0, 154.0, 154.0, 156.0, 181.0, 185.0, 174.0]",0.1923217624425888,0.0,0.0,-0.000179290771484375,-27.9140625
1743601010.8522086,0.0,-0.0,"[174.0, 185.0, 180.0, 156.0, 154.0, 154.0, 156.0, 181.0, 185.0, 174.0]",0.13406527042388916,0.0,0.0,-0.000179290771484375,-27.91138458251953
1743601010.8720272,0.0,-0.0,"[174.0, 185.0, 180.0, 156.0, 154.0, 154.0, 156.0, 181.0, 185.0, 174.0]",0.09012311697006226,0.0,0.0,-0.000179290771484375,-27.913185119628906
1743601010.8910203,0.0,-0.0,"[174.0, 185.0, 180.0, 156.0, 154.0, 154.0, 156.0, 181.0, 185.0, 174.0]",0.21017353236675262,0.0,0.0,-0.000179290771484375,-27.908981323242188
1743601010.911951,0.0,-0.0,"[174.0, 185.0, 180.0, 156.0, 154.0, 154.0, 156.0, 181.0, 185.0, 174.0]",0.056039195507764816,0.0,-3.0517578125e-05,-0.000179290771484375,-27.907859802246094
1743601010.9318242,0.0,-0.0,"[174.0, 185.0, 180.0, 156.0, 154.0, 154.0, 156.0, 181.0, 185.0, 174.0]",0.180997833609581,0.0,-3.0517578125e-05,-0.000179290771484375,-27.911483764648438
1743601010.9518287,0.0,-0.0,"[174.0, 185.0, 180.0, 156.0, 154.0, 154.0, 156.0, 181.0, 185.0, 174.0]",0.14347624778747559,0.0,0.0,-0.000179290771484375,-27.914352416992188
1743601010.9728851,0.0,-0.0,"[174.0, 185.0, 180.0, 156.0, 154.0, 154.0, 156.0, 181.0, 185.0, 174.0]",0.016534436494112015,0.0,0.0,-0.000179290771484375,-27.914016723632812
1743601010.9923358,0.0,-0.0,"[174.0, 185.0, 180.0, 156.0, 154.0, 154.0, 156.0, 181.0, 185.0, 174.0]",0.1701955944299698,0.0,0.0,-0.000179290771484375,-27.91741943359375
1743601011.011505,0.0,-0.0,"[174.0, 185.0, 180.0, 156.0, 154.0, 154.0, 156.0, 181.0, 185.0, 174.0]",0.12394185364246368,0.0,0.0,-0.000179290771484375,-27.919906616210938
1743601011.0317383,0.0,-0.0,"[174.0, 185.0, 180.0, 156.0, 154.0, 154.0, 156.0, 181.0, 185.0, 174.0]",0.1619773507118225,0.0,0.0,-0.000179290771484375,-27.916664123535156
1743601011.0520692,0.0,-0.0,"[174.0, 185.0, 180.0, 156.0, 154.0, 154.0, 156.0, 181.0, 185.0, 174.0]",0.08525466173887253,0.0,0.0,-0.000179290771484375,-27.914962768554688
1743601011.0718744,0.0,-0.0,"[174.0, 185.0, 180.0, 156.0, 154.0, 154.0, 156.0, 181.0, 185.0, 174.0]",0.2046239674091339,0.0,0.0,-0.000179290771484375,-27.919052124023438
1743601011.091851,0.0,-0.0,"[174.0, 185.0, 180.0, 156.0, 154.0, 154.0, 156.0, 181.0, 185.0, 174.0]",0.08448854088783264,0.0,0.0,-0.000179290771484375,-27.920745849609375
1743601011.1118138,0.0,-0.0,"[174.0, 185.0, 180.0, 156.0, 154.0, 154.0, 156.0, 181.0, 185.0, 174.0]",0.2013329416513443,0.0,0.0,-0.000179290771484375,-27.916717529296875
1743601011.1314793,0.0,-0.0,"[174.0, 185.0, 180.0, 156.0, 154.0, 154.0, 156.0, 181.0, 185.0, 174.0]",0.10193154215812683,0.0,0.0,-0.000179290771484375,-27.9146728515625
1743601011.1520813,0.0,-0.0,"[174.0, 185.0, 180.0, 156.0, 154.0, 154.0, 156.0, 181.0, 185.0, 174.0]",0.19718611240386963,0.0,0.0,-0.000179290771484375,-27.918624877929688
1743601011.1743834,0.0,-0.0,"[174.0, 185.0, 180.0, 156.0, 154.0, 154.0, 156.0, 181.0, 185.0, 174.0]",0.11873674392700195,0.0,0.0,-0.000179290771484375,-27.920997619628906
1743601011.191402,0.0,-0.0,"[174.0, 185.0, 180.0, 156.0, 154.0, 154.0, 156.0, 181.0, 185.0, 174.0]",0.17540068924427032,0.0,0.0,-0.000179290771484375,-27.91748809814453
1743601011.2118244,0.0,-0.0,"[174.0, 185.0, 180.0, 156.0, 154.0, 154.0, 156.0, 181.0, 185.0, 174.0]",0.13632160425186157,0.0,0.0,-0.000179290771484375,-27.914764404296875
1743601011.2319896,0.0,-0.0,"[174.0, 185.0, 180.0, 156.0, 154.0, 154.0, 156.0, 181.0, 185.0, 174.0]",0.07158220559358597,0.0,0.0,-0.000179290771484375,-27.91619873046875
1743601011.2515442,0.0,-0.0,"[174.0, 185.0, 180.0, 156.0, 154.0, 154.0, 156.0, 181.0, 185.0, 174.0]",0.17554514110088348,0.0,0.0,-0.000179290771484375,-27.912681579589844
1743601011.2721086,0.0,-0.0,"[174.0, 185.0, 180.0, 156.0, 154.0, 154.0, 156.0, 181.0, 185.0, 174.0]",0.13640186190605164,0.0,-3.0517578125e-05,-0.000179290771484375,-27.909957885742188
1743601011.2913337,0.0,-0.0,"[174.0, 185.0, 180.0, 156.0, 154.0, 154.0, 156.0, 181.0, 185.0, 174.0]",0.07109430432319641,0.0,-3.0517578125e-05,-0.000179290771484375,-27.911376953125
1743601011.3124113,0.0,-0.0,"[174.0, 185.0, 180.0, 156.0, 154.0, 154.0, 156.0, 181.0, 185.0, 174.0]",0.17525263130664825,0.0,-3.0517578125e-05,-0.000179290771484375,-27.907867431640625
1743601011.3321688,0.0,-0.0,"[174.0, 185.0, 180.0, 156.0, 154.0, 154.0, 156.0, 181.0, 185.0, 174.0]",0.13584503531455994,0.0,-3.0517578125e-05,-0.000179290771484375,-27.9051513671875
1743601011.3537261,0.0,-0.0,"[174.0, 185.0, 227.0, 295.0, 259.0, 161.0, 182.0, 190.0, 185.0, 174.0]",0.0,0.0,0.0,0.10000038146972656,-27.93000030517578
1743601011.3742785,0.0,-0.0,"[174.0, 185.0, 179.0, 155.0, 154.0, 154.0, 156.0, 179.0, 185.0, 174.0]",0.8976159691810608,0.0,0.0,0.08204841613769531,-27.92999267578125
1743601011.3920977,0.0,-0.0,"[174.0, 185.0, 179.0, 155.0, 154.0, 154.0, 156.0, 180.0, 185.0, 174.0]",0.8460983037948608,0.0,0.0,0.06512641906738281,-27.930145263671875
1743601011.4115639,0.0,-0.0,"[174.0, 185.0, 179.0, 155.0, 154.0, 154.0, 156.0, 181.0, 185.0, 174.0]",0.8412134051322937,0.0,0.0,0.04947090148925781,-27.923980712890625
1743601011.431263,0.0,-0.0,"[174.0, 185.0, 179.0, 156.0, 154.0, 154.0, 156.0, 181.0, 185.0, 174.0]",0.760265588760376,0.0,0.0,0.03524208068847656,-27.929351806640625
1743601011.4520533,0.0,-0.0,"[174.0, 185.0, 180.0, 156.0, 154.0, 154.0, 156.0, 181.0, 185.0, 174.0]",0.6536076664924622,0.0,0.0,0.022546768188476562,-27.926239013671875
1743601011.471935,0.0,-0.0,"[174.0, 185.0, 180.0, 156.0, 154.0, 154.0, 156.0, 181.0, 185.0, 174.0]",0.6087530255317688,0.0,0.0,0.011430740356445312,-27.92127227783203
1743601011.4914684,0.0,-0.0,"[174.0, 185.0, 181.0, 156.0, 154.0, 154.0, 156.0, 181.0, 185.0, 174.0]",0.5985270142555237,0.0,0.0,0.001895904541015625,-27.928512573242188
1743601011.511115,0.0,-0.0,"[174.0, 185.0, 181.0, 156.0, 154.0, 154.0, 158.0, 181.0, 185.0, 174.0]",0.41759759187698364,0.0,0.0,-0.006092071533203125,-27.926071166992188
1743601011.5315633,0.0,-0.0,"[174.0, 185.0, 181.0, 156.0, 154.0, 155.0, 158.0, 181.0, 185.0, 174.0]",0.37283456325531006,0.0,-3.0517578125e-05,-0.012601852416992188,-27.929710388183594
1743601011.5523894,0.0,-0.0,"[174.0, 185.0, 181.0, 156.0, 154.0, 154.0, 158.0, 183.0, 185.0, 174.0]",0.33469241857528687,0.0,-3.0517578125e-05,-0.01772308349609375,-27.93402099609375
1743601011.574118,0.0,-0.0,"[174.0, 185.0, 181.0, 156.0, 154.0, 154.0, 158.0, 183.0, 185.0, 174.0]",0.2674577534198761,0.0,0.0,-0.021566390991210938,-27.93773651123047
1743601011.5918338,0.0,-0.0,"[174.0, 185.0, 181.0, 156.0, 154.0, 154.0, 158.0, 183.0, 185.0, 174.0]",0.27854615449905396,0.0,0.0,-0.02425384521484375,-27.94261932373047
1743601011.6120932,0.0,-0.0,"[174.0, 185.0, 181.0, 156.0, 154.0, 154.0, 158.0, 183.0, 185.0, 174.0]",0.19284380972385406,0.0,0.0,-0.025915145874023438,-27.939132690429688
1743601011.6319778,0.0,-0.0,"[174.0, 185.0, 181.0, 156.0, 154.0, 154.0, 158.0, 183.0, 185.0, 174.0]",0.28472423553466797,0.0,0.0,-0.02667999267578125,-27.933494567871094
1743601011.6521583,0.0,-0.0,"[174.0, 185.0, 181.0, 156.0, 154.0, 154.0, 158.0, 183.0, 185.0, 174.0]",0.23596976697444916,0.0,0.0,-0.026681900024414062,-27.938217163085938
1743601011.6716855,0.0,-0.0,"[174.0, 185.0, 181.0, 156.0, 154.0, 154.0, 156.0, 181.0, 185.0, 174.0]",0.09513992071151733,0.0,0.0,-0.0260467529296875,-27.936416625976562
1743601011.6914592,0.0,-0.0,"[174.0, 185.0, 181.0, 156.0, 154.0, 154.0, 156.0, 181.0, 185.0, 174.0]",0.2521674633026123,0.0,0.0,-0.024898529052734375,-27.941329956054688
1743601011.7117186,0.0,-0.0,"[174.0, 185.0, 181.0, 156.0, 154.0, 154.0, 156.0, 181.0, 185.0, 174.0]",0.18279880285263062,0.0,3.0517578125e-05,-0.023349761962890625,-27.938018798828125
1743601011.731897,0.0,-0.0,"[174.0, 185.0, 181.0, 156.0, 154.0, 154.0, 156.0, 181.0, 185.0, 174.0]",0.1839907020330429,0.0,3.0517578125e-05,-0.021505355834960938,-27.934837341308594
1743601011.7523515,0.0,-0.0,"[174.0, 185.0, 181.0, 156.0, 154.0, 154.0, 156.0, 181.0, 185.0, 174.0]",0.13729774951934814,0.0,0.0,-0.019458770751953125,-27.933006286621094
1743601011.7733624,0.0,-0.0,"[174.0, 185.0, 181.0, 156.0, 154.0, 154.0, 156.0, 181.0, 185.0, 174.0]",0.2442130297422409,0.0,0.0,-0.017292022705078125,-27.93738555908203
1743601011.7927237,0.0,-0.0,"[174.0, 185.0, 181.0, 156.0, 154.0, 154.0, 156.0, 181.0, 185.0, 174.0]",0.11260015517473221,0.0,3.0517578125e-05,-0.015077590942382812,-27.937789916992188
1743601011.8121195,0.0,-0.0,"[174.0, 185.0, 181.0, 156.0, 154.0, 154.0, 156.0, 181.0, 185.0, 174.0]",0.23003052175045013,0.0,3.0517578125e-05,-0.012876510620117188,-27.933753967285156
1743601011.8316672,0.0,-0.0,"[174.0, 185.0, 181.0, 156.0, 154.0, 154.0, 156.0, 181.0, 185.0, 174.0]",0.13912340998649597,0.0,0.0,-0.010740280151367188,-27.931976318359375
1743601011.8521435,0.0,-0.0,"[174.0, 185.0, 181.0, 156.0, 154.0, 154.0, 156.0, 181.0, 185.0, 174.0]",0.22330139577388763,0.0,0.0,-0.008707046508789062,-27.935951232910156
1743601011.8716588,0.0,-0.0,"[174.0, 185.0, 181.0, 156.0, 154.0, 154.0, 156.0, 181.0, 185.0, 174.0]",0.13256870210170746,0.0,3.0517578125e-05,-0.0068111419677734375,-27.93780517578125
1743601011.8910627,0.0,-0.0,"[174.0, 185.0, 181.0, 156.0, 154.0, 154.0, 156.0, 181.0, 185.0, 174.0]",0.2123589664697647,0.0,3.0517578125e-05,-0.00507354736328125,-27.933929443359375
1743601011.911148,0.0,-0.0,"[174.0, 185.0, 181.0, 156.0, 154.0, 154.0, 156.0, 181.0, 185.0, 174.0]",0.12916482985019684,0.0,0.0,-0.0035076141357421875,-27.931869506835938
1743601011.931373,0.0,-0.0,"[174.0, 185.0, 181.0, 156.0, 154.0, 154.0, 156.0, 181.0, 185.0, 174.0]",0.19761700928211212,0.0,0.0,-0.002124786376953125,-27.935569763183594
1743601011.9525504,0.0,-0.0,"[174.0, 185.0, 181.0, 156.0, 154.0, 154.0, 156.0, 181.0, 185.0, 174.0]",0.12797343730926514,0.0,3.0517578125e-05,-0.000926971435546875,-27.937835693359375
1743601011.974571,0.0,-0.0,"[174.0, 185.0, 181.0, 156.0, 154.0, 154.0, 156.0, 181.0, 185.0, 174.0]",0.18538625538349152,0.0,3.0517578125e-05,8.7738037109375e-05,-27.93426513671875
1743601011.9917448,0.0,-0.0,"[174.0, 185.0, 181.0, 156.0, 154.0, 154.0, 156.0, 181.0, 185.0, 174.0]",0.11966820061206818,0.0,0.0,0.000926971435546875,-27.932022094726562
1743601012.011917,0.0,-0.0,"[174.0, 185.0, 181.0, 156.0, 154.0, 154.0, 156.0, 181.0, 185.0, 174.0]",0.1848423331975937,0.0,0.0,0.0016002655029296875,-27.93566131591797
1743601012.0320768,0.0,-0.0,"[174.0, 185.0, 181.0, 156.0, 154.0, 154.0, 156.0, 181.0, 185.0, 174.0]",0.12014039605855942,0.0,3.0517578125e-05,0.002117156982421875,-27.938003540039062
1743601012.0522945,0.0,-0.0,"[174.0, 185.0, 181.0, 156.0, 154.0, 154.0, 156.0, 181.0, 185.0, 174.0]",0.17245884239673615,0.0,3.0517578125e-05,0.0024929046630859375,-27.93457794189453
1743601012.071671,0.0,-0.0,"[174.0, 185.0, 181.0, 156.0, 154.0, 154.0, 156.0, 181.0, 185.0, 174.0]",0.1077452078461647,0.0,0.0,0.002742767333984375,-27.93243408203125
1743601012.0912836,0.0,-0.0,"[174.0, 185.0, 181.0, 156.0, 154.0, 154.0, 156.0, 181.0, 185.0, 174.0]",0.18669186532497406,0.0,0.0,0.002880096435546875,-27.936172485351562
1743601012.1112456,0.0,-0.0,"[174.0, 185.0, 181.0, 156.0, 154.0, 154.0, 156.0, 181.0, 185.0, 174.0]",0.1256629228591919,0.0,3.0517578125e-05,0.00292205810546875,-27.938682556152344
1743601012.131346,0.0,-0.0,"[174.0, 185.0, 181.0, 156.0, 154.0, 154.0, 156.0, 181.0, 185.0, 174.0]",0.13766935467720032,0.0,3.0517578125e-05,0.0028820037841796875,-27.935928344726562
1743601012.1522386,0.0,-0.0,"[174.0, 185.0, 181.0, 156.0, 154.0, 154.0, 156.0, 181.0, 185.0, 174.0]",0.039649441838264465,0.0,3.0517578125e-05,0.002777099609375,-27.93671417236328
1743601012.1728115,0.0,-0.0,"[174.0, 185.0, 181.0, 156.0, 154.0, 154.0, 156.0, 181.0, 185.0, 174.0]",0.20589733123779297,0.0,3.0517578125e-05,0.00261688232421875,-27.932601928710938
1743601012.1935506,0.0,-0.0,"[174.0, 185.0, 181.0, 156.0, 154.0, 154.0, 156.0, 181.0, 185.0, 174.0]",0.0745670348405838,0.0,3.0517578125e-05,0.00241851806640625,-27.931121826171875
1743601012.2123144,0.0,-0.0,"[174.0, 185.0, 181.0, 156.0, 154.0, 154.0, 156.0, 181.0, 185.0, 174.0]",0.17987370491027832,0.0,3.0517578125e-05,0.00218963623046875,-27.934707641601562
1743601012.231911,0.0,-0.0,"[174.0, 185.0, 181.0, 156.0, 154.0, 154.0, 156.0, 181.0, 185.0, 174.0]",0.13852600753307343,0.0,3.0517578125e-05,0.0019435882568359375,-27.937469482421875
1743601012.2520177,0.0,-0.0,"[174.0, 185.0, 181.0, 156.0, 154.0, 154.0, 156.0, 181.0, 185.0, 174.0]",0.058913230895996094,0.0,3.0517578125e-05,0.0016880035400390625,-27.936325073242188
1743601012.271511,0.0,-0.0,"[174.0, 185.0, 181.0, 156.0, 154.0, 154.0, 156.0, 181.0, 185.0, 174.0]",0.17815379798412323,0.0,3.0517578125e-05,0.001430511474609375,-27.93987274169922
1743601012.2923627,0.0,-0.0,"[174.0, 185.0, 181.0, 156.0, 154.0, 154.0, 156.0, 181.0, 185.0, 174.0]",0.14055006206035614,0.0,6.103515625e-05,0.0011768341064453125,-27.942672729492188
1743601012.3122146,0.0,-0.0,"[174.0, 185.0, 181.0, 156.0, 154.0, 154.0, 156.0, 181.0, 185.0, 174.0]",0.04561717063188553,0.0,6.103515625e-05,0.000934600830078125,-27.941795349121094
1743601012.331965,0.0,-0.0,"[174.0, 185.0, 181.0, 156.0, 154.0, 154.0, 156.0, 181.0, 185.0, 174.0]",0.2100386917591095,0.0,6.103515625e-05,0.000705718994140625,-27.94599151611328
1743601012.3520932,0.0,-0.0,"[174.0, 185.0, 181.0, 156.0, 154.0, 154.0, 156.0, 181.0, 185.0, 174.0]",0.060984574258327484,0.0,6.103515625e-05,0.0004940032958984375,-27.947189331054688
1743601012.3711283,0.0,-0.0,"[174.0, 185.0, 181.0, 156.0, 154.0, 154.0, 156.0, 181.0, 185.0, 174.0]",0.1766318827867508,0.0,6.103515625e-05,0.000301361083984375,-27.94366455078125
1743601012.3919337,0.0,-0.0,"[174.0, 185.0, 181.0, 156.0, 154.0, 154.0, 156.0, 181.0, 185.0, 174.0]",0.14150133728981018,0.0,6.103515625e-05,0.00012969970703125,-27.940841674804688
1743601012.4132411,0.0,-0.0,"[174.0, 185.0, 181.0, 156.0, 154.0, 154.0, 156.0, 181.0, 185.0, 174.0]",0.03572213277220726,0.0,6.103515625e-05,-2.09808349609375e-05,-27.94153594970703
1743601012.431802,0.0,-0.0,"[174.0, 185.0, 181.0, 156.0, 154.0, 154.0, 156.0, 181.0, 185.0, 174.0]",0.20508839190006256,0.0,6.103515625e-05,-0.0001506805419921875,-27.93743896484375
1743601012.4520085,0.0,-0.0,"[174.0, 185.0, 181.0, 156.0, 154.0, 154.0, 156.0, 181.0, 185.0, 174.0]",0.08537375181913376,0.0,3.0517578125e-05,-0.0002593994140625,-27.93573760986328
1743601012.4719732,0.0,-0.0,"[174.0, 185.0, 181.0, 156.0, 154.0, 154.0, 156.0, 181.0, 185.0, 174.0]",0.2036421000957489,0.0,3.0517578125e-05,-0.000347137451171875,-27.939804077148438
1743601012.4921572,0.0,-0.0,"[174.0, 185.0, 181.0, 156.0, 154.0, 154.0, 156.0, 181.0, 185.0, 174.0]",0.09278475493192673,0.0,6.103515625e-05,-0.000415802001953125,-27.941665649414062
1743601012.512275,0.0,-0.0,"[174.0, 185.0, 181.0, 156.0, 154.0, 154.0, 156.0, 181.0, 185.0, 174.0]",0.21188762784004211,0.0,6.103515625e-05,-0.000469207763671875,-27.937423706054688
1743601012.531386,0.0,-0.0,"[174.0, 185.0, 181.0, 156.0, 154.0, 154.0, 156.0, 181.0, 185.0, 174.0]",0.04931821674108505,0.0,3.0517578125e-05,-0.0005054473876953125,-27.936439514160156
1743601012.5522444,0.0,-0.0,"[174.0, 185.0, 181.0, 156.0, 154.0, 154.0, 156.0, 181.0, 185.0, 174.0]",0.19746197760105133,0.0,3.0517578125e-05,-0.0005283355712890625,-27.940383911132812
1743601012.5715778,0.0,-0.0,"[174.0, 185.0, 181.0, 156.0, 154.0, 154.0, 156.0, 181.0, 185.0, 174.0]",0.11989857256412506,0.0,6.103515625e-05,-0.0005397796630859375,-27.942787170410156
1743601012.5931063,0.0,-0.0,"[174.0, 185.0, 181.0, 156.0, 154.0, 154.0, 156.0, 181.0, 185.0, 174.0]",0.1706550270318985,0.0,6.103515625e-05,-0.0005397796630859375,-27.939376831054688
1743601012.612259,0.0,-0.0,"[174.0, 185.0, 181.0, 156.0, 154.0, 154.0, 156.0, 181.0, 185.0, 174.0]",0.12581866979599,0.0,3.0517578125e-05,-0.000530242919921875,-27.936859130859375
1743601012.6319482,0.0,-0.0,"[174.0, 185.0, 181.0, 156.0, 154.0, 154.0, 156.0, 181.0, 185.0, 174.0]",0.14764870703220367,0.0,3.0517578125e-05,-0.000514984130859375,-27.93981170654297
1743601012.6526937,0.0,-0.0,"[174.0, 185.0, 181.0, 156.0, 154.0, 154.0, 156.0, 181.0, 185.0, 174.0]",0.006479217205196619,0.0,3.0517578125e-05,-0.00049591064453125,-27.93994140625
1743601012.6726327,0.0,-0.0,"[174.0, 185.0, 181.0, 156.0, 154.0, 154.0, 156.0, 181.0, 185.0, 174.0]",0.037832312285900116,0.0,3.0517578125e-05,-0.0004711151123046875,-27.939178466796875
1743601012.6931303,0.0,-0.0,"[174.0, 185.0, 181.0, 156.0, 154.0, 154.0, 156.0, 181.0, 185.0, 174.0]",0.2108129858970642,0.0,3.0517578125e-05,-0.0004425048828125,-27.943397521972656
1743601012.7129989,0.0,-0.0,"[174.0, 185.0, 181.0, 156.0, 154.0, 154.0, 156.0, 181.0, 185.0, 174.0]",0.053077369928359985,0.0,3.0517578125e-05,-0.0004138946533203125,-27.9444580078125
1743601012.731393,0.0,-0.0,"[174.0, 185.0, 181.0, 156.0, 154.0, 154.0, 156.0, 181.0, 185.0, 174.0]",0.1876041740179062,0.0,3.0517578125e-05,-0.0003833770751953125,-27.940704345703125
1743601012.754479,0.0,-0.0,"[174.0, 185.0, 181.0, 156.0, 154.0, 154.0, 156.0, 181.0, 185.0, 174.0]",0.14186003804206848,0.0,3.0517578125e-05,-0.000354766845703125,-27.9378662109375
1743601012.775481,0.0,-0.0,"[174.0, 185.0, 181.0, 156.0, 154.0, 154.0, 156.0, 181.0, 185.0, 174.0]",0.028471583500504494,0.0,3.0517578125e-05,-0.0003261566162109375,-27.938438415527344
1743601012.7934682,0.0,-0.0,"[174.0, 185.0, 181.0, 156.0, 154.0, 154.0, 156.0, 181.0, 185.0, 174.0]",0.1854592114686966,0.0,3.0517578125e-05,-0.00029754638671875,-27.934730529785156
1743601012.814549,0.0,-0.0,"[174.0, 185.0, 181.0, 156.0, 154.0, 154.0, 156.0, 181.0, 185.0, 174.0]",0.14337463676929474,0.0,3.0517578125e-05,-0.0002727508544921875,-27.931861877441406
1743601012.833741,0.0,0.176727137753445,"[174.0, 185.0, 181.0, 156.0, 154.0, 154.0, 156.0, 181.0, 185.0, 174.0]",0.017257587984204292,0.0,0.0,-0.000247955322265625,-27.932205200195312
1743601012.8537276,0.0,0.45139887718647054,"[174.0, 185.0, 181.0, 156.0, 154.0, 154.0, 156.0, 181.0, 185.0, 174.0]",0.1572466641664505,0.0,-0.0003662109375,-0.0002269744873046875,-27.92908477783203
1743601012.8732743,0.29330005594044495,0.8752841831763559,"[174.0, 185.0, 181.0, 156.0, 154.0, 154.0, 156.0, 181.0, 185.0, 174.0]",0.1331070363521576,0.0,-0.001708984375,-0.0002079010009765625,-27.931381225585938
1743601012.893172,0.3297904384870261,0.9651092655314806,"[174.0, 185.0, 181.0, 156.0, 154.0, 154.0, 156.0, 181.0, 185.0, 174.0]",0.19869258999824524,0.146650031208992,-0.00531005859375,-0.0001926422119140625,-27.92974853515625
1743601012.9130352,0.3297904384870261,0.9651092655314806,"[174.0, 185.0, 181.0, 156.0, 154.0, 154.0, 156.0, 181.0, 185.0, 174.0]",0.28253641724586487,0.1648952215909958,-0.010894775390625,-0.0001773834228515625,-27.9306640625
1743601012.9326944,0.3297904384870261,0.9651092655314806,"[174.0, 185.0, 181.0, 156.0, 154.0, 154.0, 156.0, 181.0, 185.0, 174.0]",0.44503411650657654,0.1648952215909958,-0.019683837890625,-0.0001659393310546875,-27.929290771484375
1743601012.9532316,0.3297904384870261,0.9671507446759152,"[174.0, 185.0, 181.0, 156.0, 154.0, 154.0, 156.0, 181.0, 185.0, 174.0]",0.5472013354301453,0.1648952215909958,-0.030609130859375,-0.000156402587890625,-27.928634643554688
1743601012.975567,0.3297904384870261,0.9671507446759152,"[174.0, 185.0, 181.0, 156.0, 154.0, 154.0, 156.0, 181.0, 185.0, 174.0]",0.6910939812660217,0.1648952215909958,-0.04443359375,-0.0001506805419921875,-27.927879333496094
1743601012.9946012,0.3297904384870261,0.9671507446759152,"[174.0, 185.0, 181.0, 156.0, 154.0, 154.0, 156.0, 181.0, 185.0, 174.0]",0.7783623933792114,0.1648952215909958,-0.059967041015625,-0.00014495849609375,-27.92705535888672
1743601013.014032,0.3297904384870261,0.9671507446759152,"[174.0, 185.0, 181.0, 156.0, 154.0, 154.0, 156.0, 181.0, 185.0, 174.0]",0.9550670981407166,0.1648952215909958,-0.07904052734375,-0.000141143798828125,-27.926040649414062
1743601013.032827,0.3297904384870261,0.9671507446759152,"[174.0, 185.0, 180.0, 156.0, 154.0, 154.0, 156.0, 181.0, 185.0, 174.0]",1.0237306356430054,0.1648952215909958,-0.0994873046875,-0.0001392364501953125,-27.924896240234375
1743601013.0536387,0.3297904384870261,0.9671507446759152,"[174.0, 185.0, 180.0, 156.0, 154.0, 154.0, 156.0, 181.0, 185.0, 174.0]",1.159062147140503,0.1648952215909958,-0.12261962890625,-0.0001392364501953125,-27.923629760742188
1743601013.0734684,0.3297904384870261,0.9671507446759152,"[174.0, 185.0, 180.0, 156.0, 154.0, 154.0, 156.0, 181.0, 185.0, 174.0]",1.3011937141418457,0.1648952215909958,-0.14862060546875,-0.0001392364501953125,-27.922142028808594
1743601013.0931726,0.3297904384870261,0.9671507446759152,"[174.0, 185.0, 180.0, 156.0, 154.0, 154.0, 156.0, 181.0, 185.0, 174.0]",1.4151462316513062,0.1648952215909958,-0.176849365234375,-0.000141143798828125,-27.92046356201172
1743601013.1129034,0.3297904384870261,0.9671507446759152,"[174.0, 185.0, 180.0, 156.0, 154.0, 155.0, 158.0, 181.0, 185.0, 174.0]",1.5635712146759033,0.1648952215909958,-0.20806884765625,-0.0001430511474609375,-27.91863250732422
1743601013.134203,0.3297904384870261,0.9717904700041757,"[174.0, 185.0, 179.0, 155.0, 154.0, 155.0, 158.0, 181.0, 185.0, 174.0]",1.6738594770431519,0.1648952215909958,-0.241485595703125,-0.00014495849609375,-27.916656494140625
1743601013.1526449,0.3297904384870261,0.9777293184243493,"[174.0, 185.0, 179.0, 155.0, 154.0, 155.0, 158.0, 183.0, 185.0, 174.0]",1.8375383615493774,0.1648952215909958,-0.278167724609375,-0.000148773193359375,-27.914451599121094
