timestamp,steering_input,acceleration_input,raycasts,speed,steering,position_x,position_y,position_z
1743585316.7950256,0.0,-0.0,"[174.0, 185.0, 227.0, 295.0, 259.0, 259.0, 295.0, 227.0, 185.0, 174.0]",0.0,0.0,0.0,0.10000038146972656,-27.93000030517578
1743585317.007081,0.0,-0.0,"[174.0, 185.0, 178.0, 155.0, 154.0, 154.0, 156.0, 179.0, 185.0, 174.0]",0.1431841105222702,0.0,0.0,0.097137451171875,-27.93000030517578
1743585317.0483813,0.0,-0.0,"[174.0, 185.0, 178.0, 155.0, 154.0, 154.0, 156.0, 179.0, 185.0, 174.0]",0.2360968291759491,0.0,0.0,0.09241485595703125,-27.93000030517578
1743585317.07802,0.0,-0.0,"[174.0, 185.0, 179.0, 155.0, 154.0, 154.0, 156.0, 179.0, 185.0, 174.0]",0.30777978897094727,0.0,0.0,0.08625984191894531,-27.93000030517578
1743585317.0810132,0.0,-0.0,"[174.0, 185.0, 179.0, 155.0, 154.0, 154.0, 156.0, 179.0, 185.0, 174.0]",0.36006540060043335,0.0,0.0,0.07905769348144531,-27.93000030517578
1743585317.1130838,0.0,-0.0,"[174.0, 185.0, 179.0, 155.0, 154.0, 154.0, 156.0, 179.0, 185.0, 174.0]",0.3949472904205322,0.0,0.0,0.07115936279296875,-27.93000030517578
1743585317.115885,0.0,-0.0,"[174.0, 185.0, 179.0, 155.0, 154.0, 154.0, 156.0, 179.0, 185.0, 174.0]",0.41450235247612,0.0,0.0,0.06286811828613281,-27.93000030517578
1743585317.1460934,0.0,-0.0,"[174.0, 185.0, 179.0, 155.0, 154.0, 154.0, 156.0, 180.0, 185.0, 174.0]",0.42082807421684265,0.0,0.0,0.05445289611816406,-27.93000030517578
1743585317.1751,0.0,-0.0,"[174.0, 185.0, 179.0, 155.0, 154.0, 154.0, 156.0, 181.0, 185.0, 174.0]",0.41598936915397644,0.0,0.0,0.04613304138183594,-27.93000030517578
1743585317.178228,0.0,-0.0,"[174.0, 185.0, 179.0, 155.0, 154.0, 154.0, 156.0, 181.0, 185.0, 174.0]",0.4019714593887329,0.0,0.0,0.03809356689453125,-27.93000030517578
1743585317.2120273,0.0,-0.0,"[174.0, 185.0, 179.0, 156.0, 154.0, 154.0, 156.0, 181.0, 185.0, 174.0]",0.3806484043598175,0.0,0.0,0.03047943115234375,-27.93000030517578
1743585317.2427435,0.0,-0.0,"[174.0, 185.0, 180.0, 156.0, 154.0, 154.0, 156.0, 181.0, 185.0, 174.0]",0.3537571132183075,0.0,0.0,0.023405075073242188,-27.93000030517578
1743585317.2451782,0.0,-0.0,"[174.0, 185.0, 180.0, 156.0, 154.0, 154.0, 156.0, 181.0, 185.0, 174.0]",0.3228750228881836,0.0,0.0,0.016946792602539062,-27.92999267578125
1743585317.274512,0.0,-0.0,"[174.0, 185.0, 180.0, 156.0, 154.0, 154.0, 156.0, 181.0, 185.0, 174.0]",0.28941938281059265,0.0,0.0,0.011159896850585938,-27.930038452148438
1743585317.277912,0.0,-0.0,"[174.0, 185.0, 180.0, 156.0, 154.0, 154.0, 156.0, 181.0, 185.0, 174.0]",0.2562173306941986,0.0,0.0,0.0060672760009765625,-27.929466247558594
1743585317.309462,0.0,-0.0,"[174.0, 185.0, 181.0, 156.0, 154.0, 154.0, 156.0, 181.0, 185.0, 174.0]",0.34839218854904175,0.0,0.0,0.0016765594482421875,-27.93487548828125
1743585317.3384554,0.0,-0.0,"[174.0, 185.0, 181.0, 156.0, 154.0, 154.0, 156.0, 181.0, 185.0, 174.0]",0.255353718996048,0.0,0.0,-0.0020236968994140625,-27.931358337402344
1743585317.3413832,0.0,-0.0,"[174.0, 185.0, 181.0, 156.0, 154.0, 154.0, 156.0, 181.0, 185.0, 174.0]",0.2815416157245636,0.0,0.0,-0.0050601959228515625,-27.926612854003906
1743585317.3707063,0.0,-0.0,"[174.0, 185.0, 181.0, 156.0, 154.0, 154.0, 156.0, 181.0, 185.0, 174.0]",0.15634490549564362,0.0,0.0,-0.007472991943359375,-27.928604125976562
1743585317.373252,0.0,-0.0,"[174.0, 185.0, 181.0, 156.0, 154.0, 154.0, 156.0, 181.0, 185.0, 174.0]",0.27455902099609375,0.0,0.0,-0.009307861328125,-27.923431396484375
1743585317.4080448,0.0,-0.0,"[174.0, 185.0, 181.0, 156.0, 154.0, 154.0, 156.0, 181.0, 185.0, 174.0]",0.2245660424232483,0.0,0.0,-0.010616302490234375,-27.92772674560547
1743585317.4436972,0.0,-0.0,"[174.0, 185.0, 181.0, 156.0, 154.0, 154.0, 156.0, 181.0, 185.0, 174.0]",0.08891011029481888,0.0,0.0,-0.011455535888671875,-27.929290771484375
1743585317.4470575,0.0,-0.0,"[174.0, 185.0, 181.0, 156.0, 154.0, 154.0, 156.0, 181.0, 185.0, 174.0]",0.1896505206823349,0.0,0.0,-0.011884689331054688,-27.925521850585938
1743585317.475949,0.0,-0.0,"[174.0, 185.0, 181.0, 156.0, 154.0, 154.0, 156.0, 181.0, 185.0, 174.0]",0.2066076397895813,0.0,0.0,-0.011960983276367188,-27.92139434814453
1743585317.4793308,0.0,-0.0,"[174.0, 185.0, 181.0, 156.0, 154.0, 154.0, 156.0, 181.0, 185.0, 174.0]",0.12101753056049347,0.0,0.0,-0.011743545532226562,-27.918983459472656
1743585317.5129106,0.0,-0.0,"[174.0, 185.0, 181.0, 156.0, 154.0, 154.0, 156.0, 181.0, 185.0, 174.0]",0.19259010255336761,0.0,0.0,-0.011285781860351562,-27.922805786132812
1743585317.5418994,0.0,-0.0,"[174.0, 185.0, 181.0, 156.0, 154.0, 154.0, 156.0, 181.0, 185.0, 174.0]",0.17800575494766235,0.0,0.0,-0.010637283325195312,-27.926307678222656
1743585317.5448246,0.0,-0.0,"[174.0, 185.0, 181.0, 156.0, 154.0, 154.0, 156.0, 181.0, 185.0, 174.0]",0.16013549268245697,0.0,0.0,-0.009847640991210938,-27.929412841796875
1743585317.5738318,0.0,-0.0,"[174.0, 185.0, 181.0, 156.0, 154.0, 154.0, 156.0, 181.0, 185.0, 174.0]",0.07219173014163971,0.0,0.0,-0.0089569091796875,-27.9305419921875
1743585317.5769343,0.0,-0.0,"[174.0, 185.0, 181.0, 156.0, 154.0, 154.0, 156.0, 181.0, 185.0, 174.0]",0.1852148175239563,0.0,0.0,-0.008007049560546875,-27.926963806152344
1743585317.611334,0.0,-0.0,"[174.0, 185.0, 181.0, 156.0, 154.0, 154.0, 156.0, 181.0, 185.0, 174.0]",0.15632963180541992,0.0,0.0,-0.00702667236328125,-27.923995971679688
1743585317.6425643,0.0,-0.0,"[174.0, 185.0, 181.0, 156.0, 154.0, 154.0, 156.0, 181.0, 185.0, 174.0]",0.051327187567949295,0.0,0.0,-0.0060482025146484375,-27.923690795898438
1743585317.6458242,0.0,-0.0,"[174.0, 185.0, 181.0, 156.0, 154.0, 154.0, 156.0, 181.0, 185.0, 174.0]",0.15988554060459137,0.0,0.0,-0.0050907135009765625,-27.926742553710938
1743585317.6749194,0.0,-0.0,"[174.0, 185.0, 181.0, 156.0, 154.0, 154.0, 156.0, 181.0, 185.0, 174.0]",0.05791441351175308,0.0,0.0,-0.004177093505859375,-27.927452087402344
1743585317.6774106,0.0,-0.0,"[174.0, 185.0, 181.0, 156.0, 154.0, 154.0, 156.0, 181.0, 185.0, 174.0]",0.19991730153560638,0.0,0.0,-0.0033206939697265625,-27.923545837402344
1743585317.7099156,0.0,-0.0,"[174.0, 185.0, 180.0, 156.0, 154.0, 154.0, 156.0, 181.0, 185.0, 174.0]",0.12208718806505203,0.0,0.0,-0.0025310516357421875,-27.921234130859375
1743585317.740508,0.0,-0.0,"[174.0, 185.0, 181.0, 156.0, 154.0, 154.0, 156.0, 181.0, 185.0, 174.0]",0.18460233509540558,0.0,0.0,-0.0018177032470703125,-27.92485809326172
1743585317.7437425,0.0,-0.0,"[174.0, 185.0, 181.0, 156.0, 154.0, 154.0, 156.0, 181.0, 185.0, 174.0]",0.13353228569030762,0.0,0.0,-0.0011844635009765625,-27.927452087402344
1743585317.7723808,0.0,-0.0,"[174.0, 185.0, 181.0, 156.0, 154.0, 154.0, 156.0, 181.0, 185.0, 174.0]",0.11446059495210648,0.0,3.0517578125e-05,-0.00063323974609375,-27.92523193359375
1743585317.7752151,0.0,-0.0,"[174.0, 185.0, 181.0, 156.0, 154.0, 154.0, 156.0, 181.0, 185.0, 174.0]",0.18039268255233765,0.0,3.0517578125e-05,-0.0001621246337890625,-27.928802490234375
1743585317.8101954,0.0,-0.0,"[174.0, 185.0, 181.0, 156.0, 154.0, 154.0, 156.0, 181.0, 185.0, 174.0]",0.12967412173748016,0.0,3.0517578125e-05,0.0002288818359375,-27.931365966796875
1743585317.840864,0.0,-0.0,"[174.0, 185.0, 181.0, 156.0, 154.0, 154.0, 156.0, 181.0, 185.0, 174.0]",0.1237604022026062,0.0,3.0517578125e-05,0.000545501708984375,-27.928909301757812
1743585317.8435388,0.0,-0.0,"[174.0, 185.0, 181.0, 156.0, 154.0, 154.0, 156.0, 181.0, 185.0, 174.0]",0.1935333013534546,0.0,3.0517578125e-05,0.0007915496826171875,-27.932777404785156
1743585317.8726962,0.0,-0.0,"[174.0, 185.0, 181.0, 156.0, 154.0, 154.0, 156.0, 181.0, 185.0, 174.0]",0.12180628627538681,0.0,6.103515625e-05,0.000972747802734375,-27.935203552246094
1743585317.875836,0.0,-0.0,"[174.0, 185.0, 181.0, 156.0, 154.0, 154.0, 156.0, 181.0, 185.0, 174.0]",0.16159525513648987,0.0,6.103515625e-05,0.0010967254638671875,-27.931976318359375
1743585317.908111,0.0,-0.0,"[174.0, 185.0, 181.0, 156.0, 154.0, 154.0, 156.0, 181.0, 185.0, 174.0]",0.0772232785820961,0.0,6.103515625e-05,0.0011692047119140625,-27.930435180664062
1743585317.9372354,0.0,-0.0,"[174.0, 185.0, 181.0, 156.0, 154.0, 154.0, 156.0, 181.0, 185.0, 174.0]",0.184142604470253,0.0,6.103515625e-05,0.00119781494140625,-27.934112548828125
1743585317.9400449,0.0,-0.0,"[174.0, 185.0, 181.0, 156.0, 154.0, 154.0, 156.0, 181.0, 185.0, 174.0]",0.1367751508951187,0.0,6.103515625e-05,0.0011882781982421875,-27.936851501464844
1743585317.9709296,0.0,-0.0,"[174.0, 185.0, 181.0, 156.0, 154.0, 154.0, 156.0, 181.0, 185.0, 174.0]",0.06419677287340164,0.0,6.103515625e-05,0.001148223876953125,-27.935569763183594
1743585317.974517,0.0,-0.0,"[174.0, 185.0, 181.0, 156.0, 154.0, 154.0, 156.0, 181.0, 185.0, 174.0]",0.1747168004512787,0.0,6.103515625e-05,0.0010833740234375,-27.939064025878906
1743585318.0084107,0.0,-0.0,"[174.0, 185.0, 181.0, 156.0, 154.0, 154.0, 156.0, 181.0, 185.0, 174.0]",0.1311485320329666,0.0,9.1552734375e-05,0.00099945068359375,-27.941680908203125
1743585318.045497,0.0,-0.0,"[174.0, 185.0, 181.0, 156.0, 154.0, 154.0, 156.0, 181.0, 185.0, 174.0]",0.11074256151914597,0.0,9.1552734375e-05,0.0009002685546875,-27.939468383789062
1743585318.0487578,0.0,-0.0,"[174.0, 185.0, 181.0, 156.0, 154.0, 154.0, 156.0, 181.0, 185.0, 174.0]",0.1801898330450058,0.0,9.1552734375e-05,0.00079345703125,-27.943069458007812
1743585318.1006885,0.0,-0.0,"[174.0, 185.0, 181.0, 156.0, 154.0, 154.0, 156.0, 181.0, 185.0, 174.0]",0.14138393104076385,0.0,9.1552734375e-05,0.00067901611328125,-27.945899963378906
1743585318.1103003,0.0,-0.0,"[174.0, 185.0, 181.0, 156.0, 154.0, 154.0, 156.0, 181.0, 185.0, 174.0]",0.0333004854619503,0.0,9.1552734375e-05,0.0005645751953125,-27.94524383544922
1743585318.1501598,0.0,-0.0,"[174.0, 185.0, 181.0, 156.0, 154.0, 154.0, 156.0, 181.0, 185.0, 174.0]",0.19635771214962006,0.0,9.1552734375e-05,0.0004520416259765625,-27.94916534423828
1743585319.1168807,0.0,-0.0,"[174.0, 185.0, 181.0, 156.0, 154.0, 154.0, 156.0, 181.0, 185.0, 174.0]",0.12271545082330704,0.0,0.0001220703125,0.00034332275390625,-27.951614379882812
1743585319.2009504,0.0,-0.0,"[174.0, 185.0, 181.0, 156.0, 154.0, 154.0, 156.0, 181.0, 185.0, 174.0]",0.15798240900039673,0.0,0.0001220703125,0.0002384185791015625,-27.948455810546875
1743585319.241097,0.0,-0.0,"[174.0, 185.0, 181.0, 156.0, 154.0, 154.0, 156.0, 181.0, 185.0, 174.0]",0.0622306689620018,0.0,0.0001220703125,0.0001430511474609375,-27.947219848632812
1743585319.2471273,0.0,-0.0,"[174.0, 185.0, 181.0, 156.0, 154.0, 154.0, 156.0, 181.0, 185.0, 174.0]",0.17492303252220154,0.0,0.0001220703125,5.53131103515625e-05,-27.950714111328125
1743585319.2516444,0.0,-0.0,"[174.0, 185.0, 181.0, 156.0, 154.0, 154.0, 156.0, 181.0, 185.0, 174.0]",0.13653863966464996,0.0,0.0001220703125,-2.288818359375e-05,-27.953445434570312
1743585319.2552059,0.0,-0.0,"[174.0, 185.0, 181.0, 156.0, 154.0, 154.0, 156.0, 181.0, 185.0, 174.0]",0.0718504786491394,0.0,0.0001220703125,-9.34600830078125e-05,-27.952011108398438
1743585319.299412,0.0,-0.0,"[174.0, 185.0, 181.0, 156.0, 154.0, 154.0, 156.0, 181.0, 185.0, 174.0]",0.17569200694561005,0.0,0.0001220703125,-0.000152587890625,-27.955520629882812
1743585319.304043,0.0,-0.0,"[174.0, 185.0, 181.0, 156.0, 154.0, 154.0, 156.0, 181.0, 185.0, 174.0]",0.13826613128185272,0.0,0.000152587890625,-0.000202178955078125,-27.958290100097656
1743585319.3415222,0.0,-0.0,"[174.0, 185.0, 181.0, 156.0, 154.0, 154.0, 156.0, 181.0, 185.0, 174.0]",0.05745533108711243,0.0,0.000152587890625,-0.000244140625,-27.957138061523438
1743585319.3446946,0.0,-0.0,"[174.0, 185.0, 181.0, 156.0, 154.0, 154.0, 156.0, 181.0, 185.0, 174.0]",0.1775936484336853,0.0,0.000152587890625,-0.000278472900390625,-27.960693359375
1743585319.3484747,0.0,-0.0,"[174.0, 185.0, 181.0, 156.0, 154.0, 154.0, 156.0, 181.0, 185.0, 174.0]",0.14114311337471008,0.0,0.000152587890625,-0.0003032684326171875,-27.963516235351562
1743585319.381184,0.0,-0.0,"[174.0, 185.0, 181.0, 156.0, 154.0, 154.0, 156.0, 181.0, 185.0, 174.0]",0.034520473331213,0.0,0.000152587890625,-0.0003204345703125,-27.96282196044922
1743585319.3842547,0.0,-0.0,"[174.0, 185.0, 181.0, 156.0, 154.0, 154.0, 156.0, 181.0, 185.0, 174.0]",0.20195074379444122,0.0,0.00018310546875,-0.000331878662109375,-27.96686553955078
1743585319.4175065,0.0,-0.0,"[174.0, 185.0, 181.0, 156.0, 154.0, 154.0, 156.0, 181.0, 185.0, 174.0]",0.09901262819766998,0.0,0.00018310546875,-0.000339508056640625,-27.968841552734375
1743585319.4207962,0.0,-0.0,"[174.0, 185.0, 181.0, 156.0, 154.0, 154.0, 156.0, 181.0, 185.0, 174.0]",0.20315459370613098,0.0,0.00018310546875,-0.000339508056640625,-27.96478271484375
1743585319.4538572,0.0,-0.0,"[174.0, 185.0, 181.0, 156.0, 154.0, 154.0, 156.0, 181.0, 185.0, 174.0]",0.09250973165035248,0.0,0.000152587890625,-0.0003376007080078125,-27.962928771972656
1743585319.490242,0.0,-0.0,"[174.0, 185.0, 181.0, 156.0, 154.0, 154.0, 156.0, 181.0, 185.0, 174.0]",0.21048150956630707,0.0,0.00018310546875,-0.000331878662109375,-27.967140197753906
1743585319.4932647,0.0,-0.0,"[174.0, 185.0, 181.0, 156.0, 154.0, 154.0, 156.0, 181.0, 185.0, 174.0]",0.054807256907224655,0.0,0.00018310546875,-0.0003223419189453125,-27.968238830566406
1743585319.5263207,0.0,-0.0,"[174.0, 185.0, 181.0, 156.0, 154.0, 154.0, 156.0, 181.0, 185.0, 174.0]",0.18342110514640808,0.0,0.00018310546875,-0.00031280517578125,-27.964569091796875
1743585319.5299733,0.0,-0.0,"[174.0, 185.0, 181.0, 156.0, 154.0, 154.0, 156.0, 181.0, 185.0, 174.0]",0.14437030255794525,0.0,0.000152587890625,-0.0002994537353515625,-27.961685180664062
1743585319.5604846,0.0,-0.0,"[174.0, 185.0, 181.0, 156.0, 154.0, 154.0, 156.0, 181.0, 185.0, 174.0]",0.010325106792151928,0.0,0.000152587890625,-0.0002880096435546875,-27.961883544921875
1743585319.563445,0.0,-0.0,"[174.0, 185.0, 181.0, 156.0, 154.0, 154.0, 156.0, 181.0, 185.0, 174.0]",0.08798801898956299,0.0,0.000152587890625,-0.000274658203125,-27.960128784179688
1743585319.59216,0.0,-0.0,"[174.0, 185.0, 181.0, 156.0, 154.0, 154.0, 156.0, 181.0, 185.0, 174.0]",0.2099931389093399,0.0,0.00018310546875,-0.0002613067626953125,-27.964324951171875
1743585319.5950177,0.0,-0.0,"[174.0, 185.0, 181.0, 156.0, 154.0, 154.0, 156.0, 181.0, 185.0, 174.0]",0.05686913803219795,0.0,0.00018310546875,-0.000247955322265625,-27.96546173095703
1743585319.6279411,0.0,-0.0,"[174.0, 185.0, 181.0, 156.0, 154.0, 154.0, 156.0, 181.0, 185.0, 174.0]",0.17966091632843018,0.0,0.00018310546875,-0.0002346038818359375,-27.961868286132812
1743585319.660605,0.0,-0.0,"[174.0, 185.0, 181.0, 156.0, 154.0, 154.0, 156.0, 181.0, 185.0, 174.0]",0.14235873520374298,0.0,0.000152587890625,-0.0002231597900390625,-27.959022521972656
1743585319.6633317,0.0,-0.0,"[174.0, 185.0, 181.0, 156.0, 154.0, 154.0, 156.0, 181.0, 185.0, 174.0]",0.024575751274824142,0.0,0.000152587890625,-0.000213623046875,-27.959518432617188
1743585319.6919496,0.0,-0.0,"[174.0, 185.0, 181.0, 156.0, 154.0, 154.0, 156.0, 181.0, 185.0, 174.0]",0.1880163848400116,0.0,0.000152587890625,-0.0002040863037109375,-27.95575714111328
1743585319.6949043,0.0,-0.0,"[174.0, 185.0, 181.0, 156.0, 154.0, 154.0, 156.0, 181.0, 185.0, 174.0]",0.14146263897418976,0.0,0.000152587890625,-0.000194549560546875,-27.952926635742188
1743585319.7302277,0.0,-0.0,"[174.0, 185.0, 181.0, 156.0, 154.0, 154.0, 156.0, 181.0, 185.0, 174.0]",0.031307123601436615,0.0,0.000152587890625,-0.000186920166015625,-27.95355224609375
1743585319.7596533,0.0,-0.0,"[174.0, 185.0, 181.0, 156.0, 154.0, 154.0, 156.0, 181.0, 185.0, 174.0]",0.19213135540485382,0.0,0.000152587890625,-0.0001811981201171875,-27.94970703125
1743585319.7622194,0.0,-0.0,"[174.0, 185.0, 181.0, 156.0, 154.0, 154.0, 156.0, 181.0, 185.0, 174.0]",0.1337447315454483,0.0,0.0001220703125,-0.00017547607421875,-27.947036743164062
1743585319.7914698,0.0,-0.0,"[174.0, 185.0, 181.0, 156.0, 154.0, 154.0, 156.0, 181.0, 185.0, 174.0]",0.09263762831687927,0.0,0.0001220703125,-0.000171661376953125,-27.948883056640625
1743585319.7948499,0.0,-0.0,"[174.0, 185.0, 181.0, 156.0, 154.0, 154.0, 156.0, 181.0, 185.0, 174.0]",0.2106226533651352,0.0,0.0001220703125,-0.0001678466796875,-27.944671630859375
1743585319.8286757,0.0,-0.0,"[174.0, 185.0, 181.0, 156.0, 154.0, 154.0, 156.0, 181.0, 185.0, 174.0]",0.053793199360370636,0.0,0.0001220703125,-0.000164031982421875,-27.94359588623047
1743585319.8609986,0.0,-0.0,"[174.0, 185.0, 181.0, 156.0, 154.0, 154.0, 156.0, 181.0, 185.0, 174.0]",0.18583746254444122,0.0,0.0001220703125,-0.0001621246337890625,-27.947311401367188
1743585319.8641906,0.0,-0.0,"[174.0, 185.0, 181.0, 156.0, 154.0, 154.0, 156.0, 181.0, 185.0, 174.0]",0.1430375576019287,0.0,0.0001220703125,-0.0001621246337890625,-27.950180053710938
1743585319.8931258,0.0,-0.0,"[174.0, 185.0, 181.0, 156.0, 154.0, 154.0, 156.0, 181.0, 185.0, 174.0]",0.019723525270819664,0.0,0.0001220703125,-0.0001621246337890625,-27.949783325195312
1743585319.8964229,0.0,-0.0,"[174.0, 185.0, 181.0, 156.0, 154.0, 154.0, 156.0, 181.0, 185.0, 174.0]",0.18836303055286407,0.0,0.0001220703125,-0.0001621246337890625,-27.95355224609375
1743585319.9263167,0.0,-0.0,"[174.0, 185.0, 181.0, 156.0, 154.0, 154.0, 156.0, 181.0, 185.0, 174.0]",0.14051376283168793,0.0,0.0001220703125,-0.0001621246337890625,-27.95635986328125
1743585319.956696,0.0,-0.0,"[174.0, 185.0, 181.0, 156.0, 154.0, 154.0, 156.0, 181.0, 185.0, 174.0]",0.038770899176597595,0.0,0.000152587890625,-0.0001621246337890625,-27.955581665039062
1743585319.9594119,0.0,-0.0,"[174.0, 185.0, 181.0, 156.0, 154.0, 154.0, 156.0, 181.0, 185.0, 174.0]",0.20928703248500824,0.0,0.000152587890625,-0.000164031982421875,-27.95977020263672
1743585319.988391,0.0,-0.0,"[174.0, 185.0, 181.0, 156.0, 154.0, 154.0, 156.0, 181.0, 185.0, 174.0]",0.0603407584130764,0.0,0.000152587890625,-0.000164031982421875,-27.960975646972656
1743585320.0210328,0.0,-0.0,"[174.0, 185.0, 181.0, 156.0, 154.0, 154.0, 156.0, 181.0, 185.0, 174.0]",0.176280215382576,0.0,0.000152587890625,-0.0001659393310546875,-27.95745086669922
1743585320.0241868,0.0,-0.0,"[174.0, 185.0, 181.0, 156.0, 154.0, 154.0, 156.0, 181.0, 185.0, 174.0]",0.13787387311458588,0.0,0.000152587890625,-0.0001678466796875,-27.954696655273438
1743585320.0565724,0.0,-0.0,"[174.0, 185.0, 181.0, 156.0, 154.0, 154.0, 156.0, 181.0, 185.0, 174.0]",0.059169523417949677,0.0,0.0001220703125,-0.0001697540283203125,-27.95587158203125
1743585320.059537,0.0,-0.0,"[174.0, 185.0, 181.0, 156.0, 154.0, 154.0, 156.0, 181.0, 185.0, 174.0]",0.17614339292049408,0.0,0.0001220703125,-0.000171661376953125,-27.952354431152344
1743585320.0893626,0.0,-0.0,"[174.0, 185.0, 181.0, 156.0, 154.0, 154.0, 156.0, 181.0, 185.0, 174.0]",0.13753186166286469,0.0,0.0001220703125,-0.000171661376953125,-27.949600219726562
1743585320.1216748,0.0,-0.0,"[174.0, 185.0, 181.0, 156.0, 154.0, 154.0, 156.0, 181.0, 185.0, 174.0]",0.06201857328414917,0.0,0.0001220703125,-0.0001735687255859375,-27.950843811035156
1743585320.1247106,0.0,-0.0,"[174.0, 185.0, 181.0, 156.0, 154.0, 154.0, 156.0, 181.0, 185.0, 174.0]",0.17492681741714478,0.0,0.0001220703125,-0.00017547607421875,-27.947341918945312
1743585320.1548073,0.0,-0.0,"[174.0, 185.0, 181.0, 156.0, 154.0, 154.0, 156.0, 181.0, 185.0, 174.0]",0.13515165448188782,0.0,9.1552734375e-05,-0.00017547607421875,-27.94464111328125
1743585320.1573603,0.0,-0.0,"[174.0, 185.0, 181.0, 156.0, 154.0, 154.0, 156.0, 181.0, 185.0, 174.0]",0.08116552978754044,0.0,9.1552734375e-05,-0.0001773834228515625,-27.946266174316406
1743585320.1883416,0.0,-0.0,"[174.0, 185.0, 181.0, 156.0, 154.0, 154.0, 156.0, 181.0, 185.0, 174.0]",0.19521167874336243,0.0,9.1552734375e-05,-0.0001773834228515625,-27.942359924316406
1743585320.2269378,0.0,-0.0,"[174.0, 185.0, 181.0, 156.0, 154.0, 154.0, 156.0, 181.0, 185.0, 174.0]",0.1258745640516281,0.0,9.1552734375e-05,-0.000179290771484375,-27.939842224121094
1743585320.230418,0.0,-0.0,"[174.0, 185.0, 181.0, 156.0, 154.0, 154.0, 156.0, 181.0, 185.0, 174.0]",0.14341174066066742,0.0,9.1552734375e-05,-0.000179290771484375,-27.942710876464844
1743585320.2643542,0.0,-0.0,"[174.0, 185.0, 181.0, 156.0, 154.0, 154.0, 156.0, 181.0, 185.0, 174.0]",0.007905163802206516,0.0,9.1552734375e-05,-0.0001811981201171875,-27.942550659179688
1743585320.2674735,0.0,-0.0,"[174.0, 185.0, 181.0, 156.0, 154.0, 154.0, 156.0, 181.0, 185.0, 174.0]",0.05470709130167961,0.0,9.1552734375e-05,-0.0001811981201171875,-27.943649291992188
1743585320.3065038,0.0,-0.0,"[174.0, 185.0, 181.0, 156.0, 154.0, 154.0, 156.0, 181.0, 185.0, 174.0]",0.17918594181537628,0.0,9.1552734375e-05,-0.0001811981201171875,-27.9400634765625
1743585320.3101766,0.0,-0.0,"[174.0, 185.0, 181.0, 156.0, 154.0, 154.0, 156.0, 181.0, 185.0, 174.0]",0.14194144308567047,0.0,6.103515625e-05,-0.0001811981201171875,-27.937225341796875
1743585320.3391628,0.0,-0.0,"[174.0, 185.0, 181.0, 156.0, 154.0, 154.0, 156.0, 181.0, 185.0, 174.0]",0.02775217778980732,0.0,6.103515625e-05,-0.0001811981201171875,-27.937782287597656
1743585320.3417592,0.0,-0.0,"[174.0, 185.0, 181.0, 156.0, 154.0, 154.0, 156.0, 181.0, 185.0, 174.0]",0.18445590138435364,0.0,6.103515625e-05,-0.0001811981201171875,-27.93408966064453
1743585320.3715847,0.0,-0.0,"[174.0, 185.0, 181.0, 156.0, 154.0, 154.0, 156.0, 181.0, 185.0, 174.0]",0.14395101368427277,0.0,6.103515625e-05,-0.0001811981201171875,-27.93121337890625
1743585320.4025342,0.0,-0.0,"[174.0, 185.0, 181.0, 156.0, 154.0, 154.0, 156.0, 181.0, 185.0, 174.0]",0.013245252892374992,0.0,6.103515625e-05,-0.0001811981201171875,-27.931480407714844
1743585320.4059331,0.0,-0.0,"[174.0, 185.0, 181.0, 156.0, 154.0, 154.0, 156.0, 181.0, 185.0, 174.0]",0.13011495769023895,0.0,6.103515625e-05,-0.0001811981201171875,-27.928878784179688
1743585320.4433322,0.0,-0.0,"[174.0, 185.0, 181.0, 156.0, 154.0, 154.0, 156.0, 181.0, 185.0, 174.0]",0.14088380336761475,0.0,6.103515625e-05,-0.0001811981201171875,-27.93169403076172
1743585320.4463131,0.0,-0.0,"[174.0, 185.0, 181.0, 156.0, 154.0, 154.0, 156.0, 181.0, 185.0, 174.0]",0.024702437222003937,0.0,6.103515625e-05,-0.0001811981201171875,-27.931198120117188
1743585320.4788392,0.0,-0.0,"[174.0, 185.0, 181.0, 156.0, 154.0, 154.0, 156.0, 181.0, 185.0, 174.0]",0.1831579953432083,0.0,6.103515625e-05,-0.0001811981201171875,-27.934860229492188
1743585320.4823205,0.0,-0.0,"[174.0, 185.0, 181.0, 156.0, 154.0, 154.0, 156.0, 181.0, 185.0, 174.0]",0.14374779164791107,0.0,6.103515625e-05,-0.0001811981201171875,-27.93773651123047
1743585320.5181837,0.0,-0.0,"[174.0, 185.0, 181.0, 156.0, 154.0, 154.0, 156.0, 181.0, 185.0, 174.0]",0.014733509160578251,0.0,6.103515625e-05,-0.0001811981201171875,-27.93744659423828
1743585320.5211565,0.0,-0.0,"[174.0, 185.0, 181.0, 156.0, 154.0, 154.0, 156.0, 181.0, 185.0, 174.0]",0.15011316537857056,0.0,6.103515625e-05,-0.0001811981201171875,-27.940444946289062
1743585320.5500145,0.0,-0.0,"[174.0, 185.0, 181.0, 156.0, 154.0, 154.0, 156.0, 181.0, 185.0, 174.0]",0.017039312049746513,0.0,6.103515625e-05,-0.0001811981201171875,-27.94078826904297
1743585320.5789318,0.0,-0.0,"[174.0, 185.0, 181.0, 156.0, 154.0, 154.0, 156.0, 181.0, 185.0, 174.0]",0.1960044503211975,0.0,6.103515625e-05,-0.0001811981201171875,-27.936866760253906
1743585320.5818646,0.0,-0.0,"[174.0, 185.0, 181.0, 156.0, 154.0, 154.0, 156.0, 181.0, 185.0, 174.0]",0.1244548112154007,0.0,6.103515625e-05,-0.0001811981201171875,-27.93437957763672
1743585320.6136706,0.0,-0.0,"[174.0, 185.0, 181.0, 156.0, 154.0, 154.0, 156.0, 181.0, 185.0, 174.0]",0.15166708827018738,0.0,6.103515625e-05,-0.000179290771484375,-27.937408447265625
1743585320.6168013,0.0,-0.0,"[174.0, 185.0, 181.0, 156.0, 154.0, 154.0, 156.0, 181.0, 185.0, 174.0]",0.024429697543382645,0.0,6.103515625e-05,-0.000179290771484375,-27.937896728515625
1743585320.6487246,0.0,-0.0,"[174.0, 185.0, 181.0, 156.0, 154.0, 154.0, 156.0, 181.0, 185.0, 174.0]",0.18264131247997284,0.0,6.103515625e-05,-0.000179290771484375,-27.934249877929688
1743585320.679983,0.0,-0.0,"[174.0, 185.0, 181.0, 156.0, 154.0, 154.0, 156.0, 181.0, 185.0, 174.0]",0.14400862157344818,0.0,6.103515625e-05,-0.000179290771484375,-27.931365966796875
1743585320.6836057,0.0,-0.0,"[174.0, 185.0, 181.0, 156.0, 154.0, 154.0, 156.0, 181.0, 185.0, 174.0]",0.012792165391147137,0.0,3.0517578125e-05,-0.000179290771484375,-27.931625366210938
1743585320.7154906,0.0,-0.0,"[174.0, 185.0, 181.0, 156.0, 154.0, 154.0, 156.0, 181.0, 185.0, 174.0]",0.12370611727237701,0.0,6.103515625e-05,-0.000179290771484375,-27.929153442382812
1743585320.7185266,0.0,-0.0,"[174.0, 185.0, 181.0, 156.0, 154.0, 154.0, 156.0, 181.0, 185.0, 174.0]",0.20664112269878387,0.0,6.103515625e-05,-0.000179290771484375,-27.93328094482422
1743585320.7488797,0.0,-0.0,"[174.0, 185.0, 181.0, 156.0, 154.0, 154.0, 156.0, 181.0, 185.0, 174.0]",0.07386399805545807,0.0,6.103515625e-05,-0.000179290771484375,-27.93476104736328
1743585320.7785165,0.0,-0.0,"[174.0, 185.0, 181.0, 156.0, 154.0, 154.0, 156.0, 181.0, 185.0, 174.0]",0.17904315888881683,0.0,6.103515625e-05,-0.000179290771484375,-27.931182861328125
1743585320.7813783,0.0,-0.0,"[174.0, 185.0, 181.0, 156.0, 154.0, 154.0, 156.0, 181.0, 185.0, 174.0]",0.1415465772151947,0.0,6.103515625e-05,-0.000179290771484375,-27.92835235595703
1743585320.814437,0.0,-0.0,"[174.0, 185.0, 181.0, 156.0, 154.0, 154.0, 156.0, 181.0, 185.0, 174.0]",0.030746741220355034,0.0,3.0517578125e-05,-0.000179290771484375,-27.92896270751953
1743585320.846488,0.0,-0.0,"[174.0, 185.0, 181.0, 156.0, 154.0, 154.0, 156.0, 181.0, 185.0, 174.0]",0.19082938134670258,0.0,3.0517578125e-05,-0.000179290771484375,-27.925148010253906
1743585320.850947,0.0,-0.0,"[174.0, 185.0, 181.0, 156.0, 154.0, 154.0, 156.0, 181.0, 185.0, 174.0]",0.13662977516651154,0.0,3.0517578125e-05,-0.000179290771484375,-27.92241668701172
1743585320.881259,0.0,-0.0,"[174.0, 185.0, 181.0, 156.0, 154.0, 154.0, 156.0, 181.0, 185.0, 174.0]",0.06969776004552841,0.0,3.0517578125e-05,-0.000179290771484375,-27.923812866210938
1743585320.8842125,0.0,-0.0,"[174.0, 185.0, 181.0, 156.0, 154.0, 154.0, 156.0, 181.0, 185.0, 174.0]",0.17465703189373016,0.0,3.0517578125e-05,-0.000179290771484375,-27.920318603515625
1743585320.9159892,0.0,-0.0,"[174.0, 185.0, 180.0, 156.0, 154.0, 154.0, 156.0, 181.0, 185.0, 174.0]",0.13456955552101135,0.0,3.0517578125e-05,-0.000179290771484375,-27.917625427246094
1743585320.9192693,0.0,-0.0,"[174.0, 185.0, 180.0, 156.0, 154.0, 154.0, 156.0, 181.0, 185.0, 174.0]",0.08586595952510834,0.0,0.0,-0.000179290771484375,-27.919342041015625
1743585320.9501665,0.0,-0.0,"[174.0, 185.0, 180.0, 156.0, 154.0, 154.0, 156.0, 181.0, 185.0, 174.0]",0.20599845051765442,0.0,0.0,-0.000179290771484375,-27.91522216796875
1743585320.9794211,0.0,-0.0,"[174.0, 185.0, 180.0, 156.0, 154.0, 154.0, 156.0, 181.0, 185.0, 174.0]",0.07721193134784698,0.0,0.0,-0.000179290771484375,-27.913681030273438
1743585320.9825733,0.0,-0.0,"[174.0, 185.0, 180.0, 156.0, 154.0, 154.0, 156.0, 181.0, 185.0, 174.0]",0.18560084700584412,0.0,0.0,-0.000179290771484375,-27.917388916015625
1743585321.0624368,0.0,-0.0,"[174.0, 185.0, 180.0, 156.0, 154.0, 154.0, 156.0, 181.0, 185.0, 174.0]",0.1434808373451233,0.0,0.0,-0.000179290771484375,-27.920257568359375
1743585321.0655663,0.0,-0.0,"[174.0, 185.0, 180.0, 156.0, 154.0, 154.0, 156.0, 181.0, 185.0, 174.0]",0.016560178250074387,0.0,0.0,-0.000179290771484375,-27.91992950439453
1743585321.0683444,0.0,-0.0,"[174.0, 185.0, 180.0, 156.0, 154.0, 154.0, 156.0, 181.0, 185.0, 174.0]",0.17030370235443115,0.0,0.0,-0.000179290771484375,-27.92333221435547
1743585321.0715432,0.0,-0.0,"[174.0, 185.0, 180.0, 156.0, 154.0, 154.0, 156.0, 181.0, 185.0, 174.0]",0.12422386556863785,0.0,0.0,-0.000179290771484375,-27.925819396972656
1743585321.1055126,0.0,-0.0,"[174.0, 185.0, 180.0, 156.0, 154.0, 154.0, 156.0, 181.0, 185.0, 174.0]",0.16053979098796844,0.0,3.0517578125e-05,-0.000179290771484375,-27.922607421875
1743585321.109762,0.0,-0.0,"[174.0, 185.0, 180.0, 156.0, 154.0, 154.0, 156.0, 181.0, 185.0, 174.0]",0.0767679214477539,0.0,0.0,-0.000179290771484375,-27.92107391357422
1743585321.1401112,0.0,-0.0,"[174.0, 185.0, 180.0, 156.0, 154.0, 154.0, 156.0, 181.0, 185.0, 174.0]",0.18297992646694183,0.0,3.0517578125e-05,-0.000179290771484375,-27.92473602294922
1743585321.1431816,0.0,-0.0,"[174.0, 185.0, 180.0, 156.0, 154.0, 154.0, 156.0, 181.0, 185.0, 174.0]",0.14384323358535767,0.0,3.0517578125e-05,-0.000179290771484375,-27.9276123046875
1743585321.1728098,0.0,-0.0,"[174.0, 185.0, 181.0, 156.0, 154.0, 154.0, 156.0, 181.0, 185.0, 174.0]",0.014026904478669167,0.0,3.0517578125e-05,-0.000179290771484375,-27.927330017089844
1743585321.175652,0.0,-0.0,"[174.0, 185.0, 181.0, 156.0, 154.0, 154.0, 156.0, 181.0, 185.0, 174.0]",0.14092013239860535,0.0,3.0517578125e-05,-0.000179290771484375,-27.930145263671875
1743585321.2066073,0.0,-0.0,"[174.0, 185.0, 181.0, 156.0, 154.0, 154.0, 156.0, 181.0, 185.0, 174.0]",0.020095907151699066,0.0,3.0517578125e-05,-0.000179290771484375,-27.92974853515625
1743585321.239167,0.0,-0.0,"[174.0, 185.0, 181.0, 156.0, 154.0, 154.0, 156.0, 181.0, 185.0, 174.0]",0.2090282142162323,0.0,3.0517578125e-05,-0.000179290771484375,-27.933929443359375
1743585321.2420716,0.0,-0.0,"[174.0, 185.0, 181.0, 156.0, 154.0, 154.0, 156.0, 181.0, 185.0, 174.0]",0.06167265400290489,0.0,3.0517578125e-05,-0.000179290771484375,-27.935165405273438
1743585321.2741992,0.0,-0.0,"[174.0, 185.0, 181.0, 156.0, 154.0, 154.0, 156.0, 181.0, 185.0, 174.0]",0.17556063830852509,0.0,3.0517578125e-05,-0.000179290771484375,-27.93164825439453
1743585321.277076,0.0,-0.0,"[174.0, 185.0, 181.0, 156.0, 154.0, 154.0, 156.0, 181.0, 185.0, 174.0]",0.1365300714969635,0.0,3.0517578125e-05,-0.000179290771484375,-27.928916931152344
1743585321.3097427,0.0,-0.0,"[174.0, 185.0, 181.0, 156.0, 154.0, 154.0, 156.0, 181.0, 185.0, 174.0]",0.06997218728065491,0.0,0.0,-0.000179290771484375,-27.930320739746094
1743585321.339433,0.0,-0.0,"[174.0, 185.0, 181.0, 156.0, 154.0, 154.0, 156.0, 181.0, 185.0, 174.0]",0.17474128305912018,0.0,0.0,-0.000179290771484375,-27.92682647705078
1743585321.3421264,0.0,-0.0,"[174.0, 185.0, 181.0, 156.0, 154.0, 154.0, 156.0, 181.0, 185.0, 174.0]",0.13476093113422394,0.0,0.0,-0.000179290771484375,-27.92413330078125
1743585321.372154,0.0,-0.0,"[174.0, 185.0, 181.0, 156.0, 154.0, 154.0, 156.0, 181.0, 185.0, 174.0]",0.08431100100278854,0.0,0.0,-0.000179290771484375,-27.925811767578125
1743585321.3750577,0.0,-0.0,"[174.0, 185.0, 181.0, 156.0, 154.0, 154.0, 156.0, 181.0, 185.0, 174.0]",0.20318099856376648,0.0,0.0,-0.000179290771484375,-27.9217529296875
1743585321.4053988,0.0,-0.0,"[174.0, 185.0, 180.0, 156.0, 154.0, 154.0, 156.0, 181.0, 185.0, 174.0]",0.09192772209644318,0.0,0.0,-0.000179290771484375,-27.91991424560547
1743585321.438286,0.0,-0.0,"[174.0, 185.0, 180.0, 156.0, 154.0, 154.0, 156.0, 181.0, 185.0, 174.0]",0.21027913689613342,0.0,0.0,-0.000179290771484375,-27.924118041992188
1743585321.441809,0.0,-0.0,"[174.0, 185.0, 180.0, 156.0, 154.0, 154.0, 156.0, 181.0, 185.0, 174.0]",0.05561499670147896,0.0,0.0,-0.000179290771484375,-27.92523193359375
1743585321.4724731,0.0,-0.0,"[174.0, 185.0, 180.0, 156.0, 154.0, 154.0, 156.0, 181.0, 185.0, 174.0]",0.18181699514389038,0.0,0.0,-0.000179290771484375,-27.921592712402344
1743585321.503318,0.0,-0.0,"[174.0, 185.0, 180.0, 156.0, 154.0, 154.0, 156.0, 181.0, 185.0, 174.0]",0.1437644213438034,0.0,0.0,-0.000179290771484375,-27.918716430664062
1743585321.5076368,0.0,-0.0,"[174.0, 185.0, 180.0, 156.0, 154.0, 154.0, 156.0, 181.0, 185.0, 174.0]",0.014495091512799263,0.0,-3.0517578125e-05,-0.000179290771484375,-27.91900634765625
1743585321.541108,0.0,-0.0,"[174.0, 185.0, 180.0, 156.0, 154.0, 154.0, 156.0, 181.0, 185.0, 174.0]",0.14724399149417877,0.0,0.0,-0.000179290771484375,-27.916061401367188
1743585321.5438285,0.0,-0.0,"[174.0, 185.0, 180.0, 156.0, 154.0, 154.0, 156.0, 181.0, 185.0, 174.0]",0.00547351548448205,0.0,0.0,-0.000179290771484375,-27.91595458984375
1743585321.5735152,0.0,-0.0,"[174.0, 185.0, 180.0, 156.0, 154.0, 154.0, 156.0, 181.0, 185.0, 174.0]",0.028875602409243584,0.0,0.0,-0.000179290771484375,-27.916534423828125
1743585321.5763378,0.0,-0.0,"[174.0, 185.0, 180.0, 156.0, 154.0, 154.0, 156.0, 181.0, 185.0, 174.0]",0.17943133413791656,0.0,0.0,-0.000179290771484375,-27.912948608398438
1743585321.6092014,0.0,-0.0,"[174.0, 185.0, 180.0, 156.0, 154.0, 154.0, 156.0, 181.0, 185.0, 174.0]",0.14199844002723694,0.0,-3.0517578125e-05,-0.000179290771484375,-27.910110473632812
1743585321.6411238,0.0,-0.0,"[174.0, 185.0, 180.0, 156.0, 154.0, 154.0, 156.0, 181.0, 185.0, 174.0]",0.027397073805332184,0.0,-3.0517578125e-05,-0.000179290771484375,-27.91065216064453
1743585321.6438572,0.0,-0.0,"[174.0, 185.0, 180.0, 156.0, 154.0, 154.0, 156.0, 181.0, 185.0, 174.0]",0.1843552142381668,0.0,-3.0517578125e-05,-0.000179290771484375,-27.906967163085938
1743585321.6742744,0.0,-0.0,"[174.0, 185.0, 180.0, 156.0, 154.0, 154.0, 156.0, 181.0, 185.0, 174.0]",0.14393474161624908,0.0,-3.0517578125e-05,-0.000179290771484375,-27.904090881347656
1743585321.6768425,0.0,-0.0,"[174.0, 185.0, 180.0, 156.0, 154.0, 154.0, 156.0, 181.0, 185.0, 174.0]",0.013359985314309597,0.0,-3.0517578125e-05,-0.000179290771484375,-27.90435791015625
1743585321.7071662,0.0,-0.0,"[174.0, 185.0, 180.0, 156.0, 154.0, 154.0, 156.0, 181.0, 185.0, 174.0]",0.131731316447258,0.0,-3.0517578125e-05,-0.000179290771484375,-27.901718139648438
1743585321.740577,0.0,-0.0,"[174.0, 185.0, 180.0, 156.0, 154.0, 154.0, 156.0, 181.0, 185.0, 174.0]",0.11773700267076492,0.0,-3.0517578125e-05,-0.000179290771484375,-27.904075622558594
1743585321.7437794,0.0,-0.0,"[174.0, 185.0, 180.0, 156.0, 154.0, 154.0, 156.0, 181.0, 185.0, 174.0]",0.19435150921344757,0.0,-3.0517578125e-05,-0.000179290771484375,-27.900192260742188
1743585321.7728662,0.0,-0.0,"[174.0, 185.0, 180.0, 156.0, 154.0, 154.0, 156.0, 181.0, 185.0, 174.0]",0.12966327369213104,0.0,-3.0517578125e-05,-0.000179290771484375,-27.897598266601562
1743585321.77554,0.0,-0.0,"[174.0, 185.0, 180.0, 156.0, 154.0, 154.0, 156.0, 181.0, 185.0, 174.0]",0.1228010430932045,0.0,-6.103515625e-05,-0.000179290771484375,-27.900054931640625
1743585321.8067908,0.0,-0.0,"[174.0, 185.0, 180.0, 156.0, 154.0, 154.0, 156.0, 181.0, 185.0, 174.0]",0.20046159625053406,0.0,-6.103515625e-05,-0.000179290771484375,-27.896041870117188
1743585321.8400671,0.0,-0.0,"[174.0, 185.0, 180.0, 156.0, 154.0, 154.0, 156.0, 181.0, 185.0, 174.0]",0.10632103681564331,0.0,-6.103515625e-05,-0.000179290771484375,-27.8939208984375
1743585321.843219,0.0,-0.0,"[174.0, 185.0, 180.0, 156.0, 154.0, 154.0, 156.0, 181.0, 185.0, 174.0]",0.19288887083530426,0.0,-6.103515625e-05,-0.000179290771484375,-27.89777374267578
1743585321.8732524,0.0,-0.0,"[174.0, 185.0, 180.0, 156.0, 154.0, 154.0, 156.0, 181.0, 185.0, 174.0]",0.13201972842216492,0.0,-6.103515625e-05,-0.000179290771484375,-27.900413513183594
1743585321.8760762,0.0,-0.0,"[174.0, 185.0, 180.0, 156.0, 154.0, 154.0, 156.0, 181.0, 185.0, 174.0]",0.10589899867773056,0.0,-3.0517578125e-05,-0.000179290771484375,-27.898300170898438
1743585321.9072728,0.0,-0.0,"[174.0, 185.0, 180.0, 156.0, 154.0, 154.0, 156.0, 181.0, 185.0, 174.0]",0.1903151124715805,0.0,-3.0517578125e-05,-0.000179290771484375,-27.90210723876953
1743585321.938125,0.0,-0.0,"[174.0, 185.0, 180.0, 156.0, 154.0, 154.0, 156.0, 181.0, 185.0, 174.0]",0.13858768343925476,0.0,-3.0517578125e-05,-0.000179290771484375,-27.904876708984375
1743585321.941069,0.0,-0.0,"[174.0, 185.0, 180.0, 156.0, 154.0, 154.0, 156.0, 181.0, 185.0, 174.0]",0.05363059416413307,0.0,-3.0517578125e-05,-0.000179290771484375,-27.90380859375
1743585321.9706707,0.0,-0.0,"[174.0, 185.0, 180.0, 156.0, 154.0, 154.0, 156.0, 181.0, 185.0, 174.0]",0.18464604020118713,0.0,-3.0517578125e-05,-0.000179290771484375,-27.907501220703125
1743585322.0006597,0.0,-0.0,"[174.0, 185.0, 180.0, 156.0, 154.0, 154.0, 156.0, 181.0, 185.0, 174.0]",0.1436898410320282,0.0,-3.0517578125e-05,-0.000179290771484375,-27.910369873046875
1743585322.0036,0.0,-0.0,"[174.0, 185.0, 180.0, 156.0, 154.0, 154.0, 156.0, 181.0, 185.0, 174.0]",0.015141986310482025,0.0,0.0,-0.000179290771484375,-27.910064697265625
1743585322.0358045,0.0,-0.0,"[174.0, 185.0, 180.0, 156.0, 154.0, 154.0, 156.0, 181.0, 185.0, 174.0]",0.15516433119773865,0.0,-3.0517578125e-05,-0.000179290771484375,-27.913169860839844
1743585322.0403135,0.0,-0.0,"[174.0, 185.0, 180.0, 156.0, 154.0, 154.0, 156.0, 181.0, 185.0, 174.0]",0.04399123787879944,0.0,-3.0517578125e-05,-0.000179290771484375,-27.914047241210938
1743585322.071133,0.0,-0.0,"[174.0, 185.0, 180.0, 156.0, 154.0, 154.0, 156.0, 181.0, 185.0, 174.0]",0.20951826870441437,0.0,-3.0517578125e-05,-0.000179290771484375,-27.90985870361328
1743585322.1016135,0.0,-0.0,"[174.0, 185.0, 180.0, 156.0, 154.0, 154.0, 156.0, 181.0, 185.0, 174.0]",0.0593106746673584,0.0,-3.0517578125e-05,-0.000179290771484375,-27.908676147460938
1743585322.1047616,0.0,-0.0,"[174.0, 185.0, 180.0, 156.0, 154.0, 154.0, 156.0, 181.0, 185.0, 174.0]",0.17699338495731354,0.0,-3.0517578125e-05,-0.000179290771484375,-27.912216186523438
1743585322.1460505,0.0,-0.0,"[174.0, 185.0, 227.0, 295.0, 259.0, 161.0, 182.0, 190.0, 185.0, 174.0]",0.0,0.0,0.0,0.10000038146972656,-27.93000030517578
1743585322.1497464,0.0,-0.0,"[174.0, 185.0, 227.0, 295.0, 259.0, 161.0, 182.0, 190.0, 185.0, 174.0]",0.897617518901825,0.0,0.0,0.08204841613769531,-27.930007934570312
1743585322.1813047,0.0,-0.0,"[174.0, 185.0, 179.0, 155.0, 154.0, 154.0, 156.0, 180.0, 185.0, 174.0]",0.8460805416107178,0.0,0.0,0.06512641906738281,-27.929908752441406
1743585322.184408,0.0,-0.0,"[174.0, 185.0, 179.0, 155.0, 154.0, 154.0, 156.0, 180.0, 185.0, 174.0]",0.817315399646759,0.0,0.0,0.04947090148925781,-27.934600830078125
1743585322.2204595,0.0,-0.0,"[174.0, 185.0, 179.0, 156.0, 154.0, 154.0, 156.0, 181.0, 185.0, 174.0]",0.7151947021484375,0.0,3.0517578125e-05,0.03524208068847656,-27.933128356933594
1743585322.2243707,0.0,-0.0,"[174.0, 185.0, 179.0, 156.0, 154.0, 154.0, 156.0, 181.0, 185.0, 174.0]",0.6483849883079529,0.0,3.0517578125e-05,0.022546768188476562,-27.935768127441406
1743585322.2611215,0.0,-0.0,"[174.0, 185.0, 180.0, 156.0, 154.0, 154.0, 156.0, 181.0, 185.0, 174.0]",0.6038328409194946,0.0,0.0,0.011430740356445312,-27.931045532226562
1743585322.2642922,0.0,-0.0,"[174.0, 185.0, 180.0, 156.0, 154.0, 154.0, 156.0, 181.0, 185.0, 174.0]",0.48156219720840454,0.0,0.0,0.001895904541015625,-27.932411193847656
1743585322.2973635,0.0,-0.0,"[174.0, 185.0, 181.0, 156.0, 154.0, 154.0, 156.0, 181.0, 185.0, 174.0]",0.439144492149353,0.0,0.0,-0.006092071533203125,-27.92876434326172
1743585322.301588,0.0,-0.0,"[174.0, 185.0, 181.0, 156.0, 154.0, 154.0, 156.0, 181.0, 185.0, 174.0]",0.3881416320800781,0.0,0.0,-0.012601852416992188,-27.924530029296875
1743585322.3318577,0.0,-0.0,"[174.0, 185.0, 181.0, 156.0, 154.0, 155.0, 158.0, 183.0, 185.0, 174.0]",0.32329338788986206,0.0,0.0,-0.01772308349609375,-27.92058563232422
1743585322.3617628,0.0,-0.0,"[174.0, 185.0, 181.0, 156.0, 154.0, 154.0, 158.0, 183.0, 185.0, 174.0]",0.31634172797203064,0.0,0.0,-0.021566390991210938,-27.915557861328125
1743585322.3648455,0.0,-0.0,"[174.0, 185.0, 181.0, 156.0, 154.0, 154.0, 158.0, 183.0, 185.0, 174.0]",0.25503748655319214,0.0,0.0,-0.02425384521484375,-27.919891357421875
1743585322.3936753,0.0,-0.0,"[174.0, 185.0, 181.0, 156.0, 154.0, 154.0, 158.0, 183.0, 185.0, 174.0]",0.1764223873615265,0.0,3.0517578125e-05,-0.025915145874023438,-27.923004150390625
1743585322.3967452,0.0,-0.0,"[174.0, 185.0, 181.0, 156.0, 154.0, 154.0, 158.0, 183.0, 185.0, 174.0]",0.12852850556373596,0.0,3.0517578125e-05,-0.02667999267578125,-27.925460815429688
1743585322.4308157,0.0,-0.0,"[174.0, 185.0, 181.0, 156.0, 154.0, 154.0, 158.0, 183.0, 185.0, 174.0]",0.22878941893577576,0.0,3.0517578125e-05,-0.026681900024414062,-27.920883178710938
1743585322.4632266,0.0,-0.0,"[174.0, 185.0, 181.0, 156.0, 154.0, 154.0, 158.0, 183.0, 185.0, 174.0]",0.03606210649013519,0.0,3.0517578125e-05,-0.0260467529296875,-27.921234130859375
1743585322.466738,0.0,-0.0,"[174.0, 185.0, 181.0, 156.0, 154.0, 154.0, 158.0, 183.0, 185.0, 174.0]",0.20947949588298798,0.0,3.0517578125e-05,-0.024898529052734375,-27.917205810546875
1743585322.500538,0.0,-0.0,"[174.0, 185.0, 181.0, 156.0, 154.0, 154.0, 156.0, 183.0, 185.0, 174.0]",0.20151838660240173,0.0,3.0517578125e-05,-0.023349761962890625,-27.913482666015625
1743585322.5034475,0.0,-0.0,"[174.0, 185.0, 181.0, 156.0, 154.0, 154.0, 156.0, 183.0, 185.0, 174.0]",0.22149968147277832,0.0,3.0517578125e-05,-0.021505355834960938,-27.909454345703125
1743585322.5363774,0.0,-0.0,"[174.0, 185.0, 181.0, 156.0, 154.0, 154.0, 156.0, 181.0, 185.0, 174.0]",0.17530418932437897,0.0,0.0,-0.019458770751953125,-27.90660858154297
1743585322.5399778,0.0,-0.0,"[174.0, 185.0, 181.0, 156.0, 154.0, 154.0, 156.0, 181.0, 185.0, 174.0]",0.11272183060646057,0.0,0.0,-0.017292022705078125,-27.9072265625
1743585322.5714598,0.0,-0.0,"[174.0, 185.0, 181.0, 156.0, 154.0, 154.0, 156.0, 181.0, 185.0, 174.0]",0.2259698361158371,0.0,0.0,-0.015077590942382812,-27.903289794921875
1743585322.6013627,0.0,-0.0,"[174.0, 185.0, 180.0, 156.0, 154.0, 154.0, 156.0, 181.0, 185.0, 174.0]",0.16200748085975647,0.0,0.0,-0.012876510620117188,-27.900909423828125
1743585322.6055665,0.0,-0.0,"[174.0, 185.0, 180.0, 156.0, 154.0, 154.0, 156.0, 181.0, 185.0, 174.0]",0.1978529989719391,0.0,0.0,-0.010740280151367188,-27.90423583984375
1743585322.6391373,0.0,-0.0,"[174.0, 185.0, 180.0, 156.0, 154.0, 154.0, 156.0, 181.0, 185.0, 174.0]",0.13887198269367218,0.0,0.0,-0.008707046508789062,-27.90613555908203
1743585322.642601,0.0,-0.0,"[174.0, 185.0, 180.0, 156.0, 154.0, 154.0, 156.0, 181.0, 185.0, 174.0]",0.21669672429561615,0.0,0.0,-0.0068111419677734375,-27.902236938476562
1743585322.673347,0.0,-0.0,"[174.0, 185.0, 180.0, 156.0, 154.0, 154.0, 156.0, 181.0, 185.0, 174.0]",0.13429030776023865,0.0,0.0,-0.00507354736328125,-27.900192260742188
1743585322.6760979,0.0,-0.0,"[174.0, 185.0, 180.0, 156.0, 154.0, 154.0, 156.0, 181.0, 185.0, 174.0]",0.20158721506595612,0.0,0.0,-0.0035076141357421875,-27.903900146484375
1743585322.7065778,0.0,-0.0,"[174.0, 185.0, 180.0, 156.0, 154.0, 154.0, 156.0, 181.0, 185.0, 174.0]",0.13271349668502808,0.0,0.0,-0.002124786376953125,-27.906173706054688
1743585322.7398276,0.0,-0.0,"[174.0, 185.0, 180.0, 156.0, 154.0, 154.0, 156.0, 181.0, 185.0, 174.0]",0.1871814727783203,0.0,0.0,-0.000926971435546875,-27.902618408203125
1743585322.7429283,0.0,-0.0,"[174.0, 185.0, 180.0, 156.0, 154.0, 154.0, 156.0, 181.0, 185.0, 174.0]",0.1212911307811737,0.0,0.0,8.7738037109375e-05,-27.900421142578125
1743585322.7717636,0.0,-0.0,"[174.0, 185.0, 180.0, 156.0, 154.0, 154.0, 156.0, 181.0, 185.0, 174.0]",0.18758529424667358,0.0,0.0,0.000926971435546875,-27.904075622558594
1743585322.7746086,0.0,-0.0,"[174.0, 185.0, 180.0, 156.0, 154.0, 154.0, 156.0, 181.0, 185.0, 174.0]",0.12058139592409134,0.0,0.0,0.0016002655029296875,-27.906387329101562
1743585322.8049934,0.0,-0.0,"[174.0, 185.0, 180.0, 156.0, 154.0, 154.0, 156.0, 181.0, 185.0, 174.0]",0.17685261368751526,0.0,0.0,0.002117156982421875,-27.90289306640625
1743585322.8371499,0.0,-0.0,"[174.0, 185.0, 180.0, 156.0, 154.0, 154.0, 156.0, 181.0, 185.0, 174.0]",0.11411596089601517,0.0,0.0,0.0024929046630859375,-27.90064239501953
1743585322.8414912,0.0,-0.0,"[174.0, 185.0, 180.0, 156.0, 154.0, 154.0, 156.0, 181.0, 185.0, 174.0]",0.18488550186157227,0.0,0.0,0.002742767333984375,-27.904327392578125
1743585322.8714209,0.0,-0.0,"[174.0, 185.0, 180.0, 156.0, 154.0, 154.0, 156.0, 181.0, 185.0, 174.0]",0.12434152513742447,0.0,0.0,0.002880096435546875,-27.906814575195312
1743585322.9014525,0.0,-0.0,"[174.0, 185.0, 180.0, 156.0, 154.0, 154.0, 156.0, 181.0, 185.0, 174.0]",0.14468759298324585,0.0,0.0,0.00292205810546875,-27.90392303466797
1743585322.9044092,0.0,-0.0,"[174.0, 185.0, 180.0, 156.0, 154.0, 154.0, 156.0, 181.0, 185.0, 174.0]",0.002934152726083994,0.0,0.0,0.0028820037841796875,-27.903961181640625
1743585322.9356668,0.0,-0.0,"[174.0, 185.0, 180.0, 156.0, 154.0, 154.0, 156.0, 181.0, 185.0, 174.0]",0.008692813105881214,0.0,0.0,0.002777099609375,-27.903823852539062
1743585322.938979,0.0,-0.0,"[174.0, 185.0, 180.0, 156.0, 154.0, 154.0, 156.0, 181.0, 185.0, 174.0]",0.03841998428106308,0.0,0.0,0.00261688232421875,-27.904579162597656
1743585322.9683058,0.0,-0.0,"[174.0, 185.0, 180.0, 156.0, 154.0, 154.0, 156.0, 181.0, 185.0, 174.0]",0.20657865703105927,0.0,0.0,0.00241851806640625,-27.90045166015625
1743585322.9971166,0.0,-0.0,"[174.0, 185.0, 180.0, 156.0, 154.0, 154.0, 156.0, 181.0, 185.0, 174.0]",0.07317482680082321,0.0,0.0,0.00218963623046875,-27.899002075195312
1743585323.0008178,0.0,-0.0,"[174.0, 185.0, 180.0, 156.0, 154.0, 154.0, 156.0, 181.0, 185.0, 174.0]",0.17777635157108307,0.0,0.0,0.0019435882568359375,-27.902557373046875
1743585323.0334368,0.0,-0.0,"[174.0, 185.0, 180.0, 156.0, 154.0, 154.0, 156.0, 181.0, 185.0, 174.0]",0.1376960575580597,0.0,0.0,0.0016880035400390625,-27.905296325683594
1743585323.0656905,0.0,-0.0,"[174.0, 185.0, 180.0, 156.0, 154.0, 154.0, 156.0, 181.0, 185.0, 174.0]",0.06662528961896896,0.0,3.0517578125e-05,0.001430511474609375,-27.90399169921875
1743585323.0688338,0.0,-0.0,"[174.0, 185.0, 180.0, 156.0, 154.0, 154.0, 156.0, 181.0, 185.0, 174.0]",0.1747637391090393,0.0,3.0517578125e-05,0.0011768341064453125,-27.90747833251953
1743585323.0985622,0.0,-0.0,"[174.0, 185.0, 180.0, 156.0, 154.0, 154.0, 156.0, 181.0, 185.0, 174.0]",0.13549882173538208,0.0,3.0517578125e-05,0.000934600830078125,-27.910171508789062
1743585323.1018233,0.0,-0.0,"[174.0, 185.0, 180.0, 156.0, 154.0, 154.0, 156.0, 181.0, 185.0, 174.0]",0.08556655049324036,0.0,3.0517578125e-05,0.000705718994140625,-27.908477783203125
1743585323.133028,0.0,-0.0,"[174.0, 185.0, 180.0, 156.0, 154.0, 154.0, 156.0, 181.0, 185.0, 174.0]",0.20535463094711304,0.0,3.0517578125e-05,0.0004940032958984375,-27.912582397460938
1743585323.1363704,0.0,-0.0,"[174.0, 185.0, 180.0, 156.0, 154.0, 154.0, 156.0, 181.0, 185.0, 174.0]",0.0851144790649414,0.0,6.103515625e-05,0.000301361083984375,-27.914276123046875
1743585323.165835,0.0,-0.0,"[174.0, 185.0, 180.0, 156.0, 154.0, 154.0, 156.0, 181.0, 185.0, 174.0]",0.2026544213294983,0.0,6.103515625e-05,0.00012969970703125,-27.91022491455078
1743585323.1944416,0.0,-0.0,"[174.0, 185.0, 180.0, 156.0, 154.0, 154.0, 156.0, 181.0, 185.0, 174.0]",0.09951356053352356,0.0,3.0517578125e-05,-2.09808349609375e-05,-27.908241271972656
1743585323.197059,0.0,-0.0,"[174.0, 185.0, 180.0, 156.0, 154.0, 154.0, 156.0, 181.0, 185.0, 174.0]",0.20502179861068726,0.0,3.0517578125e-05,-0.0001506805419921875,-27.912338256835938
1743585323.23021,0.0,-0.0,"[174.0, 185.0, 181.0, 156.0, 154.0, 154.0, 156.0, 181.0, 185.0, 174.0]",0.08572281152009964,0.0,6.103515625e-05,-0.0002593994140625,-27.914047241210938
1743585323.2631714,0.0,-0.0,"[174.0, 185.0, 180.0, 156.0, 154.0, 154.0, 156.0, 181.0, 185.0, 174.0]",0.20433351397514343,0.0,6.103515625e-05,-0.000347137451171875,-27.90996551513672
1743585323.2667325,0.0,-0.0,"[174.0, 185.0, 180.0, 156.0, 154.0, 154.0, 156.0, 181.0, 185.0, 174.0]",0.08892620354890823,0.0,3.0517578125e-05,-0.000415802001953125,-27.908187866210938
1743585323.2955456,0.0,-0.0,"[174.0, 185.0, 180.0, 156.0, 154.0, 154.0, 156.0, 181.0, 185.0, 174.0]",0.2097301483154297,0.0,3.0517578125e-05,-0.000469207763671875,-27.912384033203125
1743585323.2985735,0.0,-0.0,"[174.0, 185.0, 180.0, 156.0, 154.0, 154.0, 156.0, 181.0, 185.0, 174.0]",0.05978434160351753,0.0,6.103515625e-05,-0.0005054473876953125,-27.91357421875
1743585323.3293436,0.0,-0.0,"[174.0, 185.0, 180.0, 156.0, 154.0, 154.0, 156.0, 181.0, 185.0, 174.0]",0.1763940304517746,0.0,6.103515625e-05,-0.0005283355712890625,-27.910049438476562
1743585323.3589706,0.0,-0.0,"[174.0, 185.0, 180.0, 156.0, 154.0, 154.0, 156.0, 181.0, 185.0, 174.0]",0.14034999907016754,0.0,3.0517578125e-05,-0.0005397796630859375,-27.907241821289062
1743585323.3615203,0.0,-0.0,"[174.0, 185.0, 180.0, 156.0, 154.0, 154.0, 156.0, 181.0, 185.0, 174.0]",0.040703821927309036,0.0,3.0517578125e-05,-0.0005397796630859375,-27.908050537109375
1743585323.389924,0.0,-0.0,"[174.0, 185.0, 180.0, 156.0, 154.0, 154.0, 156.0, 181.0, 185.0, 174.0]",0.2113083302974701,0.0,3.0517578125e-05,-0.000530242919921875,-27.903823852539062
1743585323.4219043,0.0,-0.0,"[174.0, 185.0, 180.0, 156.0, 154.0, 154.0, 156.0, 181.0, 185.0, 174.0]",0.05106419324874878,0.0,3.0517578125e-05,-0.000514984130859375,-27.902809143066406
1743585323.4249074,0.0,-0.0,"[174.0, 185.0, 180.0, 156.0, 154.0, 154.0, 156.0, 181.0, 185.0, 174.0]",0.19281283020973206,0.0,3.0517578125e-05,-0.00049591064453125,-27.906661987304688
1743585323.456191,0.0,-0.0,"[174.0, 185.0, 180.0, 156.0, 154.0, 154.0, 156.0, 181.0, 185.0, 174.0]",0.13328050076961517,0.0,3.0517578125e-05,-0.0004711151123046875,-27.909332275390625
1743585323.4590158,0.0,-0.0,"[174.0, 185.0, 180.0, 156.0, 154.0, 154.0, 156.0, 181.0, 185.0, 174.0]",0.09690560400485992,0.0,3.0517578125e-05,-0.0004425048828125,-27.907394409179688
1743585323.488993,0.0,-0.0,"[174.0, 185.0, 180.0, 156.0, 154.0, 154.0, 156.0, 181.0, 185.0, 174.0]",0.209096297621727,0.0,3.0517578125e-05,-0.0004138946533203125,-27.911575317382812
1743585323.5217876,0.0,-0.0,"[174.0, 185.0, 180.0, 156.0, 154.0, 154.0, 156.0, 181.0, 185.0, 174.0]",0.061342015862464905,0.0,6.103515625e-05,-0.0003833770751953125,-27.912796020507812
1743585323.5249388,0.0,-0.0,"[174.0, 185.0, 180.0, 156.0, 154.0, 154.0, 156.0, 181.0, 185.0, 174.0]",0.1756603717803955,0.0,6.103515625e-05,-0.000354766845703125,-27.909286499023438
1743585323.555109,0.0,-0.0,"[174.0, 185.0, 180.0, 156.0, 154.0, 154.0, 156.0, 181.0, 185.0, 174.0]",0.13668735325336456,0.0,3.0517578125e-05,-0.0003261566162109375,-27.90655517578125
1743585323.5580454,0.0,-0.0,"[174.0, 185.0, 180.0, 156.0, 154.0, 154.0, 156.0, 181.0, 185.0, 174.0]",0.06859125196933746,0.0,3.0517578125e-05,-0.00029754638671875,-27.907920837402344
1743585323.5911293,0.0,-0.0,"[174.0, 185.0, 180.0, 156.0, 154.0, 154.0, 156.0, 181.0, 185.0, 174.0]",0.17437420785427094,0.0,3.0517578125e-05,-0.0002727508544921875,-27.904434204101562
1743585323.6240609,0.0,-0.0,"[174.0, 185.0, 180.0, 156.0, 154.0, 154.0, 156.0, 181.0, 185.0, 174.0]",0.13365493714809418,0.0,3.0517578125e-05,-0.000247955322265625,-27.901763916015625
1743585323.6270392,0.0,-0.0,"[174.0, 185.0, 180.0, 156.0, 154.0, 154.0, 156.0, 181.0, 185.0, 174.0]",0.09292757511138916,0.0,0.0,-0.0002269744873046875,-27.90362548828125
1743585323.634346,0.0,-0.0,"[174.0, 185.0, 180.0, 156.0, 154.0, 154.0, 156.0, 181.0, 185.0, 174.0]",0.21044135093688965,0.0,0.0,-0.0002079010009765625,-27.8994140625
1743585323.6381621,0.0,-0.0,"[174.0, 185.0, 180.0, 156.0, 154.0, 154.0, 156.0, 181.0, 185.0, 174.0]",0.054522134363651276,0.0,0.0,-0.0001926422119140625,-27.89832305908203
1743585323.6467547,0.0,-0.0,"[174.0, 185.0, 180.0, 156.0, 154.0, 154.0, 156.0, 181.0, 185.0, 174.0]",0.1841183751821518,0.0,0.0,-0.0001773834228515625,-27.902008056640625
1743585323.667851,0.0,-0.0,"[174.0, 185.0, 180.0, 156.0, 154.0, 154.0, 156.0, 181.0, 185.0, 174.0]",0.14356274902820587,0.0,0.0,-0.0001659393310546875,-27.904876708984375
1743585323.6882892,0.0,-0.0,"[174.0, 185.0, 180.0, 156.0, 154.0, 154.0, 156.0, 181.0, 185.0, 174.0]",0.0158627238124609,0.0,3.0517578125e-05,-0.000156402587890625,-27.904556274414062
1743585323.7084794,0.0,-0.0,"[174.0, 185.0, 180.0, 156.0, 154.0, 154.0, 156.0, 181.0, 185.0, 174.0]",0.16305388510227203,0.0,0.0,-0.0001506805419921875,-27.907821655273438
1743585323.7274437,0.0,-0.0,"[174.0, 185.0, 180.0, 156.0, 154.0, 154.0, 156.0, 181.0, 185.0, 174.0]",0.09106035530567169,0.0,3.0517578125e-05,-0.00014495849609375,-27.909637451171875
1743585323.7467024,0.0,-0.0,"[174.0, 185.0, 180.0, 156.0, 154.0, 154.0, 156.0, 181.0, 185.0, 174.0]",0.21034318208694458,0.0,3.0517578125e-05,-0.000141143798828125,-27.905433654785156
1743585323.767703,0.0,-0.0,"[174.0, 185.0, 180.0, 156.0, 154.0, 154.0, 156.0, 181.0, 185.0, 174.0]",0.05515735223889351,0.0,0.0,-0.0001392364501953125,-27.904327392578125
1743585323.788761,0.0,-0.0,"[174.0, 185.0, 180.0, 156.0, 154.0, 154.0, 156.0, 181.0, 185.0, 174.0]",0.18277643620967865,0.0,0.0,-0.0001373291015625,-27.907989501953125
1743585323.8090003,0.0,-0.0,"[174.0, 185.0, 180.0, 156.0, 154.0, 154.0, 156.0, 181.0, 185.0, 174.0]",0.14374271035194397,0.0,3.0517578125e-05,-0.0001392364501953125,-27.910858154296875
1743585323.8273156,0.0,-0.0,"[174.0, 185.0, 180.0, 156.0, 154.0, 154.0, 156.0, 181.0, 185.0, 174.0]",0.014623407274484634,0.0,3.0517578125e-05,-0.0001392364501953125,-27.910568237304688
1743585323.8474464,0.0,-0.0,"[174.0, 185.0, 180.0, 156.0, 154.0, 154.0, 156.0, 181.0, 185.0, 174.0]",0.1487441211938858,0.0,3.0517578125e-05,-0.000141143798828125,-27.913543701171875
1743585323.8679028,0.0,-0.0,"[174.0, 185.0, 180.0, 156.0, 154.0, 154.0, 156.0, 181.0, 185.0, 174.0]",0.011129839345812798,0.0,3.0517578125e-05,-0.00014495849609375,-27.913772583007812
1743585323.887199,0.0,-0.0,"[174.0, 185.0, 180.0, 156.0, 154.0, 154.0, 156.0, 181.0, 185.0, 174.0]",0.10251381248235703,0.0,3.0517578125e-05,-0.0001468658447265625,-27.911720275878906
1743585323.907234,0.0,-0.0,"[174.0, 185.0, 180.0, 156.0, 154.0, 154.0, 156.0, 181.0, 185.0, 174.0]",0.20007002353668213,0.0,0.0,-0.0001506805419921875,-27.91571807861328
1743585323.926852,0.0,-0.0,"[174.0, 185.0, 180.0, 156.0, 154.0, 154.0, 156.0, 181.0, 185.0, 174.0]",0.10711371153593063,0.0,3.0517578125e-05,-0.0001544952392578125,-27.917861938476562
1743585323.9470098,0.0,-0.0,"[174.0, 185.0, 180.0, 156.0, 154.0, 154.0, 156.0, 181.0, 185.0, 174.0]",0.1931973695755005,0.0,3.0517578125e-05,-0.000156402587890625,-27.91400146484375
1743585323.9667685,0.0,-0.0,"[174.0, 185.0, 180.0, 156.0, 154.0, 154.0, 156.0, 181.0, 185.0, 174.0]",0.1312982589006424,0.0,3.0517578125e-05,-0.00016021728515625,-27.91136932373047
1743585323.9871647,0.0,-0.0,"[174.0, 185.0, 180.0, 156.0, 154.0, 154.0, 156.0, 181.0, 185.0, 174.0]",0.11116623133420944,0.0,0.0,-0.000164031982421875,-27.913597106933594
1743585324.0081358,0.0,-0.0,"[174.0, 185.0, 180.0, 156.0, 154.0, 154.0, 156.0, 181.0, 185.0, 174.0]",0.1801142692565918,0.0,0.0,-0.0001678466796875,-27.909988403320312
1743585324.0268185,0.0,-0.0,"[174.0, 185.0, 180.0, 156.0, 154.0, 154.0, 156.0, 181.0, 185.0, 174.0]",0.1427924931049347,0.0,0.0,-0.0001697540283203125,-27.907135009765625
1743585324.0473864,0.0,-0.0,"[174.0, 185.0, 180.0, 156.0, 154.0, 154.0, 156.0, 181.0, 185.0, 174.0]",0.021502194926142693,0.0,0.0,-0.000171661376953125,-27.907562255859375
1743585324.0676603,0.0,-0.0,"[174.0, 185.0, 180.0, 156.0, 154.0, 154.0, 156.0, 181.0, 185.0, 174.0]",0.1905985027551651,0.0,0.0,-0.00017547607421875,-27.90375518798828
1743585324.0868113,0.0,-0.0,"[174.0, 185.0, 180.0, 156.0, 154.0, 154.0, 156.0, 181.0, 185.0, 174.0]",0.13800741732120514,0.0,-3.0517578125e-05,-0.0001773834228515625,-27.90099334716797
1743585324.1072023,0.0,-0.0,"[174.0, 185.0, 180.0, 156.0, 154.0, 154.0, 156.0, 181.0, 185.0, 174.0]",0.05835934728384018,0.0,-3.0517578125e-05,-0.000179290771484375,-27.90216064453125
1743585324.1268938,0.0,-0.0,"[174.0, 185.0, 180.0, 156.0, 154.0, 154.0, 156.0, 181.0, 185.0, 174.0]",0.17676712572574615,0.0,-3.0517578125e-05,-0.000179290771484375,-27.89862060546875
1743585324.1466107,0.0,-0.0,"[174.0, 185.0, 180.0, 156.0, 154.0, 154.0, 156.0, 181.0, 185.0, 174.0]",0.13857445120811462,0.0,-3.0517578125e-05,-0.0001811981201171875,-27.895851135253906
1743585324.1678617,0.0,-0.0,"[174.0, 185.0, 180.0, 156.0, 154.0, 154.0, 156.0, 181.0, 185.0, 174.0]",0.05376637727022171,0.0,-3.0517578125e-05,-0.00018310546875,-27.896926879882812
1743585324.1887136,0.0,-0.0,"[174.0, 185.0, 180.0, 156.0, 154.0, 154.0, 156.0, 181.0, 185.0, 174.0]",0.18427421152591705,0.0,-3.0517578125e-05,-0.00018310546875,-27.89324188232422
1743585324.2081497,0.0,-0.0,"[174.0, 185.0, 180.0, 156.0, 154.0, 154.0, 156.0, 181.0, 185.0, 174.0]",0.14381062984466553,0.0,-6.103515625e-05,-0.00018310546875,-27.890365600585938
1743585324.2273018,0.0,-0.0,"[174.0, 185.0, 180.0, 156.0, 154.0, 154.0, 156.0, 181.0, 185.0, 174.0]",0.01427772268652916,0.0,-6.103515625e-05,-0.0001850128173828125,-27.890655517578125
1743585324.2470717,0.0,-0.0,"[174.0, 185.0, 180.0, 156.0, 154.0, 154.0, 156.0, 181.0, 185.0, 174.0]",0.14425313472747803,0.0,-6.103515625e-05,-0.0001850128173828125,-27.887771606445312
1743585324.267731,0.0,-0.0,"[174.0, 185.0, 180.0, 156.0, 154.0, 154.0, 156.0, 181.0, 185.0, 174.0]",0.004591100849211216,0.0,-6.103515625e-05,-0.0001850128173828125,-27.887863159179688
1743585324.2874207,0.0,-0.0,"[174.0, 185.0, 180.0, 156.0, 154.0, 154.0, 156.0, 181.0, 185.0, 174.0]",0.02202199213206768,0.0,-6.103515625e-05,-0.0001850128173828125,-27.887420654296875
1743585324.3076448,0.0,-0.0,"[174.0, 185.0, 180.0, 156.0, 154.0, 154.0, 156.0, 181.0, 185.0, 174.0]",0.1967606544494629,0.0,-6.103515625e-05,-0.0001850128173828125,-27.891357421875
1743585324.3276324,0.0,-0.0,"[174.0, 185.0, 180.0, 156.0, 154.0, 154.0, 156.0, 181.0, 185.0, 174.0]",0.12112808972597122,0.0,-3.0517578125e-05,-0.00018310546875,-27.893775939941406
1743585324.3474722,0.0,-0.0,"[174.0, 185.0, 180.0, 156.0, 154.0, 154.0, 156.0, 181.0, 185.0, 174.0]",0.16545574367046356,0.0,-3.0517578125e-05,-0.00018310546875,-27.890464782714844
1743585324.3673706,0.0,-0.0,"[174.0, 185.0, 180.0, 156.0, 154.0, 154.0, 156.0, 181.0, 185.0, 174.0]",0.10386005789041519,0.0,-3.0517578125e-05,-0.00018310546875,-27.888389587402344
1743585324.388917,0.0,-0.0,"[174.0, 185.0, 180.0, 156.0, 154.0, 154.0, 156.0, 181.0, 185.0, 174.0]",0.19478614628314972,0.0,-6.103515625e-05,-0.00018310546875,-27.892288208007812
1743585324.410117,0.0,-0.0,"[174.0, 185.0, 180.0, 156.0, 154.0, 154.0, 156.0, 181.0, 185.0, 174.0]",0.12667818367481232,0.0,-3.0517578125e-05,-0.00018310546875,-27.894821166992188
1743585324.4268608,0.0,-0.0,"[174.0, 185.0, 180.0, 156.0, 154.0, 154.0, 156.0, 181.0, 185.0, 174.0]",0.13909116387367249,0.0,-3.0517578125e-05,-0.0001811981201171875,-27.89203643798828
1743585324.4470308,0.0,-0.0,"[174.0, 185.0, 180.0, 156.0, 154.0, 154.0, 156.0, 181.0, 185.0, 174.0]",0.033923689275979996,0.0,-3.0517578125e-05,-0.0001811981201171875,-27.892715454101562
1743585324.468035,0.0,-0.0,"[174.0, 185.0, 180.0, 156.0, 154.0, 154.0, 156.0, 181.0, 185.0, 174.0]",0.20498232543468475,0.0,-3.0517578125e-05,-0.0001811981201171875,-27.88861846923828
1743585324.4869492,0.0,-0.0,"[174.0, 185.0, 180.0, 156.0, 154.0, 154.0, 156.0, 181.0, 185.0, 174.0]",0.08259088546037674,0.0,-3.0517578125e-05,-0.0001811981201171875,-27.886962890625
1743585324.5083365,0.0,-0.0,"[174.0, 185.0, 180.0, 156.0, 154.0, 154.0, 156.0, 181.0, 185.0, 174.0]",0.1972525715827942,0.0,-3.0517578125e-05,-0.0001811981201171875,-27.890907287597656
1743585324.5278535,0.0,-0.0,"[174.0, 185.0, 180.0, 156.0, 154.0, 154.0, 156.0, 181.0, 185.0, 174.0]",0.11996085941791534,0.0,-3.0517578125e-05,-0.0001811981201171875,-27.893310546875
1743585324.547318,0.0,-0.0,"[174.0, 185.0, 180.0, 156.0, 154.0, 154.0, 156.0, 181.0, 185.0, 174.0]",0.17170450091362,0.0,-3.0517578125e-05,-0.0001811981201171875,-27.889877319335938
1743585324.56729,0.0,-0.0,"[174.0, 185.0, 180.0, 156.0, 154.0, 154.0, 156.0, 181.0, 185.0, 174.0]",0.1276143193244934,0.0,-3.0517578125e-05,-0.000179290771484375,-27.88732147216797
1743585324.5881686,0.0,-0.12560943838624436,"[174.0, 185.0, 180.0, 156.0, 154.0, 154.0, 156.0, 181.0, 185.0, 174.0]",0.13675707578659058,0.0,-3.0517578125e-05,-0.000179290771484375,-27.890060424804688
1743585324.609327,0.0,-0.13126651531504707,"[174.0, 185.0, 180.0, 156.0, 154.0, 154.0, 156.0, 181.0, 185.0, 174.0]",0.05558500066399574,0.0,-3.0517578125e-05,-0.000179290771484375,-27.888946533203125
1743585324.6275868,0.0,-0.1334251367747218,"[174.0, 185.0, 180.0, 156.0, 154.0, 154.0, 156.0, 181.0, 185.0, 174.0]",0.17840860784053802,0.0,-3.0517578125e-05,-0.000179290771484375,-27.89251708984375
