timestamp,steering_input,acceleration_input,raycasts,speed,steering,position_x,position_y,position_z
1743580779.1674674,0.0,-0.0,"[174.0, 185.0, 227.0, 295.0, 259.0, 259.0, 295.0, 227.0, 185.0, 174.0]",0.0,0.0,0.0,0.10000038146972656,-27.93000030517578
1743580779.3833616,0.0,-0.0,"[174.0, 185.0, 178.0, 155.0, 154.0, 154.0, 156.0, 179.0, 185.0, 174.0]",0.1431841105222702,0.0,0.0,0.097137451171875,-27.93000030517578
1743580779.4394674,0.0,-0.0,"[174.0, 185.0, 178.0, 155.0, 154.0, 154.0, 156.0, 179.0, 185.0, 174.0]",0.2360968291759491,0.0,0.0,0.09241485595703125,-27.93000030517578
1743580779.443882,0.0,-0.0,"[174.0, 185.0, 178.0, 155.0, 154.0, 154.0, 156.0, 179.0, 185.0, 174.0]",0.30777978897094727,0.0,0.0,0.08625984191894531,-27.93000030517578
1743580779.4778454,0.0,-0.0,"[174.0, 185.0, 179.0, 155.0, 154.0, 154.0, 156.0, 179.0, 185.0, 174.0]",0.36006540060043335,0.0,0.0,0.07905769348144531,-27.93000030517578
1743580779.481875,0.0,-0.0,"[174.0, 185.0, 179.0, 155.0, 154.0, 154.0, 156.0, 179.0, 185.0, 174.0]",0.3949472904205322,0.0,0.0,0.07115936279296875,-27.93000030517578
1743580779.5129113,0.0,-0.0,"[174.0, 185.0, 179.0, 155.0, 154.0, 154.0, 156.0, 180.0, 185.0, 174.0]",0.41450235247612,0.0,0.0,0.06286811828613281,-27.93000030517578
1743580779.5159767,0.0,-0.0,"[174.0, 185.0, 179.0, 155.0, 154.0, 154.0, 156.0, 180.0, 185.0, 174.0]",0.42082807421684265,0.0,0.0,0.05445289611816406,-27.93000030517578
1743580779.5465865,0.0,-0.0,"[174.0, 185.0, 179.0, 155.0, 154.0, 154.0, 156.0, 181.0, 185.0, 174.0]",0.41598936915397644,0.0,0.0,0.04613304138183594,-27.93000030517578
1743580779.5506766,0.0,-0.0,"[174.0, 185.0, 179.0, 155.0, 154.0, 154.0, 156.0, 181.0, 185.0, 174.0]",0.4019714593887329,0.0,0.0,0.03809356689453125,-27.93000030517578
1743580779.5848916,0.0,-0.0,"[174.0, 185.0, 179.0, 156.0, 154.0, 154.0, 156.0, 181.0, 185.0, 174.0]",0.3806484043598175,0.0,0.0,0.03047943115234375,-27.93000030517578
1743580779.5892599,0.0,-0.0,"[174.0, 185.0, 179.0, 156.0, 154.0, 154.0, 156.0, 181.0, 185.0, 174.0]",0.3537571132183075,0.0,0.0,0.023405075073242188,-27.93000030517578
1743580779.6198637,0.0,-0.0,"[174.0, 185.0, 180.0, 156.0, 154.0, 154.0, 156.0, 181.0, 185.0, 174.0]",0.3228750228881836,0.0,0.0,0.016946792602539062,-27.92999267578125
1743580779.623486,0.0,-0.0,"[174.0, 185.0, 180.0, 156.0, 154.0, 154.0, 156.0, 181.0, 185.0, 174.0]",0.28941938281059265,0.0,0.0,0.011159896850585938,-27.930038452148438
1743580779.6536608,0.0,-0.0,"[174.0, 185.0, 180.0, 156.0, 154.0, 154.0, 156.0, 181.0, 185.0, 174.0]",0.2562173306941986,0.0,0.0,0.0060672760009765625,-27.929466247558594
1743580779.6853602,0.0,-0.0,"[174.0, 185.0, 181.0, 156.0, 154.0, 154.0, 156.0, 181.0, 185.0, 174.0]",0.34839218854904175,0.0,0.0,0.0016765594482421875,-27.93487548828125
1743580779.6883433,0.0,-0.0,"[174.0, 185.0, 181.0, 156.0, 154.0, 154.0, 156.0, 181.0, 185.0, 174.0]",0.255353718996048,0.0,0.0,-0.0020236968994140625,-27.931358337402344
1743580779.7183127,0.0,-0.0,"[174.0, 185.0, 181.0, 156.0, 154.0, 154.0, 156.0, 181.0, 185.0, 174.0]",0.2815416157245636,0.0,0.0,-0.0050601959228515625,-27.926612854003906
1743580779.751875,0.0,-0.0,"[174.0, 185.0, 181.0, 156.0, 154.0, 154.0, 156.0, 181.0, 185.0, 174.0]",0.15634490549564362,0.0,0.0,-0.007472991943359375,-27.928604125976562
1743580779.7548206,0.0,-0.0,"[174.0, 185.0, 181.0, 156.0, 154.0, 154.0, 156.0, 181.0, 185.0, 174.0]",0.27455902099609375,0.0,0.0,-0.009307861328125,-27.923431396484375
1743580779.790412,0.0,-0.0,"[174.0, 185.0, 181.0, 156.0, 154.0, 154.0, 156.0, 181.0, 185.0, 174.0]",0.2245660424232483,0.0,0.0,-0.010616302490234375,-27.92772674560547
1743580779.794274,0.0,-0.0,"[174.0, 185.0, 181.0, 156.0, 154.0, 154.0, 156.0, 181.0, 185.0, 174.0]",0.08891011029481888,0.0,0.0,-0.011455535888671875,-27.929290771484375
1743580779.8275867,0.0,-0.0,"[174.0, 185.0, 181.0, 156.0, 154.0, 154.0, 156.0, 181.0, 185.0, 174.0]",0.1896505206823349,0.0,0.0,-0.011884689331054688,-27.925521850585938
1743580779.8311205,0.0,-0.0,"[174.0, 185.0, 181.0, 156.0, 154.0, 154.0, 156.0, 181.0, 185.0, 174.0]",0.2066076397895813,0.0,0.0,-0.011960983276367188,-27.92139434814453
1743580779.8680906,0.0,-0.0,"[174.0, 185.0, 181.0, 156.0, 154.0, 154.0, 156.0, 181.0, 185.0, 174.0]",0.12101753056049347,0.0,0.0,-0.011743545532226562,-27.918983459472656
1743580779.8775816,0.0,-0.0,"[174.0, 185.0, 181.0, 156.0, 154.0, 154.0, 156.0, 181.0, 185.0, 174.0]",0.19259010255336761,0.0,0.0,-0.011285781860351562,-27.922805786132812
1743580779.9102437,0.0,-0.0,"[174.0, 185.0, 181.0, 156.0, 154.0, 154.0, 156.0, 181.0, 185.0, 174.0]",0.17800575494766235,0.0,0.0,-0.010637283325195312,-27.926307678222656
1743580779.9165425,0.0,-0.0,"[174.0, 185.0, 181.0, 156.0, 154.0, 154.0, 156.0, 181.0, 185.0, 174.0]",0.16013549268245697,0.0,0.0,-0.009847640991210938,-27.929412841796875
1743580779.9497159,0.0,-0.0,"[174.0, 185.0, 181.0, 156.0, 154.0, 154.0, 156.0, 181.0, 185.0, 174.0]",0.07219173014163971,0.0,0.0,-0.0089569091796875,-27.9305419921875
1743580779.9550183,0.0,-0.0,"[174.0, 185.0, 181.0, 156.0, 154.0, 154.0, 156.0, 181.0, 185.0, 174.0]",0.1852148175239563,0.0,0.0,-0.008007049560546875,-27.926963806152344
1743580779.9881098,0.0,-0.0,"[174.0, 185.0, 181.0, 156.0, 154.0, 154.0, 156.0, 181.0, 185.0, 174.0]",0.15632963180541992,0.0,0.0,-0.00702667236328125,-27.923995971679688
1743580779.9921548,0.0,-0.0,"[174.0, 185.0, 181.0, 156.0, 154.0, 154.0, 156.0, 181.0, 185.0, 174.0]",0.051327187567949295,0.0,0.0,-0.0060482025146484375,-27.923690795898438
1743580780.024049,0.0,-0.0,"[174.0, 185.0, 181.0, 156.0, 154.0, 154.0, 156.0, 181.0, 185.0, 174.0]",0.15988554060459137,0.0,0.0,-0.0050907135009765625,-27.926742553710938
1743580780.02894,0.0,-0.0,"[174.0, 185.0, 181.0, 156.0, 154.0, 154.0, 156.0, 181.0, 185.0, 174.0]",0.05791441351175308,0.0,0.0,-0.004177093505859375,-27.927452087402344
1743580780.0606167,0.0,-0.0,"[174.0, 185.0, 181.0, 156.0, 154.0, 154.0, 156.0, 181.0, 185.0, 174.0]",0.19991730153560638,0.0,0.0,-0.0033206939697265625,-27.923545837402344
1743580780.0941489,0.0,-0.0,"[174.0, 185.0, 180.0, 156.0, 154.0, 154.0, 156.0, 181.0, 185.0, 174.0]",0.12208718806505203,0.0,0.0,-0.0025310516357421875,-27.921234130859375
1743580780.0979059,0.0,-0.0,"[174.0, 185.0, 180.0, 156.0, 154.0, 154.0, 156.0, 181.0, 185.0, 174.0]",0.18460233509540558,0.0,0.0,-0.0018177032470703125,-27.92485809326172
1743580780.1293836,0.0,-0.0,"[174.0, 185.0, 181.0, 156.0, 154.0, 154.0, 156.0, 181.0, 185.0, 174.0]",0.13353228569030762,0.0,0.0,-0.0011844635009765625,-27.927452087402344
1743580780.1339388,0.0,-0.0,"[174.0, 185.0, 181.0, 156.0, 154.0, 154.0, 156.0, 181.0, 185.0, 174.0]",0.11446059495210648,0.0,3.0517578125e-05,-0.00063323974609375,-27.92523193359375
1743580780.167618,0.0,-0.0,"[174.0, 185.0, 181.0, 156.0, 154.0, 154.0, 156.0, 181.0, 185.0, 174.0]",0.18039268255233765,0.0,3.0517578125e-05,-0.0001621246337890625,-27.928802490234375
1743580780.174244,0.0,-0.0,"[174.0, 185.0, 181.0, 156.0, 154.0, 154.0, 156.0, 181.0, 185.0, 174.0]",0.12967412173748016,0.0,3.0517578125e-05,0.0002288818359375,-27.931365966796875
1743580780.2126775,0.0,-0.0,"[174.0, 185.0, 181.0, 156.0, 154.0, 154.0, 156.0, 181.0, 185.0, 174.0]",0.1237604022026062,0.0,3.0517578125e-05,0.000545501708984375,-27.928909301757812
1743580780.2176304,0.0,-0.0,"[174.0, 185.0, 181.0, 156.0, 154.0, 154.0, 156.0, 181.0, 185.0, 174.0]",0.1935333013534546,0.0,3.0517578125e-05,0.0007915496826171875,-27.932777404785156
1743580780.2534804,0.0,-0.0,"[174.0, 185.0, 181.0, 156.0, 154.0, 154.0, 156.0, 181.0, 185.0, 174.0]",0.12180628627538681,0.0,6.103515625e-05,0.000972747802734375,-27.935203552246094
1743580780.2586617,0.0,-0.0,"[174.0, 185.0, 181.0, 156.0, 154.0, 154.0, 156.0, 181.0, 185.0, 174.0]",0.16159525513648987,0.0,6.103515625e-05,0.0010967254638671875,-27.931976318359375
1743580780.2919772,0.0,-0.0,"[174.0, 185.0, 181.0, 156.0, 154.0, 154.0, 156.0, 181.0, 185.0, 174.0]",0.0772232785820961,0.0,6.103515625e-05,0.0011692047119140625,-27.930435180664062
1743580780.2955155,0.0,-0.0,"[174.0, 185.0, 181.0, 156.0, 154.0, 154.0, 156.0, 181.0, 185.0, 174.0]",0.184142604470253,0.0,6.103515625e-05,0.00119781494140625,-27.934112548828125
1743580780.3268166,0.0,-0.0,"[174.0, 185.0, 181.0, 156.0, 154.0, 154.0, 156.0, 181.0, 185.0, 174.0]",0.1367751508951187,0.0,6.103515625e-05,0.0011882781982421875,-27.936851501464844
1743580780.3312414,0.0,-0.0,"[174.0, 185.0, 181.0, 156.0, 154.0, 154.0, 156.0, 181.0, 185.0, 174.0]",0.06419677287340164,0.0,6.103515625e-05,0.001148223876953125,-27.935569763183594
1743580780.363199,0.0,-0.0,"[174.0, 185.0, 181.0, 156.0, 154.0, 154.0, 156.0, 181.0, 185.0, 174.0]",0.1747168004512787,0.0,6.103515625e-05,0.0010833740234375,-27.939064025878906
1743580780.3674207,0.0,-0.0,"[174.0, 185.0, 181.0, 156.0, 154.0, 154.0, 156.0, 181.0, 185.0, 174.0]",0.1311485320329666,0.0,9.1552734375e-05,0.00099945068359375,-27.941680908203125
1743580780.4032393,0.0,-0.0,"[174.0, 185.0, 181.0, 156.0, 154.0, 154.0, 156.0, 181.0, 185.0, 174.0]",0.11074256151914597,0.0,9.1552734375e-05,0.0009002685546875,-27.939468383789062
1743580780.410905,0.0,-0.0,"[174.0, 185.0, 181.0, 156.0, 154.0, 154.0, 156.0, 181.0, 185.0, 174.0]",0.1801898330450058,0.0,9.1552734375e-05,0.00079345703125,-27.943069458007812
1743580780.4427314,0.0,-0.0,"[174.0, 185.0, 181.0, 156.0, 154.0, 154.0, 156.0, 181.0, 185.0, 174.0]",0.14138393104076385,0.0,9.1552734375e-05,0.00067901611328125,-27.945899963378906
1743580780.4473262,0.0,-0.0,"[174.0, 185.0, 181.0, 156.0, 154.0, 154.0, 156.0, 181.0, 185.0, 174.0]",0.0333004854619503,0.0,9.1552734375e-05,0.0005645751953125,-27.94524383544922
1743580780.4841745,0.0,-0.0,"[174.0, 185.0, 181.0, 156.0, 154.0, 154.0, 156.0, 181.0, 185.0, 174.0]",0.19635771214962006,0.0,9.1552734375e-05,0.0004520416259765625,-27.94916534423828
1743580780.5208807,0.0,-0.0,"[174.0, 185.0, 181.0, 156.0, 154.0, 154.0, 156.0, 181.0, 185.0, 174.0]",0.12271545082330704,0.0,0.0001220703125,0.00034332275390625,-27.951614379882812
1743580780.5247905,0.0,-0.0,"[174.0, 185.0, 181.0, 156.0, 154.0, 154.0, 156.0, 181.0, 185.0, 174.0]",0.15798240900039673,0.0,0.0001220703125,0.0002384185791015625,-27.948455810546875
1743580780.5589695,0.0,-0.0,"[174.0, 185.0, 181.0, 156.0, 154.0, 154.0, 156.0, 181.0, 185.0, 174.0]",0.0622306689620018,0.0,0.0001220703125,0.0001430511474609375,-27.947219848632812
1743580780.5650163,0.0,-0.0,"[174.0, 185.0, 181.0, 156.0, 154.0, 154.0, 156.0, 181.0, 185.0, 174.0]",0.17492303252220154,0.0,0.0001220703125,5.53131103515625e-05,-27.950714111328125
1743580780.59845,0.0,-0.0,"[174.0, 185.0, 181.0, 156.0, 154.0, 154.0, 156.0, 181.0, 185.0, 174.0]",0.13653863966464996,0.0,0.0001220703125,-2.288818359375e-05,-27.953445434570312
1743580780.6041455,0.0,-0.0,"[174.0, 185.0, 181.0, 156.0, 154.0, 154.0, 156.0, 181.0, 185.0, 174.0]",0.0718504786491394,0.0,0.0001220703125,-9.34600830078125e-05,-27.952011108398438
1743580780.6881416,0.0,-0.0,"[174.0, 185.0, 181.0, 156.0, 154.0, 154.0, 156.0, 181.0, 185.0, 174.0]",0.17569200694561005,0.0,0.0001220703125,-0.000152587890625,-27.955520629882812
1743580780.6916392,0.0,-0.0,"[174.0, 185.0, 181.0, 156.0, 154.0, 154.0, 156.0, 181.0, 185.0, 174.0]",0.13826613128185272,0.0,0.000152587890625,-0.000202178955078125,-27.958290100097656
1743580780.6949923,0.0,-0.0,"[174.0, 185.0, 181.0, 156.0, 154.0, 154.0, 156.0, 181.0, 185.0, 174.0]",0.05745533108711243,0.0,0.000152587890625,-0.000244140625,-27.957138061523438
1743580780.6977794,0.0,-0.0,"[174.0, 185.0, 181.0, 156.0, 154.0, 154.0, 156.0, 181.0, 185.0, 174.0]",0.1775936484336853,0.0,0.000152587890625,-0.000278472900390625,-27.960693359375
1743580780.7008204,0.0,-0.0,"[174.0, 185.0, 181.0, 156.0, 154.0, 154.0, 156.0, 181.0, 185.0, 174.0]",0.14114311337471008,0.0,0.000152587890625,-0.0003032684326171875,-27.963516235351562
1743580780.732341,0.0,-0.0,"[174.0, 185.0, 181.0, 156.0, 154.0, 154.0, 156.0, 181.0, 185.0, 174.0]",0.034520473331213,0.0,0.000152587890625,-0.0003204345703125,-27.96282196044922
1743580780.7364762,0.0,-0.0,"[174.0, 185.0, 181.0, 156.0, 154.0, 154.0, 156.0, 181.0, 185.0, 174.0]",0.20195074379444122,0.0,0.00018310546875,-0.000331878662109375,-27.96686553955078
1743580780.7687001,0.0,-0.0,"[174.0, 185.0, 181.0, 156.0, 154.0, 154.0, 156.0, 181.0, 185.0, 174.0]",0.09901262819766998,0.0,0.00018310546875,-0.000339508056640625,-27.968841552734375
1743580780.7717948,0.0,-0.0,"[174.0, 185.0, 181.0, 156.0, 154.0, 154.0, 156.0, 181.0, 185.0, 174.0]",0.20315459370613098,0.0,0.00018310546875,-0.000339508056640625,-27.96478271484375
1743580780.8053226,0.0,-0.0,"[174.0, 185.0, 181.0, 156.0, 154.0, 154.0, 156.0, 181.0, 185.0, 174.0]",0.09250973165035248,0.0,0.000152587890625,-0.0003376007080078125,-27.962928771972656
1743580780.810323,0.0,-0.0,"[174.0, 185.0, 181.0, 156.0, 154.0, 154.0, 156.0, 181.0, 185.0, 174.0]",0.21048150956630707,0.0,0.00018310546875,-0.000331878662109375,-27.967140197753906
1743580780.8453765,0.0,-0.0,"[174.0, 185.0, 181.0, 156.0, 154.0, 154.0, 156.0, 181.0, 185.0, 174.0]",0.054807256907224655,0.0,0.00018310546875,-0.0003223419189453125,-27.968238830566406
1743580780.848891,0.0,-0.0,"[174.0, 185.0, 181.0, 156.0, 154.0, 154.0, 156.0, 181.0, 185.0, 174.0]",0.18342110514640808,0.0,0.00018310546875,-0.00031280517578125,-27.964569091796875
1743580780.8802717,0.0,-0.0,"[174.0, 185.0, 181.0, 156.0, 154.0, 154.0, 156.0, 181.0, 185.0, 174.0]",0.14437030255794525,0.0,0.000152587890625,-0.0002994537353515625,-27.961685180664062
1743580780.883168,0.0,-0.0,"[174.0, 185.0, 181.0, 156.0, 154.0, 154.0, 156.0, 181.0, 185.0, 174.0]",0.010325106792151928,0.0,0.000152587890625,-0.0002880096435546875,-27.961883544921875
1743580780.9151845,0.0,-0.0,"[174.0, 185.0, 181.0, 156.0, 154.0, 154.0, 156.0, 181.0, 185.0, 174.0]",0.08798801898956299,0.0,0.000152587890625,-0.000274658203125,-27.960128784179688
1743580780.94622,0.0,-0.0,"[174.0, 185.0, 181.0, 156.0, 154.0, 154.0, 156.0, 181.0, 185.0, 174.0]",0.2099931389093399,0.0,0.00018310546875,-0.0002613067626953125,-27.964324951171875
1743580780.9493947,0.0,-0.0,"[174.0, 185.0, 181.0, 156.0, 154.0, 154.0, 156.0, 181.0, 185.0, 174.0]",0.05686913803219795,0.0,0.00018310546875,-0.000247955322265625,-27.96546173095703
1743580780.9813938,0.0,-0.0,"[174.0, 185.0, 181.0, 156.0, 154.0, 154.0, 156.0, 181.0, 185.0, 174.0]",0.17966091632843018,0.0,0.00018310546875,-0.0002346038818359375,-27.961868286132812
1743580780.9859343,0.0,-0.0,"[174.0, 185.0, 181.0, 156.0, 154.0, 154.0, 156.0, 181.0, 185.0, 174.0]",0.14235873520374298,0.0,0.000152587890625,-0.0002231597900390625,-27.959022521972656
1743580781.0171418,0.0,-0.0,"[174.0, 185.0, 181.0, 156.0, 154.0, 154.0, 156.0, 181.0, 185.0, 174.0]",0.024575751274824142,0.0,0.000152587890625,-0.000213623046875,-27.959518432617188
1743580781.0478628,0.0,-0.0,"[174.0, 185.0, 181.0, 156.0, 154.0, 154.0, 156.0, 181.0, 185.0, 174.0]",0.1880163848400116,0.0,0.000152587890625,-0.0002040863037109375,-27.95575714111328
1743580781.0507808,0.0,-0.0,"[174.0, 185.0, 181.0, 156.0, 154.0, 154.0, 156.0, 181.0, 185.0, 174.0]",0.14146263897418976,0.0,0.000152587890625,-0.000194549560546875,-27.952926635742188
1743580781.0814111,0.0,-0.0,"[174.0, 185.0, 181.0, 156.0, 154.0, 154.0, 156.0, 181.0, 185.0, 174.0]",0.031307123601436615,0.0,0.000152587890625,-0.000186920166015625,-27.95355224609375
1743580781.0842607,0.0,-0.0,"[174.0, 185.0, 181.0, 156.0, 154.0, 154.0, 156.0, 181.0, 185.0, 174.0]",0.19213135540485382,0.0,0.000152587890625,-0.0001811981201171875,-27.94970703125
1743580781.115974,0.0,-0.0,"[174.0, 185.0, 181.0, 156.0, 154.0, 154.0, 156.0, 181.0, 185.0, 174.0]",0.1337447315454483,0.0,0.0001220703125,-0.00017547607421875,-27.947036743164062
1743580781.146422,0.0,-0.0,"[174.0, 185.0, 181.0, 156.0, 154.0, 154.0, 156.0, 181.0, 185.0, 174.0]",0.09263762831687927,0.0,0.0001220703125,-0.000171661376953125,-27.948883056640625
1743580781.1506832,0.0,-0.0,"[174.0, 185.0, 181.0, 156.0, 154.0, 154.0, 156.0, 181.0, 185.0, 174.0]",0.2106226533651352,0.0,0.0001220703125,-0.0001678466796875,-27.944671630859375
1743580781.184657,0.0,-0.0,"[174.0, 185.0, 181.0, 156.0, 154.0, 154.0, 156.0, 181.0, 185.0, 174.0]",0.053793199360370636,0.0,0.0001220703125,-0.000164031982421875,-27.94359588623047
1743580781.1898973,0.0,-0.0,"[174.0, 185.0, 181.0, 156.0, 154.0, 154.0, 156.0, 181.0, 185.0, 174.0]",0.18583746254444122,0.0,0.0001220703125,-0.0001621246337890625,-27.947311401367188
1743580781.2198565,0.0,-0.0,"[174.0, 185.0, 181.0, 156.0, 154.0, 154.0, 156.0, 181.0, 185.0, 174.0]",0.1430375576019287,0.0,0.0001220703125,-0.0001621246337890625,-27.950180053710938
1743580781.2234156,0.0,-0.0,"[174.0, 185.0, 181.0, 156.0, 154.0, 154.0, 156.0, 181.0, 185.0, 174.0]",0.019723525270819664,0.0,0.0001220703125,-0.0001621246337890625,-27.949783325195312
1743580781.2538233,0.0,-0.0,"[174.0, 185.0, 181.0, 156.0, 154.0, 154.0, 156.0, 181.0, 185.0, 174.0]",0.18836303055286407,0.0,0.0001220703125,-0.0001621246337890625,-27.95355224609375
1743580781.2853496,0.0,-0.0,"[174.0, 185.0, 181.0, 156.0, 154.0, 154.0, 156.0, 181.0, 185.0, 174.0]",0.14051376283168793,0.0,0.0001220703125,-0.0001621246337890625,-27.95635986328125
1743580781.287933,0.0,-0.0,"[174.0, 185.0, 181.0, 156.0, 154.0, 154.0, 156.0, 181.0, 185.0, 174.0]",0.038770899176597595,0.0,0.000152587890625,-0.0001621246337890625,-27.955581665039062
1743580781.317032,0.0,-0.0,"[174.0, 185.0, 181.0, 156.0, 154.0, 154.0, 156.0, 181.0, 185.0, 174.0]",0.20928703248500824,0.0,0.000152587890625,-0.000164031982421875,-27.95977020263672
1743580781.3477547,0.0,-0.0,"[174.0, 185.0, 181.0, 156.0, 154.0, 154.0, 156.0, 181.0, 185.0, 174.0]",0.0603407584130764,0.0,0.000152587890625,-0.000164031982421875,-27.960975646972656
1743580781.3509722,0.0,-0.0,"[174.0, 185.0, 181.0, 156.0, 154.0, 154.0, 156.0, 181.0, 185.0, 174.0]",0.176280215382576,0.0,0.000152587890625,-0.0001659393310546875,-27.95745086669922
1743580781.3844876,0.0,-0.0,"[174.0, 185.0, 181.0, 156.0, 154.0, 154.0, 156.0, 181.0, 185.0, 174.0]",0.13787387311458588,0.0,0.000152587890625,-0.0001678466796875,-27.954696655273438
1743580781.389593,0.0,-0.0,"[174.0, 185.0, 181.0, 156.0, 154.0, 154.0, 156.0, 181.0, 185.0, 174.0]",0.059169523417949677,0.0,0.0001220703125,-0.0001697540283203125,-27.95587158203125
1743580781.4244921,0.0,-0.0,"[174.0, 185.0, 181.0, 156.0, 154.0, 154.0, 156.0, 181.0, 185.0, 174.0]",0.17614339292049408,0.0,0.0001220703125,-0.000171661376953125,-27.952354431152344
1743580781.4271843,0.0,-0.0,"[174.0, 185.0, 181.0, 156.0, 154.0, 154.0, 156.0, 181.0, 185.0, 174.0]",0.13753186166286469,0.0,0.0001220703125,-0.000171661376953125,-27.949600219726562
1743580781.4601915,0.0,-0.0,"[174.0, 185.0, 181.0, 156.0, 154.0, 154.0, 156.0, 181.0, 185.0, 174.0]",0.06201857328414917,0.0,0.0001220703125,-0.0001735687255859375,-27.950843811035156
1743580781.5032089,0.0,-0.0,"[174.0, 185.0, 227.0, 295.0, 259.0, 161.0, 182.0, 190.0, 185.0, 174.0]",0.0,0.0,0.0,0.10000038146972656,-27.93000030517578
1743580781.5070343,0.0,-0.0,"[174.0, 185.0, 227.0, 295.0, 259.0, 161.0, 182.0, 190.0, 185.0, 174.0]",0.897580623626709,0.0,0.0,0.08204841613769531,-27.92999267578125
1743580781.5096118,0.0,-0.0,"[174.0, 185.0, 227.0, 295.0, 259.0, 161.0, 182.0, 190.0, 185.0, 174.0]",0.8460528254508972,0.0,0.0,0.06512832641601562,-27.930099487304688
1743580781.5407143,0.0,-0.0,"[174.0, 185.0, 179.0, 155.0, 154.0, 154.0, 156.0, 181.0, 185.0, 174.0]",0.8210605978965759,0.0,0.0,0.049472808837890625,-27.925140380859375
1743580781.5433047,0.0,-0.0,"[174.0, 185.0, 179.0, 155.0, 154.0, 154.0, 156.0, 181.0, 185.0, 174.0]",0.7797173261642456,0.0,0.0,0.035243988037109375,-27.931533813476562
1743580781.5761843,0.0,-0.0,"[174.0, 185.0, 180.0, 156.0, 154.0, 154.0, 156.0, 181.0, 185.0, 174.0]",0.7069539427757263,0.0,0.0,0.022548675537109375,-27.925308227539062
1743580781.6090505,0.0,-0.0,"[174.0, 185.0, 180.0, 156.0, 154.0, 154.0, 156.0, 181.0, 185.0, 174.0]",0.6148791909217834,0.0,0.0,0.011432647705078125,-27.930564880371094
1743580781.6118689,0.0,-0.0,"[174.0, 185.0, 180.0, 156.0, 154.0, 154.0, 156.0, 181.0, 185.0, 174.0]",0.5075908303260803,0.0,0.0,0.0018978118896484375,-27.927078247070312
1743580781.6426167,0.0,-0.0,"[174.0, 185.0, 181.0, 156.0, 154.0, 154.0, 158.0, 181.0, 185.0, 174.0]",0.46816486120224,0.0,0.0,-0.0060901641845703125,-27.922195434570312
1743580781.6459155,0.0,-0.0,"[174.0, 185.0, 181.0, 156.0, 154.0, 154.0, 158.0, 181.0, 185.0, 174.0]",0.3577520251274109,0.0,-3.0517578125e-05,-0.012599945068359375,-27.92516326904297
1743580781.6785135,0.0,-0.0,"[174.0, 185.0, 181.0, 156.0, 154.0, 155.0, 158.0, 183.0, 185.0, 174.0]",0.25637632608413696,0.0,-3.0517578125e-05,-0.017721176147460938,-27.925399780273438
1743580781.7088692,0.0,-0.0,"[174.0, 185.0, 181.0, 156.0, 154.0, 155.0, 158.0, 183.0, 185.0, 174.0]",0.2353096902370453,0.0,-3.0517578125e-05,-0.021564483642578125,-27.922683715820312
1743580781.7116427,0.0,-0.0,"[174.0, 185.0, 181.0, 156.0, 154.0, 155.0, 158.0, 183.0, 185.0, 174.0]",0.16825701296329498,0.0,0.0,-0.024251937866210938,-27.924713134765625
1743580781.742069,0.0,-0.0,"[174.0, 185.0, 181.0, 156.0, 154.0, 154.0, 158.0, 183.0, 185.0, 174.0]",0.2997749149799347,0.0,0.0,-0.025913238525390625,-27.91895294189453
1743580781.744728,0.0,-0.0,"[174.0, 185.0, 181.0, 156.0, 154.0, 154.0, 158.0, 183.0, 185.0, 174.0]",0.2794927656650543,0.0,0.0,-0.026678085327148438,-27.92449188232422
1743580781.7796412,0.0,-0.0,"[174.0, 185.0, 181.0, 156.0, 154.0, 154.0, 158.0, 183.0, 185.0, 174.0]",0.20095019042491913,0.0,0.0,-0.02667999267578125,-27.92047119140625
1743580781.8116336,0.0,-0.0,"[174.0, 185.0, 181.0, 156.0, 154.0, 154.0, 158.0, 183.0, 185.0, 174.0]",0.21347172558307648,0.0,0.0,-0.0260467529296875,-27.916244506835938
1743580781.814367,0.0,-0.0,"[174.0, 185.0, 181.0, 156.0, 154.0, 154.0, 158.0, 183.0, 185.0, 174.0]",0.1372101902961731,0.0,-3.0517578125e-05,-0.024898529052734375,-27.91375732421875
1743580781.845265,0.0,-0.0,"[174.0, 185.0, 181.0, 156.0, 154.0, 154.0, 158.0, 183.0, 185.0, 174.0]",0.20449957251548767,0.0,-3.0517578125e-05,-0.023349761962890625,-27.91754150390625
1743580781.8487444,0.0,-0.0,"[174.0, 185.0, 181.0, 156.0, 154.0, 154.0, 158.0, 183.0, 185.0, 174.0]",0.22043700516223907,0.0,0.0,-0.021505355834960938,-27.921546936035156
1743580781.879706,0.0,-0.0,"[174.0, 185.0, 181.0, 156.0, 154.0, 154.0, 156.0, 181.0, 185.0, 174.0]",0.18125207722187042,0.0,0.0,-0.019456863403320312,-27.924537658691406
1743580781.913124,0.0,-0.0,"[174.0, 185.0, 181.0, 156.0, 154.0, 154.0, 156.0, 181.0, 185.0, 174.0]",0.11073103547096252,0.0,0.0,-0.017292022705078125,-27.92499542236328
1743580781.9160786,0.0,-0.0,"[174.0, 185.0, 181.0, 156.0, 154.0, 154.0, 156.0, 181.0, 185.0, 174.0]",0.22155962884426117,0.0,0.0,-0.015077590942382812,-27.921157836914062
1743580781.945488,0.0,-0.0,"[174.0, 185.0, 181.0, 156.0, 154.0, 154.0, 156.0, 181.0, 185.0, 174.0]",0.1737370640039444,0.0,0.0,-0.012876510620117188,-27.91846466064453
1743580781.9482505,0.0,-0.0,"[174.0, 185.0, 181.0, 156.0, 154.0, 154.0, 156.0, 181.0, 185.0, 174.0]",0.13231690227985382,0.0,-3.0517578125e-05,-0.010740280151367188,-27.920028686523438
1743580781.9806104,0.0,-0.0,"[174.0, 185.0, 181.0, 156.0, 154.0, 154.0, 156.0, 181.0, 185.0, 174.0]",0.21022607386112213,0.0,0.0,-0.008707046508789062,-27.916351318359375
1743580782.0120566,0.0,-0.0,"[174.0, 185.0, 180.0, 156.0, 154.0, 154.0, 156.0, 181.0, 185.0, 174.0]",0.15484467148780823,0.0,-3.0517578125e-05,-0.0068111419677734375,-27.913894653320312
1743580782.0148304,0.0,-0.0,"[174.0, 185.0, 180.0, 156.0, 154.0, 154.0, 156.0, 181.0, 185.0, 174.0]",0.17052802443504333,0.0,-3.0517578125e-05,-0.00507354736328125,-27.916831970214844
1743580782.0457027,0.0,-0.0,"[174.0, 185.0, 180.0, 156.0, 154.0, 154.0, 156.0, 181.0, 185.0, 174.0]",0.07834655791521072,0.0,-3.0517578125e-05,-0.0035076141357421875,-27.91692352294922
1743580782.0497482,0.0,-0.0,"[174.0, 185.0, 180.0, 156.0, 154.0, 154.0, 156.0, 181.0, 185.0, 174.0]",0.07040660828351974,0.0,-3.0517578125e-05,-0.0021266937255859375,-27.916656494140625
1743580782.0817246,0.0,-0.0,"[174.0, 185.0, 180.0, 156.0, 154.0, 154.0, 156.0, 181.0, 185.0, 174.0]",0.11323308944702148,0.0,-3.0517578125e-05,-0.0009288787841796875,-27.9185791015625
1743580782.0854537,0.0,-0.0,"[174.0, 185.0, 180.0, 156.0, 154.0, 154.0, 156.0, 181.0, 185.0, 174.0]",0.1980823129415512,0.0,-3.0517578125e-05,8.7738037109375e-05,-27.914749145507812
1743580782.1169384,0.0,-0.0,"[174.0, 185.0, 180.0, 156.0, 154.0, 154.0, 156.0, 181.0, 185.0, 174.0]",0.11490444839000702,0.0,-3.0517578125e-05,0.000926971435546875,-27.91260528564453
1743580782.1473923,0.0,-0.0,"[174.0, 185.0, 180.0, 156.0, 154.0, 154.0, 156.0, 181.0, 185.0, 174.0]",0.1879541426897049,0.0,-3.0517578125e-05,0.001598358154296875,-27.916305541992188
1743580782.1520731,0.0,-0.0,"[174.0, 185.0, 180.0, 156.0, 154.0, 154.0, 156.0, 181.0, 185.0, 174.0]",0.12028031796216965,0.0,-3.0517578125e-05,0.002117156982421875,-27.918655395507812
1743580782.1888926,0.0,-0.0,"[174.0, 185.0, 180.0, 156.0, 154.0, 154.0, 156.0, 181.0, 185.0, 174.0]",0.17203016579151154,0.0,-3.0517578125e-05,0.0024929046630859375,-27.915237426757812
1743580782.1925504,0.0,-0.0,"[174.0, 185.0, 180.0, 156.0, 154.0, 154.0, 156.0, 181.0, 185.0, 174.0]",0.10664185136556625,0.0,-3.0517578125e-05,0.002742767333984375,-27.913116455078125
1743580782.223418,0.0,-0.0,"[174.0, 185.0, 180.0, 156.0, 154.0, 154.0, 156.0, 181.0, 185.0, 174.0]",0.1868964284658432,0.0,-3.0517578125e-05,0.002880096435546875,-27.916854858398438
1743580782.227366,0.0,-0.0,"[174.0, 185.0, 180.0, 156.0, 154.0, 154.0, 156.0, 181.0, 185.0, 174.0]",0.12546423077583313,0.0,-3.0517578125e-05,0.00292205810546875,-27.919357299804688
1743580782.2580898,0.0,-0.0,"[174.0, 185.0, 180.0, 156.0, 154.0, 154.0, 156.0, 181.0, 185.0, 174.0]",0.13883911073207855,0.0,-3.0517578125e-05,0.0028820037841796875,-27.916580200195312
1743580782.2898583,0.0,-0.0,"[174.0, 185.0, 180.0, 156.0, 154.0, 154.0, 156.0, 181.0, 185.0, 174.0]",0.03079475462436676,0.0,-3.0517578125e-05,0.0027751922607421875,-27.917190551757812
1743580782.2926047,0.0,-0.0,"[174.0, 185.0, 180.0, 156.0, 154.0, 154.0, 156.0, 181.0, 185.0, 174.0]",0.18126411736011505,0.0,-3.0517578125e-05,0.00261688232421875,-27.91356658935547
1743580782.3231304,0.0,-0.0,"[174.0, 185.0, 180.0, 156.0, 154.0, 154.0, 156.0, 181.0, 185.0, 174.0]",0.1358579397201538,0.0,-3.0517578125e-05,0.00241851806640625,-27.910858154296875
1743580782.3263264,0.0,-0.0,"[174.0, 185.0, 180.0, 156.0, 154.0, 154.0, 156.0, 181.0, 185.0, 174.0]",0.07528278231620789,0.0,-3.0517578125e-05,0.00218963623046875,-27.91234588623047
1743580782.3567426,0.0,-0.0,"[174.0, 185.0, 180.0, 156.0, 154.0, 154.0, 156.0, 181.0, 185.0, 174.0]",0.17923186719417572,0.0,-3.0517578125e-05,0.0019435882568359375,-27.908767700195312
1743580782.391143,0.0,-0.0,"[174.0, 185.0, 180.0, 156.0, 154.0, 154.0, 156.0, 181.0, 185.0, 174.0]",0.13960883021354675,0.0,-3.0517578125e-05,0.0016880035400390625,-27.905990600585938
1743580782.3949177,0.0,-0.0,"[174.0, 185.0, 180.0, 156.0, 154.0, 154.0, 156.0, 181.0, 185.0, 174.0]",0.05175352096557617,0.0,-6.103515625e-05,0.001430511474609375,-27.90699005126953
1743580782.428796,0.0,-0.0,"[174.0, 185.0, 180.0, 156.0, 154.0, 154.0, 156.0, 181.0, 185.0, 174.0]",0.19519323110580444,0.0,-6.103515625e-05,0.0011768341064453125,-27.903091430664062
1743580782.431647,0.0,-0.0,"[174.0, 185.0, 180.0, 156.0, 154.0, 154.0, 156.0, 181.0, 185.0, 174.0]",0.13011738657951355,0.0,-6.103515625e-05,0.000934600830078125,-27.90050506591797
1743580782.462794,0.0,-0.0,"[174.0, 185.0, 180.0, 156.0, 154.0, 154.0, 156.0, 181.0, 185.0, 174.0]",0.12539303302764893,0.0,-6.103515625e-05,0.000705718994140625,-27.902999877929688
1743580782.4657505,0.0,-0.0,"[174.0, 185.0, 180.0, 156.0, 154.0, 154.0, 156.0, 181.0, 185.0, 174.0]",0.1940910816192627,0.0,-6.103515625e-05,0.0004940032958984375,-27.899124145507812
1743580782.4954898,0.0,-0.0,"[174.0, 185.0, 180.0, 156.0, 154.0, 154.0, 156.0, 181.0, 185.0, 174.0]",0.13487648963928223,0.0,-9.1552734375e-05,0.000301361083984375,-27.896438598632812
1743580782.5272112,0.0,-0.0,"[174.0, 185.0, 180.0, 156.0, 154.0, 154.0, 156.0, 181.0, 185.0, 174.0]",0.08947348594665527,0.0,-9.1552734375e-05,0.00012969970703125,-27.898216247558594
1743580782.5305955,0.0,-0.0,"[174.0, 185.0, 180.0, 156.0, 154.0, 154.0, 156.0, 181.0, 185.0, 174.0]",0.2115016132593155,0.0,-9.1552734375e-05,-2.09808349609375e-05,-27.89398956298828
1743580782.5621676,0.0,-0.0,"[174.0, 185.0, 180.0, 156.0, 154.0, 154.0, 156.0, 181.0, 185.0, 174.0]",0.05258413776755333,0.0,-9.1552734375e-05,-0.0001506805419921875,-27.8929443359375
1743580782.5658472,0.0,-0.0,"[174.0, 185.0, 180.0, 156.0, 154.0, 154.0, 156.0, 181.0, 185.0, 174.0]",0.1899128407239914,0.0,-9.1552734375e-05,-0.0002593994140625,-27.896743774414062
1743580782.5983922,0.0,-0.0,"[174.0, 185.0, 180.0, 156.0, 154.0, 154.0, 156.0, 181.0, 185.0, 174.0]",0.14203985035419464,0.0,-9.1552734375e-05,-0.000347137451171875,-27.899581909179688
1743580782.630706,0.0,-0.0,"[174.0, 185.0, 180.0, 156.0, 154.0, 154.0, 156.0, 181.0, 185.0, 174.0]",0.02949514240026474,0.0,-9.1552734375e-05,-0.000415802001953125,-27.899002075195312
1743580782.6334226,0.0,-0.0,"[174.0, 185.0, 180.0, 156.0, 154.0, 154.0, 156.0, 181.0, 185.0, 174.0]",0.18901780247688293,0.0,-9.1552734375e-05,-0.000469207763671875,-27.90277862548828
1743580782.6647227,0.0,-0.0,"[174.0, 185.0, 180.0, 156.0, 154.0, 154.0, 156.0, 181.0, 185.0, 174.0]",0.14279110729694366,0.0,-9.1552734375e-05,-0.0005054473876953125,-27.90563201904297
1743580782.668007,0.0,-0.0,"[174.0, 185.0, 180.0, 156.0, 154.0, 154.0, 156.0, 181.0, 185.0, 174.0]",0.02264409139752388,0.0,-6.103515625e-05,-0.0005283355712890625,-27.905181884765625
1743580782.69893,0.0,-0.0,"[174.0, 185.0, 180.0, 156.0, 154.0, 154.0, 156.0, 181.0, 185.0, 174.0]",0.19015580415725708,0.0,-6.103515625e-05,-0.000537872314453125,-27.908981323242188
1743580782.7026548,0.0,-0.0,"[174.0, 185.0, 180.0, 156.0, 154.0, 154.0, 156.0, 181.0, 185.0, 174.0]",0.14095303416252136,0.0,-6.103515625e-05,-0.0005397796630859375,-27.91180419921875
1743580782.7331944,0.0,-0.0,"[174.0, 185.0, 180.0, 156.0, 154.0, 154.0, 156.0, 181.0, 185.0, 174.0]",0.03588072955608368,0.0,-6.103515625e-05,-0.000530242919921875,-27.911087036132812
1743580782.7644284,0.0,-0.0,"[174.0, 185.0, 180.0, 156.0, 154.0, 154.0, 156.0, 181.0, 185.0, 174.0]",0.20570717751979828,0.0,-6.103515625e-05,-0.000514984130859375,-27.915199279785156
1743580782.7672615,0.0,-0.0,"[174.0, 185.0, 180.0, 156.0, 154.0, 154.0, 156.0, 181.0, 185.0, 174.0]",0.07937686145305634,0.0,-6.103515625e-05,-0.00049591064453125,-27.916786193847656
1743580782.8006542,0.0,-0.0,"[174.0, 185.0, 180.0, 156.0, 154.0, 154.0, 156.0, 181.0, 185.0, 174.0]",0.19027641415596008,0.0,-6.103515625e-05,-0.0004711151123046875,-27.912979125976562
1743580782.8341632,0.0,-0.0,"[174.0, 185.0, 180.0, 156.0, 154.0, 154.0, 156.0, 181.0, 185.0, 174.0]",0.13940708339214325,0.0,-6.103515625e-05,-0.0004425048828125,-27.910194396972656
1743580782.838717,0.0,-0.0,"[174.0, 185.0, 180.0, 156.0, 154.0, 154.0, 156.0, 181.0, 185.0, 174.0]",0.04737810045480728,0.0,-6.103515625e-05,-0.0004138946533203125,-27.91114044189453
1743580782.870876,0.0,-0.0,"[174.0, 185.0, 180.0, 156.0, 154.0, 154.0, 156.0, 181.0, 185.0, 174.0]",0.20171593129634857,0.0,-6.103515625e-05,-0.0003833770751953125,-27.9071044921875
1743580782.8742018,0.0,-0.0,"[174.0, 185.0, 180.0, 156.0, 154.0, 154.0, 156.0, 181.0, 185.0, 174.0]",0.10005122423171997,0.0,-6.103515625e-05,-0.000354766845703125,-27.905105590820312
1743580782.908821,0.0,-0.0,"[174.0, 185.0, 180.0, 156.0, 154.0, 154.0, 156.0, 181.0, 185.0, 174.0]",0.20084400475025177,0.0,-9.1552734375e-05,-0.0003261566162109375,-27.90912628173828
1743580782.9113374,0.0,-0.0,"[174.0, 185.0, 180.0, 156.0, 154.0, 154.0, 156.0, 181.0, 185.0, 174.0]",0.10337171703577042,0.0,-6.103515625e-05,-0.00029754638671875,-27.91119384765625
1743580782.940909,0.0,-0.0,"[174.0, 185.0, 180.0, 156.0, 154.0, 154.0, 156.0, 181.0, 185.0, 174.0]",0.19496303796768188,0.0,-6.103515625e-05,-0.0002727508544921875,-27.90729522705078
1743580782.9441607,0.0,-0.0,"[174.0, 185.0, 180.0, 156.0, 154.0, 154.0, 156.0, 181.0, 185.0, 174.0]",0.12589840590953827,0.0,-6.103515625e-05,-0.000247955322265625,-27.90477752685547
1743580782.977706,0.0,-0.0,"[174.0, 185.0, 180.0, 156.0, 154.0, 154.0, 156.0, 181.0, 185.0, 174.0]",0.14281530678272247,0.0,-9.1552734375e-05,-0.0002269744873046875,-27.907630920410156
1743580783.008987,0.0,-0.0,"[174.0, 185.0, 180.0, 156.0, 154.0, 154.0, 156.0, 181.0, 185.0, 174.0]",0.010516160167753696,0.0,-9.1552734375e-05,-0.0002079010009765625,-27.907424926757812
1743580783.0116296,0.0,-0.0,"[174.0, 185.0, 180.0, 156.0, 154.0, 154.0, 156.0, 181.0, 185.0, 174.0]",0.09226641803979874,0.0,-9.1552734375e-05,-0.0001926422119140625,-27.909263610839844
1743580783.0430572,0.0,-0.0,"[174.0, 185.0, 180.0, 156.0, 154.0, 154.0, 156.0, 181.0, 185.0, 174.0]",0.21067342162132263,0.0,-9.1552734375e-05,-0.0001773834228515625,-27.905052185058594
1743580783.0474167,0.0,-0.0,"[174.0, 185.0, 180.0, 156.0, 154.0, 154.0, 156.0, 181.0, 185.0, 174.0]",0.053451988846063614,0.0,-9.1552734375e-05,-0.0001659393310546875,-27.90398406982422
1743580783.0796378,0.0,-0.0,"[174.0, 185.0, 180.0, 156.0, 154.0, 154.0, 156.0, 181.0, 185.0, 174.0]",0.18672245740890503,0.0,-9.1552734375e-05,-0.0001583099365234375,-27.90771484375
1743580783.1103442,0.0,-0.0,"[174.0, 185.0, 180.0, 156.0, 154.0, 154.0, 156.0, 181.0, 185.0, 174.0]",0.14212366938591003,0.0,-9.1552734375e-05,-0.0001506805419921875,-27.910560607910156
1743580783.114462,0.0,-0.0,"[174.0, 185.0, 180.0, 156.0, 154.0, 154.0, 156.0, 181.0, 185.0, 174.0]",0.026379283517599106,0.0,-9.1552734375e-05,-0.00014495849609375,-27.9100341796875
1743580783.1461387,0.0,-0.0,"[174.0, 185.0, 180.0, 156.0, 154.0, 154.0, 156.0, 181.0, 185.0, 174.0]",0.1849987506866455,0.0,-9.1552734375e-05,-0.000141143798828125,-27.913734436035156
1743580783.1505504,0.0,-0.0,"[174.0, 185.0, 180.0, 156.0, 154.0, 154.0, 156.0, 181.0, 185.0, 174.0]",0.14328965544700623,0.0,-6.103515625e-05,-0.0001392364501953125,-27.916595458984375
1743580783.1845217,0.0,-0.0,"[174.0, 185.0, 180.0, 156.0, 154.0, 154.0, 156.0, 181.0, 185.0, 174.0]",0.017892271280288696,0.0,-6.103515625e-05,-0.0001373291015625,-27.916236877441406
1743580783.1892512,0.0,-0.0,"[174.0, 185.0, 180.0, 156.0, 154.0, 154.0, 156.0, 181.0, 185.0, 174.0]",0.18060101568698883,0.0,-6.103515625e-05,-0.0001392364501953125,-27.91985321044922
1743580783.2207384,0.0,-0.0,"[174.0, 185.0, 180.0, 156.0, 154.0, 154.0, 156.0, 181.0, 185.0, 174.0]",0.14320562779903412,0.0,-6.103515625e-05,-0.0001392364501953125,-27.922714233398438
1743580783.223929,0.0,-0.0,"[174.0, 185.0, 180.0, 156.0, 154.0, 154.0, 156.0, 181.0, 185.0, 174.0]",0.018124502152204514,0.0,-6.103515625e-05,-0.000141143798828125,-27.92235565185547
1743580783.2500355,0.0,-0.0,"[174.0, 185.0, 181.0, 156.0, 154.0, 154.0, 156.0, 181.0, 185.0, 174.0]",0.18316294252872467,0.0,-6.103515625e-05,-0.00014495849609375,-27.92601776123047
1743580783.2768993,0.0,-0.0,"[174.0, 185.0, 181.0, 156.0, 154.0, 154.0, 156.0, 181.0, 185.0, 174.0]",0.14375317096710205,0.0,-6.103515625e-05,-0.0001468658447265625,-27.92889404296875
1743580783.279827,0.0,-0.0,"[174.0, 185.0, 181.0, 156.0, 154.0, 154.0, 156.0, 181.0, 185.0, 174.0]",0.014465482905507088,0.0,-6.103515625e-05,-0.0001506805419921875,-27.928604125976562
1743580783.3039222,0.0,-0.0,"[174.0, 185.0, 181.0, 156.0, 154.0, 154.0, 156.0, 181.0, 185.0, 174.0]",0.14698098599910736,0.0,-6.103515625e-05,-0.0001544952392578125,-27.931541442871094
1743580783.328953,0.0,-0.0,"[174.0, 185.0, 181.0, 156.0, 154.0, 154.0, 156.0, 181.0, 185.0, 174.0]",0.004596077837049961,0.0,-6.103515625e-05,-0.000156402587890625,-27.93163299560547
1743580783.35227,0.0,-0.0,"[174.0, 185.0, 181.0, 156.0, 154.0, 154.0, 156.0, 181.0, 185.0, 174.0]",0.02196654863655567,0.0,-6.103515625e-05,-0.00016021728515625,-27.931198120117188
1743580783.379072,0.0,-0.0,"[174.0, 185.0, 181.0, 156.0, 154.0, 154.0, 156.0, 181.0, 185.0, 174.0]",0.19793173670768738,0.0,-6.103515625e-05,-0.000164031982421875,-27.935150146484375
1743580783.3829424,0.0,-0.0,"[174.0, 185.0, 181.0, 156.0, 154.0, 154.0, 156.0, 181.0, 185.0, 174.0]",0.11654791235923767,0.0,-6.103515625e-05,-0.0001678466796875,-27.937484741210938
1743580783.4136617,0.0,-0.0,"[174.0, 185.0, 181.0, 156.0, 154.0, 154.0, 156.0, 181.0, 185.0, 174.0]",0.18452443182468414,0.0,-6.103515625e-05,-0.0001697540283203125,-27.933792114257812
1743580783.4527361,0.0,-0.0,"[174.0, 185.0, 181.0, 156.0, 154.0, 154.0, 156.0, 181.0, 185.0, 174.0]",0.14377661049365997,0.0,-6.103515625e-05,-0.000171661376953125,-27.93091583251953
1743580783.45884,0.0,-0.0,"[174.0, 185.0, 181.0, 156.0, 154.0, 154.0, 156.0, 181.0, 185.0, 174.0]",0.014521820470690727,0.0,-6.103515625e-05,-0.00017547607421875,-27.93120574951172
1743580783.4844577,0.0,-0.0,"[174.0, 185.0, 181.0, 156.0, 154.0, 154.0, 156.0, 181.0, 185.0, 174.0]",0.147481307387352,0.0,-6.103515625e-05,-0.0001773834228515625,-27.928253173828125
1743580783.4883375,0.0,-0.0,"[174.0, 185.0, 181.0, 156.0, 154.0, 154.0, 156.0, 181.0, 185.0, 174.0]",0.006290039978921413,0.0,-6.103515625e-05,-0.000179290771484375,-27.928131103515625
1743580783.5131884,0.0,-0.0,"[174.0, 185.0, 181.0, 156.0, 154.0, 154.0, 156.0, 181.0, 185.0, 174.0]",0.036330319941043854,0.0,-6.103515625e-05,-0.000179290771484375,-27.928855895996094
1743580783.5362368,0.0,-0.0,"[174.0, 185.0, 181.0, 156.0, 154.0, 154.0, 156.0, 181.0, 185.0, 174.0]",0.20956234633922577,0.0,-6.103515625e-05,-0.0001811981201171875,-27.924667358398438
1743580783.538796,0.0,-0.0,"[174.0, 185.0, 181.0, 156.0, 154.0, 154.0, 156.0, 181.0, 185.0, 174.0]",0.05906271934509277,0.0,-6.103515625e-05,-0.00018310546875,-27.923484802246094
1743580783.565766,0.0,-0.0,"[174.0, 185.0, 181.0, 156.0, 154.0, 154.0, 156.0, 181.0, 185.0, 174.0]",0.1772046834230423,0.0,-6.103515625e-05,-0.00018310546875,-27.927032470703125
1743580783.5929158,0.0,-0.0,"[174.0, 185.0, 181.0, 156.0, 154.0, 154.0, 156.0, 181.0, 185.0, 174.0]",0.13937292993068695,0.0,-6.103515625e-05,-0.00018310546875,-27.92981719970703
1743580783.6181886,0.0,-0.0,"[174.0, 185.0, 181.0, 156.0, 154.0, 154.0, 156.0, 181.0, 185.0, 174.0]",0.047370702028274536,0.0,-6.103515625e-05,-0.0001850128173828125,-27.928871154785156
1743580783.622174,0.0,-0.0,"[174.0, 185.0, 181.0, 156.0, 154.0, 154.0, 156.0, 181.0, 185.0, 174.0]",0.2018340826034546,0.0,-6.103515625e-05,-0.0001850128173828125,-27.932907104492188
1743580783.6464112,0.0,-0.0,"[174.0, 185.0, 181.0, 156.0, 154.0, 154.0, 156.0, 181.0, 185.0, 174.0]",0.09951195865869522,0.0,-3.0517578125e-05,-0.0001850128173828125,-27.934890747070312
1743580783.6702118,0.0,-0.0,"[174.0, 185.0, 181.0, 156.0, 154.0, 154.0, 156.0, 181.0, 185.0, 174.0]",0.20206834375858307,0.0,-3.0517578125e-05,-0.0001850128173828125,-27.93085479736328
1743580783.6944017,0.0,-0.0,"[174.0, 185.0, 181.0, 156.0, 154.0, 154.0, 156.0, 181.0, 185.0, 174.0]",0.09756269305944443,0.0,-6.103515625e-05,-0.0001850128173828125,-27.92890167236328
1743580783.696864,0.0,-0.0,"[174.0, 185.0, 181.0, 156.0, 154.0, 154.0, 156.0, 181.0, 185.0, 174.0]",0.20539599657058716,0.0,-6.103515625e-05,-0.00018310546875,-27.933013916015625
1743580783.7197537,0.0,-0.0,"[174.0, 185.0, 181.0, 156.0, 154.0, 154.0, 156.0, 181.0, 185.0, 174.0]",0.08038069307804108,0.0,-3.0517578125e-05,-0.00018310546875,-27.934616088867188
1743580783.7444174,0.0,-0.0,"[174.0, 185.0, 181.0, 156.0, 154.0, 154.0, 156.0, 181.0, 185.0, 174.0]",0.19248273968696594,0.0,-3.0517578125e-05,-0.00018310546875,-27.930770874023438
1743580783.7714086,0.0,-0.0,"[174.0, 185.0, 181.0, 156.0, 154.0, 154.0, 156.0, 181.0, 185.0, 174.0]",0.13440199196338654,0.0,-6.103515625e-05,-0.00018310546875,-27.928085327148438
1743580783.7978268,0.0,-0.0,"[174.0, 185.0, 181.0, 156.0, 154.0, 154.0, 156.0, 181.0, 185.0, 174.0]",0.0872696191072464,0.0,-6.103515625e-05,-0.00018310546875,-27.929824829101562
1743580783.8007224,0.0,-0.0,"[174.0, 185.0, 181.0, 156.0, 154.0, 154.0, 156.0, 181.0, 185.0, 174.0]",0.20792096853256226,0.0,-6.103515625e-05,-0.00018310546875,-27.92566680908203
1743580783.82637,0.0,-0.0,"[174.0, 185.0, 180.0, 156.0, 154.0, 154.0, 156.0, 181.0, 185.0, 174.0]",0.06728526204824448,0.0,-6.103515625e-05,-0.0001811981201171875,-27.92432403564453
1743580783.8509612,0.0,-0.0,"[174.0, 185.0, 181.0, 156.0, 154.0, 154.0, 156.0, 181.0, 185.0, 174.0]",0.17411762475967407,0.0,-6.103515625e-05,-0.0001811981201171875,-27.92780303955078
1743580783.8752782,0.0,-0.0,"[174.0, 185.0, 181.0, 156.0, 154.0, 154.0, 156.0, 181.0, 185.0, 174.0]",0.13353043794631958,0.0,-6.103515625e-05,-0.0001811981201171875,-27.93047332763672
1743580783.8780632,0.0,-0.0,"[174.0, 185.0, 181.0, 156.0, 154.0, 154.0, 156.0, 181.0, 185.0, 174.0]",0.09417232871055603,0.0,-6.103515625e-05,-0.0001811981201171875,-27.9285888671875
1743580783.9018059,0.0,-0.0,"[174.0, 185.0, 181.0, 156.0, 154.0, 154.0, 156.0, 181.0, 185.0, 174.0]",0.21035394072532654,0.0,-6.103515625e-05,-0.0001811981201171875,-27.93280029296875
1743580783.9276648,0.0,0.2955041061569155,"[174.0, 185.0, 181.0, 156.0, 154.0, 154.0, 156.0, 181.0, 185.0, 174.0]",0.05511513724923134,0.0,-3.0517578125e-05,-0.0001811981201171875,-27.93389892578125
1743580783.9516866,0.0,0.6778174732055863,"[174.0, 185.0, 181.0, 156.0, 154.0, 154.0, 156.0, 181.0, 185.0, 174.0]",0.1827671378850937,0.0,-3.0517578125e-05,-0.000179290771484375,-27.930252075195312
1743580783.9788606,-0.21735750235279677,1.0089082726302603,"[174.0, 185.0, 181.0, 156.0, 154.0, 154.0, 156.0, 181.0, 185.0, 174.0]",0.14402174949645996,0.0,-6.103515625e-05,-0.000179290771484375,-27.9273681640625
1743580783.9829032,-0.21735750235279677,1.0089082726302603,"[174.0, 185.0, 181.0, 156.0, 154.0, 154.0, 156.0, 181.0, 185.0, 174.0]",0.0951959490776062,-0.10867874324321747,-0.001953125,-0.000179290771484375,-27.92755889892578
1743580784.0078838,-0.21735750235279677,1.0089082726302603,"[174.0, 185.0, 181.0, 156.0, 154.0, 154.0, 156.0, 181.0, 185.0, 174.0]",0.22929109632968903,-0.10867874324321747,-0.00653076171875,-0.000179290771484375,-27.9278564453125
1743580784.033071,-0.21735750235279677,1.0089082726302603,"[174.0, 185.0, 181.0, 156.0, 154.0, 154.0, 156.0, 181.0, 185.0, 174.0]",0.3887481987476349,-0.10867874324321747,-0.0142822265625,-0.000179290771484375,-27.927322387695312
1743580784.0582135,-0.21735750235279677,1.0089082726302603,"[174.0, 185.0, 181.0, 156.0, 154.0, 154.0, 156.0, 181.0, 185.0, 174.0]",0.514538049697876,-0.10867874324321747,-0.0245361328125,-0.000179290771484375,-27.928077697753906
1743580784.061541,-0.21735750235279677,1.0089082726302603,"[174.0, 185.0, 181.0, 156.0, 154.0, 154.0, 156.0, 181.0, 185.0, 174.0]",0.6222335696220398,-0.10867874324321747,-0.0369873046875,-0.000179290771484375,-27.928550720214844
1743580784.0854297,-0.21735750235279677,1.0089082726302603,"[174.0, 185.0, 181.0, 156.0, 154.0, 154.0, 156.0, 181.0, 185.0, 174.0]",0.7219708561897278,-0.10867874324321747,-0.0513916015625,-0.000179290771484375,-27.92914581298828
1743580784.1088989,-0.21735750235279677,1.0089082726302603,"[174.0, 185.0, 181.0, 156.0, 154.0, 154.0, 156.0, 181.0, 185.0, 174.0]",0.8622627258300781,-0.10867874324321747,-0.068634033203125,-0.000179290771484375,-27.929832458496094
1743580784.1330776,-0.21735750235279677,1.0089082726302603,"[174.0, 185.0, 181.0, 156.0, 154.0, 154.0, 156.0, 181.0, 185.0, 174.0]",1.06371009349823,-0.10867874324321747,-0.08990478515625,-0.000179290771484375,-27.930679321289062
1743580784.1576,-0.1944433078276525,1.0172597782211292,"[174.0, 185.0, 181.0, 156.0, 154.0, 154.0, 156.0, 181.0, 185.0, 174.0]",1.1568413972854614,-0.10867874324321747,-0.113006591796875,-0.000179290771484375,-27.93158721923828
1743580784.1604633,-0.1944433078276525,1.0172597782211292,"[174.0, 185.0, 181.0, 156.0, 154.0, 154.0, 156.0, 181.0, 185.0, 174.0]",1.3147811889648438,-0.09722165763378143,-0.1392822265625,-0.000179290771484375,-27.932571411132812
1743580784.1869304,-0.15516183149883384,1.0201828051779334,"[174.0, 185.0, 181.0, 156.0, 154.0, 154.0, 156.0, 181.0, 185.0, 174.0]",1.4333659410476685,-0.09722165763378143,-0.167938232421875,-0.000179290771484375,-27.93366241455078
1743580784.2136369,0.0,1.0295086530877373,"[174.0, 185.0, 181.0, 156.0, 155.0, 154.0, 156.0, 181.0, 185.0, 174.0]",1.5457857847213745,-0.07758091390132904,-0.198822021484375,-0.000179290771484375,-27.93463134765625
1743580784.23797,0.0,1.0321532965248457,"[174.0, 185.0, 181.0, 156.0, 155.0, 154.0, 156.0, 181.0, 185.0, 174.0]",1.691959261894226,0.0,-0.232666015625,-0.000179290771484375,-27.934829711914062
1743580784.2410836,0.0,1.0321532965248457,"[174.0, 185.0, 181.0, 156.0, 155.0, 154.0, 156.0, 181.0, 185.0, 174.0]",1.8322745561599731,0.0,-0.269317626953125,-0.000179290771484375,-27.935028076171875
1743580784.26924,0.0,1.033777200389737,"[174.0, 185.0, 181.0, 156.0, 155.0, 154.0, 156.0, 181.0, 185.0, 174.0]",1.9183119535446167,0.0,-0.30767822265625,-0.0001811981201171875,-27.93523406982422
1743580784.2941995,0.0,1.033777200389737,"[174.0, 185.0, 181.0, 156.0, 155.0, 154.0, 156.0, 181.0, 185.0, 174.0]",2.1004996299743652,0.0,-0.349700927734375,-0.0001811981201171875,-27.93547821044922
1743580784.2970185,0.0,1.033777200389737,"[174.0, 185.0, 181.0, 156.0, 155.0, 154.0, 156.0, 181.0, 185.0, 174.0]",2.2358691692352295,0.0,-0.3944091796875,-0.0001811981201171875,-27.935745239257812
1743580784.3199656,0.0,1.035540296014476,"[174.0, 185.0, 181.0, 156.0, 155.0, 154.0, 156.0, 181.0, 185.0, 174.0]",2.358959913253784,0.0,-0.44158935546875,-0.0001811981201171875,-27.936012268066406
1743580784.3446136,0.0,1.0372569943859324,"[174.0, 185.0, 181.0, 156.0, 155.0, 154.0, 156.0, 181.0, 185.0, 174.0]",2.4875309467315674,0.0,-0.4913330078125,-0.0001811981201171875,-27.936309814453125
1743580784.3713953,0.0,1.0372569943859324,"[174.0, 185.0, 181.0, 156.0, 155.0, 154.0, 156.0, 181.0, 185.0, 174.0]",2.657841444015503,0.0,-0.54449462890625,-0.0001811981201171875,-27.936614990234375
1743580784.3982313,0.0,1.0372569943859324,"[174.0, 185.0, 181.0, 156.0, 155.0, 154.0, 156.0, 181.0, 185.0, 174.0]",2.7728288173675537,0.0,-0.599945068359375,-0.0001811981201171875,-27.93695068359375
1743580784.401945,0.0,1.0372569943859324,"[174.0, 185.0, 181.0, 156.0, 155.0, 154.0, 156.0, 181.0, 185.0, 174.0]",2.9112586975097656,0.0,-0.658172607421875,-0.0001811981201171875,-27.937286376953125
1743580784.4288151,0.0,1.0372569943859324,"[174.0, 185.0, 181.0, 156.0, 155.0, 154.0, 156.0, 181.0, 185.0, 174.0]",3.0429046154022217,0.0,-0.719024658203125,-0.0001811981201171875,-27.937637329101562
1743580784.4525702,0.0,1.0372569943859324,"[174.0, 185.0, 181.0, 156.0, 155.0, 154.0, 156.0, 181.0, 185.0, 174.0]",3.1575891971588135,0.0,-0.78216552734375,-0.0001811981201171875,-27.93799591064453
1743580784.4767973,0.0,1.0372569943859324,"[174.0, 185.0, 181.0, 156.0, 155.0, 154.0, 156.0, 181.0, 185.0, 174.0]",3.305563449859619,0.0,-0.848297119140625,-0.0001811981201171875,-27.938369750976562
1743580784.479689,0.0,1.0372569943859324,"[174.0, 185.0, 181.0, 156.0, 155.0, 154.0, 156.0, 181.0, 185.0, 174.0]",3.4229135513305664,0.0,-0.916748046875,-0.0001811981201171875,-27.938758850097656
1743580784.5034325,0.0,1.0372569943859324,"[174.0, 185.0, 181.0, 156.0, 155.0, 154.0, 156.0, 181.0, 185.0, 174.0]",3.571002960205078,0.0,-0.9881591796875,-0.0001811981201171875,-27.939163208007812
1743580784.526895,0.0,1.0372569943859324,"[174.0, 185.0, 181.0, 156.0, 155.0, 154.0, 156.0, 181.0, 185.0, 174.0]",3.6973319053649902,0.0,-1.062103271484375,-0.0001811981201171875,-27.939590454101562
1743580784.5502756,0.0,1.0372569943859324,"[174.0, 185.0, 181.0, 156.0, 155.0, 154.0, 156.0, 181.0, 185.0, 174.0]",3.821984052658081,0.0,-1.1385498046875,-0.0001811981201171875,-27.940017700195312
1743580784.5775702,0.0,1.0372569943859324,"[174.0, 185.0, 181.0, 156.0, 155.0, 154.0, 156.0, 181.0, 185.0, 174.0]",3.934741497039795,0.0,-1.217254638671875,-0.0001811981201171875,-27.940475463867188
1743580784.580899,0.0,1.0372569943859324,"[174.0, 185.0, 181.0, 156.0, 155.0, 154.0, 156.0, 181.0, 185.0, 174.0]",4.083611011505127,0.0,-1.298919677734375,-0.0001811981201171875,-27.940963745117188
1743580784.6057625,0.0,1.0372569943859324,"[174.0, 185.0, 181.0, 156.0, 155.0, 154.0, 156.0, 181.0, 185.0, 174.0]",4.2003068923950195,0.0,-1.382904052734375,-0.0001811981201171875,-27.94146728515625
1743580784.6301315,0.0,1.0372569943859324,"[174.0, 185.0, 181.0, 156.0, 155.0, 154.0, 156.0, 181.0, 185.0, 174.0]",4.347060203552246,0.0,-1.4698486328125,-0.0001811981201171875,-27.942001342773438
1743580784.6556005,0.0,1.0372569943859324,"[174.0, 185.0, 181.0, 156.0, 155.0, 154.0, 156.0, 181.0, 185.0, 174.0]",4.485870361328125,0.0,-1.5595703125,-0.0001811981201171875,-27.942543029785156
1743580784.659211,0.0,1.0372569943859324,"[174.0, 185.0, 181.0, 156.0, 155.0, 154.0, 156.0, 181.0, 185.0, 174.0]",4.586996078491211,0.0,-1.65130615234375,-0.0001811981201171875,-27.943099975585938
1743580784.684581,0.0,1.0372569943859324,"[174.0, 185.0, 181.0, 156.0, 155.0, 154.0, 156.0, 181.0, 185.0, 174.0]",4.729921340942383,0.0,-1.74591064453125,-0.0001811981201171875,-27.943679809570312
1743580784.7084515,0.0,1.0372569943859324,"[174.0, 185.0, 181.0, 156.0, 155.0, 154.0, 156.0, 181.0, 185.0, 174.0]",4.8679609298706055,0.0,-1.84326171875,-0.0001811981201171875,-27.94426727294922
1743580784.7326033,0.0,1.0372569943859324,"[174.0, 185.0, 181.0, 156.0, 155.0, 154.0, 156.0, 181.0, 185.0, 174.0]",4.998926639556885,0.0,-1.9432373046875,-0.0001811981201171875,-27.944869995117188
1743580784.756716,0.0,1.0372569943859324,"[174.0, 185.0, 181.0, 156.0, 155.0, 154.0, 156.0, 181.0, 185.0, 174.0]",5.121150970458984,0.0,-2.045654296875,-0.0001811981201171875,-27.94548797607422
1743580784.7597663,0.0,1.0372569943859324,"[174.0, 185.0, 181.0, 156.0, 155.0, 154.0, 156.0, 181.0, 185.0, 174.0]",5.342030048370361,0.0,-2.152496337890625,0.000156402587890625,-27.946136474609375
1743580784.7889369,0.0,1.0372569943859324,"[174.0, 185.0, 181.0, 156.0, 155.0, 154.0, 156.0, 181.0, 185.0, 174.0]",5.2733683586120605,0.0,-2.257965087890625,0.0004425048828125,-27.946701049804688
1743580784.8173313,0.0,1.0372569943859324,"[174.0, 185.0, 181.0, 156.0, 154.0, 154.0, 156.0, 181.0, 185.0, 174.0]",5.400245666503906,0.0,-2.365966796875,0.0006809234619140625,-27.947723388671875
1743580784.8209906,0.0,1.0372569943859324,"[174.0, 185.0, 181.0, 156.0, 154.0, 154.0, 156.0, 181.0, 185.0, 174.0]",5.780725479125977,0.0,-2.4815673828125,0.0008716583251953125,-27.947593688964844
1743580784.846557,0.0,1.0372569943859324,"[174.0, 185.0, 181.0, 156.0, 154.0, 154.0, 156.0, 181.0, 185.0, 174.0]",5.5440993309021,0.0,-2.592437744140625,0.001018524169921875,-27.94965362548828
1743580784.8702097,0.0,1.0372569943859324,"[174.0, 185.0, 181.0, 156.0, 155.0, 154.0, 156.0, 181.0, 185.0, 174.0]",5.815681457519531,0.0,-2.708740234375,0.0011272430419921875,-27.948089599609375
1743580784.8941512,0.0,1.0372569943859324,"[174.0, 185.0, 181.0, 156.0, 154.0, 154.0, 156.0, 181.0, 185.0, 174.0]",5.984664440155029,0.0,-2.828399658203125,0.0011997222900390625,-27.951393127441406
1743580784.8967075,0.0,1.0372569943859324,"[174.0, 185.0, 181.0, 156.0, 154.0, 154.0, 156.0, 181.0, 185.0, 174.0]",5.820293426513672,0.0,-2.94476318359375,0.001239776611328125,-27.949012756347656
1743580784.9238586,0.0,1.0372569943859324,"[174.0, 185.0, 181.0, 156.0, 154.0, 154.0, 156.0, 181.0, 185.0, 174.0]",6.070956707000732,0.0,-3.06610107421875,0.001255035400390625,-27.95398712158203
1743580784.9513311,0.0,1.0372569943859324,"[174.0, 185.0, 181.0, 156.0, 155.0, 154.0, 156.0, 181.0, 185.0, 174.0]",6.375199317932129,0.0,-3.19354248046875,0.001247406005859375,-27.949798583984375
1743580784.9807308,0.0,1.0372569943859324,"[174.0, 185.0, 181.0, 156.0, 154.0, 154.0, 156.0, 181.0, 185.0, 174.0]",6.399685859680176,0.0,-3.32135009765625,0.0012226104736328125,-27.956512451171875
1743580784.984851,0.0,1.0372569943859324,"[174.0, 185.0, 181.0, 156.0, 154.0, 154.0, 156.0, 181.0, 185.0, 174.0]",6.515329837799072,0.0,-3.451629638671875,0.00118255615234375,-27.954124450683594
1743580785.0104375,0.0,1.0372569943859324,"[174.0, 185.0, 181.0, 156.0, 154.0, 154.0, 156.0, 181.0, 185.0, 174.0]",6.703338623046875,0.0,-3.585601806640625,0.001132965087890625,-27.959388732910156
1743580785.034685,0.0,1.0372569943859324,"[174.0, 185.0, 181.0, 156.0, 155.0, 154.0, 156.0, 181.0, 185.0, 174.0]",6.708796977996826,0.0,-3.719696044921875,0.00107574462890625,-27.955337524414062
1743580785.0384188,0.0,1.0372569943859324,"[174.0, 185.0, 181.0, 156.0, 155.0, 154.0, 156.0, 181.0, 185.0, 174.0]",7.027872562408447,0.0,-3.86016845703125,0.00101470947265625,-27.96063232421875
1743580785.0626857,0.0,1.0372569943859324,"[174.0, 185.0, 181.0, 156.0, 155.0, 154.0, 156.0, 181.0, 185.0, 174.0]",7.034843444824219,0.0,-4.0008544921875,0.0009517669677734375,-27.95970916748047
1743580785.0871925,0.0,1.0372569943859324,"[174.0, 185.0, 181.0, 156.0, 154.0, 154.0, 156.0, 181.0, 185.0, 174.0]",7.022371768951416,0.0,-4.141265869140625,0.000888824462890625,-27.962425231933594
1743580785.1111042,0.0,1.0372569943859324,"[174.0, 185.0, 181.0, 156.0, 155.0, 154.0, 156.0, 181.0, 185.0, 174.0]",7.314343452453613,0.0,-4.287567138671875,0.000827789306640625,-27.960647583007812
1743580785.1349585,0.0,1.0372569943859324,"[174.0, 185.0, 181.0, 156.0, 154.0, 154.0, 156.0, 181.0, 185.0, 174.0]",7.510277271270752,0.0,-4.437744140625,0.00077056884765625,-27.963790893554688
1743580785.1389728,0.0,1.0372569943859324,"[174.0, 185.0, 181.0, 156.0, 154.0, 154.0, 156.0, 181.0, 185.0, 174.0]",7.553085803985596,0.0,-4.588775634765625,0.0007190704345703125,-27.962684631347656
1743580785.166219,0.0,1.0372569943859324,"[174.0, 185.0, 181.0, 156.0, 155.0, 154.0, 156.0, 181.0, 185.0, 174.0]",7.541061878204346,0.0,-4.739593505859375,0.0006694793701171875,-27.9638671875
1743580785.1939325,0.0,1.0372569943859324,"[174.0, 185.0, 181.0, 156.0, 154.0, 154.0, 156.0, 181.0, 185.0, 174.0]",7.845310688018799,0.0,-4.896514892578125,0.0006275177001953125,-27.964584350585938
1743580785.2190895,0.0,1.0372569943859324,"[174.0, 185.0, 181.0, 156.0, 155.0, 154.0, 156.0, 181.0, 185.0, 174.0]",7.965508937835693,0.0,-5.055816650390625,0.000591278076171875,-27.965316772460938
1743580785.2231777,0.0,1.0372569943859324,"[174.0, 185.0, 181.0, 156.0, 155.0, 154.0, 156.0, 181.0, 185.0, 174.0]",8.192975044250488,0.0,-5.21966552734375,0.000560760498046875,-27.966140747070312
1743580785.246152,0.0,1.0372569943859324,"[174.0, 185.0, 181.0, 156.0, 155.0, 154.0, 156.0, 181.0, 185.0, 174.0]",8.049725532531738,0.0,-5.38067626953125,0.0005340576171875,-27.96661376953125
1743580785.2698977,0.0,1.0372569943859324,"[174.0, 185.0, 181.0, 156.0, 154.0, 154.0, 156.0, 181.0, 185.0, 174.0]",8.200789451599121,0.0,-5.544677734375,0.000514984130859375,-27.96770477294922
1743580785.293652,0.0,1.0372569943859324,"[174.0, 185.0, 181.0, 156.0, 155.0, 154.0, 156.0, 181.0, 185.0, 174.0]",8.352566719055176,0.0,-5.71173095703125,0.0004978179931640625,-27.968002319335938
1743580785.2969713,0.0,1.0372569943859324,"[174.0, 185.0, 181.0, 156.0, 155.0, 154.0, 156.0, 181.0, 185.0, 174.0]",8.584128379821777,0.0,-5.8834228515625,0.00048828125,-27.969223022460938
1743580785.3199315,0.0,1.0372569943859324,"[174.0, 185.0, 181.0, 156.0, 154.0, 154.0, 156.0, 181.0, 185.0, 174.0]",8.74972152709961,0.0,-6.05841064453125,0.00048065185546875,-27.969696044921875
1743580785.3436043,0.0,1.0372569943859324,"[174.0, 185.0, 181.0, 156.0, 154.0, 154.0, 156.0, 181.0, 185.0, 174.0]",8.513236045837402,0.0,-6.228668212890625,0.000476837158203125,-27.970291137695312
1743580785.370045,0.0,1.0372569943859324,"[174.0, 185.0, 181.0, 156.0, 154.0, 154.0, 156.0, 181.0, 185.0, 174.0]",8.792023658752441,0.0,-6.404510498046875,0.0004749298095703125,-27.971115112304688
1743580785.395948,0.0,1.0372569943859324,"[174.0, 185.0, 181.0, 156.0, 155.0, 154.0, 156.0, 181.0, 185.0, 174.0]",8.920980453491211,0.0,-6.582916259765625,0.000476837158203125,-27.971755981445312
1743580785.3985925,0.0,1.0372569943859324,"[174.0, 185.0, 181.0, 156.0, 155.0, 154.0, 156.0, 181.0, 185.0, 174.0]",9.139541625976562,0.0,-6.765716552734375,0.00048065185546875,-27.972824096679688
1743580785.4236073,0.0,1.0372569943859324,"[174.0, 185.0, 181.0, 156.0, 154.0, 154.0, 156.0, 181.0, 185.0, 174.0]",9.384241104125977,0.0,-6.953399658203125,0.000484466552734375,-27.97357177734375
1743580785.4478397,0.0,1.0372569943859324,"[174.0, 185.0, 181.0, 156.0, 154.0, 154.0, 156.0, 181.0, 185.0, 174.0]",9.322985649108887,0.0,-7.139862060546875,0.0004901885986328125,-27.974197387695312
1743580785.4728978,0.0,1.0372569943859324,"[174.0, 185.0, 181.0, 156.0, 154.0, 154.0, 156.0, 181.0, 185.0, 174.0]",9.64858627319336,0.0,-7.33282470703125,0.0004978179931640625,-27.974929809570312
1743580785.497219,0.0,1.0372569943859324,"[174.0, 185.0, 181.0, 156.0, 155.0, 154.0, 156.0, 181.0, 185.0, 174.0]",9.535887718200684,0.0,-7.523529052734375,0.0005035400390625,-27.97564697265625
1743580785.5004077,0.0,1.0372569943859324,"[174.0, 185.0, 181.0, 156.0, 155.0, 154.0, 156.0, 181.0, 185.0, 174.0]",9.91843032836914,0.0,-7.721893310546875,0.00051116943359375,-27.976608276367188
1743580785.525817,0.0,1.0372569943859324,"[174.0, 185.0, 181.0, 156.0, 154.0, 154.0, 156.0, 181.0, 185.0, 174.0]",9.729787826538086,0.0,-7.91650390625,0.000518798828125,-27.97753143310547
1743580785.5518441,0.0,1.0372569943859324,"[174.0, 185.0, 181.0, 156.0, 155.0, 154.0, 156.0, 181.0, 185.0, 174.0]",9.889145851135254,0.0,-8.114288330078125,0.0005245208740234375,-27.97820281982422
1743580785.5770001,0.0,1.0372569943859324,"[174.0, 185.0, 181.0, 156.0, 154.0, 154.0, 156.0, 181.0, 185.0, 174.0]",9.999845504760742,0.0,-8.31427001953125,0.0005321502685546875,-27.979263305664062
1743580785.5815105,0.0,1.0372569943859324,"[174.0, 185.0, 181.0, 156.0, 154.0, 154.0, 156.0, 181.0, 185.0, 174.0]",10.172435760498047,0.0,-8.517730712890625,0.000537872314453125,-27.979820251464844
1743580785.606932,0.0,1.0372569943859324,"[174.0, 185.0, 181.0, 156.0, 154.0, 154.0, 156.0, 181.0, 185.0, 174.0]",10.327959060668945,0.0,-8.724273681640625,0.00054168701171875,-27.980796813964844
1743580785.6316884,0.0,1.0372569943859324,"[174.0, 185.0, 181.0, 156.0, 154.0, 154.0, 156.0, 181.0, 185.0, 174.0]",10.733973503112793,0.0,-8.93896484375,0.0005474090576171875,-27.98169708251953
1743580785.6559772,0.0,1.0372569943859324,"[174.0, 185.0, 181.0, 156.0, 155.0, 154.0, 156.0, 181.0, 185.0, 174.0]",10.399820327758789,0.0,-9.146942138671875,0.0005512237548828125,-27.98260498046875
1743580785.6589594,0.0,1.0372569943859324,"[174.0, 185.0, 181.0, 156.0, 155.0, 154.0, 156.0, 181.0, 185.0, 174.0]",10.737272262573242,0.0,-9.3616943359375,0.0005550384521484375,-27.983551025390625
1743580785.6836512,0.0,1.0372569943859324,"[174.0, 185.0, 181.0, 156.0, 155.0, 154.0, 156.0, 181.0, 185.0, 174.0]",10.692030906677246,0.0,-9.575531005859375,0.00055694580078125,-27.9844970703125
1743580785.7070408,0.0,1.0372569943859324,"[174.0, 185.0, 181.0, 156.0, 154.0, 154.0, 156.0, 181.0, 185.0, 174.0]",10.947626113891602,0.0,-9.79449462890625,0.0005588531494140625,-27.985496520996094
1743580785.731399,0.0,1.0372569943859324,"[174.0, 185.0, 181.0, 156.0, 155.0, 154.0, 156.0, 181.0, 185.0, 174.0]",11.081948280334473,0.0,-10.01611328125,0.000560760498046875,-27.986351013183594
1743580785.7545452,0.0,1.0372569943859324,"[174.0, 185.0, 181.0, 156.0, 155.0, 154.0, 156.0, 181.0, 185.0, 174.0]",11.070077896118164,0.0,-10.237518310546875,0.0005626678466796875,-27.98749542236328
1743580785.757838,0.0,1.0372569943859324,"[174.0, 185.0, 181.0, 156.0, 155.0, 154.0, 156.0, 181.0, 185.0, 174.0]",11.236064910888672,0.0,-10.462249755859375,0.0005626678466796875,-27.98858642578125
