timestamp,steering_input,acceleration_input,raycasts,speed,steering,position_x,position_y,position_z
1743586407.8333209,-0.1355210933344245,-0.0,"[174.0, 185.0, 227.0, 295.0, 259.0, 259.0, 295.0, 227.0, 185.0, 174.0]",0.0,0.0,0.0,0.10000038146972656,-27.93000030517578
1743586408.0465996,-0.1355210933344245,-0.0,"[174.0, 185.0, 178.0, 155.0, 154.0, 154.0, 156.0, 179.0, 185.0, 174.0]",0.1431841105222702,-0.06776054948568344,0.0,0.097137451171875,-27.93000030517578
1743586408.1106696,-0.1355210933344245,-0.0,"[174.0, 185.0, 178.0, 155.0, 154.0, 154.0, 156.0, 179.0, 185.0, 174.0]",0.2360968291759491,-0.06776054948568344,0.0,0.09241485595703125,-27.93000030517578
1743586408.114808,-0.1355210933344245,-0.0,"[174.0, 185.0, 178.0, 155.0, 154.0, 154.0, 156.0, 179.0, 185.0, 174.0]",0.30777978897094727,-0.06776054948568344,0.0,0.08625984191894531,-27.93000030517578
1743586408.147541,-0.1355210933344245,-0.0,"[174.0, 185.0, 179.0, 155.0, 154.0, 154.0, 156.0, 179.0, 185.0, 174.0]",0.36006513237953186,-0.06776054948568344,0.0,0.07905769348144531,-27.93000030517578
1743586408.1502109,-0.1355210933344245,-0.0,"[174.0, 185.0, 179.0, 155.0, 154.0, 154.0, 156.0, 179.0, 185.0, 174.0]",0.39494791626930237,-0.06776054948568344,0.0,0.07115936279296875,-27.93000030517578
1743586408.1806064,-0.1355210933344245,-0.0,"[174.0, 185.0, 179.0, 155.0, 154.0, 154.0, 156.0, 180.0, 185.0, 174.0]",0.4145027697086334,-0.06776054948568344,0.0,0.06286811828613281,-27.93000030517578
1743586408.1840072,-0.1355210933344245,-0.0,"[174.0, 185.0, 179.0, 155.0, 154.0, 154.0, 156.0, 180.0, 185.0, 174.0]",0.4208291471004486,-0.06776054948568344,0.0,0.05445289611816406,-27.93000030517578
1743586408.217107,-0.1355210933344245,-0.0,"[174.0, 185.0, 179.0, 155.0, 154.0, 154.0, 156.0, 181.0, 185.0, 174.0]",0.41598930954933167,-0.06776054948568344,0.0,0.04613304138183594,-27.93000030517578
1743586408.2207944,-0.1355210933344245,-0.0,"[174.0, 185.0, 179.0, 155.0, 154.0, 154.0, 156.0, 181.0, 185.0, 174.0]",0.40197139978408813,-0.06776054948568344,0.0,0.03809356689453125,-27.93000030517578
1743586408.2530572,-0.1355210933344245,-0.0,"[174.0, 185.0, 179.0, 156.0, 154.0, 154.0, 156.0, 181.0, 185.0, 174.0]",0.3806491196155548,-0.06776054948568344,0.0,0.03047943115234375,-27.93000030517578
1743586408.256123,-0.1355210933344245,-0.0,"[174.0, 185.0, 179.0, 156.0, 154.0, 154.0, 156.0, 181.0, 185.0, 174.0]",0.35375669598579407,-0.06776054948568344,0.0,0.023405075073242188,-27.93000030517578
1743586408.2887712,-0.1355210933344245,-0.0,"[174.0, 185.0, 180.0, 156.0, 154.0, 154.0, 156.0, 181.0, 185.0, 174.0]",0.3228749930858612,-0.06776054948568344,0.0,0.016946792602539062,-27.92999267578125
1743586408.320723,-0.1355210933344245,-0.0,"[174.0, 185.0, 180.0, 156.0, 154.0, 154.0, 156.0, 181.0, 185.0, 174.0]",0.28943347930908203,-0.06776054948568344,0.0,0.011159896850585938,-27.930068969726562
1743586408.3237152,-0.1355210933344245,-0.0,"[174.0, 185.0, 180.0, 156.0, 154.0, 154.0, 156.0, 181.0, 185.0, 174.0]",0.2613452672958374,-0.06776054948568344,-6.103515625e-05,0.0060672760009765625,-27.92888641357422
1743586408.354267,-0.1355210933344245,-0.0,"[174.0, 185.0, 181.0, 156.0, 154.0, 154.0, 156.0, 181.0, 185.0, 174.0]",0.2828291654586792,-0.06776054948568344,9.1552734375e-05,0.0016765594482421875,-27.932456970214844
1743586408.3571835,-0.1355210933344245,-0.0,"[174.0, 185.0, 181.0, 156.0, 154.0, 154.0, 156.0, 181.0, 185.0, 174.0]",0.2915772795677185,-0.06776054948568344,0.00030517578125,-0.0020236968994140625,-27.936965942382812
1743586408.386919,-0.1355210933344245,-0.0,"[174.0, 185.0, 181.0, 156.0, 154.0, 154.0, 156.0, 181.0, 185.0, 174.0]",0.15200605988502502,-0.06776054948568344,0.00030517578125,-0.0050601959228515625,-27.937095642089844
1743586408.3897607,-0.1355210933344245,-0.0,"[174.0, 185.0, 181.0, 156.0, 154.0, 154.0, 156.0, 181.0, 185.0, 174.0]",0.17662876844406128,-0.06776054948568344,0.00018310546875,-0.007472991943359375,-27.93450927734375
1743586408.4235384,-0.1355210933344245,-0.0,"[174.0, 185.0, 181.0, 156.0, 154.0, 154.0, 156.0, 181.0, 185.0, 174.0]",0.17415179312229156,-0.06776054948568344,0.00030517578125,-0.009307861328125,-27.937477111816406
1743586408.4563897,-0.1355210933344245,-0.0,"[174.0, 185.0, 181.0, 156.0, 154.0, 154.0, 156.0, 181.0, 185.0, 174.0]",0.06545930355787277,-0.06776054948568344,0.00030517578125,-0.010616302490234375,-27.937515258789062
1743586408.4615989,-0.1355210933344245,-0.0,"[174.0, 185.0, 181.0, 156.0, 154.0, 154.0, 156.0, 181.0, 185.0, 174.0]",0.04584731534123421,-0.06776054948568344,0.00030517578125,-0.011455535888671875,-27.937149047851562
1743586408.4918342,-0.1355210933344245,-0.0,"[174.0, 185.0, 181.0, 156.0, 154.0, 154.0, 156.0, 181.0, 185.0, 174.0]",0.1848151683807373,-0.06776054948568344,0.000457763671875,-0.011884689331054688,-27.940818786621094
1743586408.4959934,-0.1355210933344245,-0.0,"[174.0, 185.0, 181.0, 156.0, 154.0, 154.0, 156.0, 181.0, 185.0, 174.0]",0.19739121198654175,-0.06776054948568344,0.0006103515625,-0.011960983276367188,-27.94477081298828
1743586408.5355186,-0.1355210933344245,-0.0,"[174.0, 185.0, 181.0, 156.0, 154.0, 154.0, 156.0, 181.0, 185.0, 174.0]",0.17114342749118805,-0.06776054948568344,0.000762939453125,-0.011743545532226562,-27.94818878173828
1743586408.5704603,-0.1355210933344245,-0.0,"[174.0, 185.0, 181.0, 156.0, 154.0, 154.0, 156.0, 181.0, 185.0, 174.0]",0.1434837281703949,-0.06776054948568344,0.00091552734375,-0.011285781860351562,-27.951019287109375
1743586408.5732107,-0.1355210933344245,-0.0,"[174.0, 185.0, 181.0, 156.0, 154.0, 154.0, 156.0, 181.0, 185.0, 174.0]",0.06864213943481445,-0.06776054948568344,0.0008544921875,-0.010637283325195312,-27.949813842773438
1743586408.5769186,-0.1355210933344245,-0.0,"[174.0, 185.0, 181.0, 156.0, 154.0, 154.0, 156.0, 181.0, 185.0, 174.0]",0.17672806978225708,-0.06776054948568344,0.001007080078125,-0.009847640991210938,-27.953262329101562
1743586408.6105385,-0.1355210933344245,-0.0,"[174.0, 185.0, 181.0, 156.0, 154.0, 154.0, 156.0, 181.0, 185.0, 174.0]",0.13780851662158966,-0.06776054948568344,0.001129150390625,-0.0089569091796875,-27.95587158203125
1743586408.6150544,-0.1355210933344245,-0.0,"[174.0, 185.0, 181.0, 156.0, 154.0, 154.0, 156.0, 181.0, 185.0, 174.0]",0.1336365044116974,-0.06776054948568344,0.00103759765625,-0.008007049560546875,-27.953369140625
1743586408.6465356,-0.1355210933344245,-0.0,"[174.0, 185.0, 181.0, 156.0, 154.0, 154.0, 156.0, 181.0, 185.0, 174.0]",0.20309796929359436,-0.06776054948568344,0.001190185546875,-0.00702667236328125,-27.957321166992188
1743586408.6789536,-0.1355210933344245,-0.0,"[174.0, 185.0, 181.0, 156.0, 154.0, 154.0, 156.0, 181.0, 185.0, 174.0]",0.1237841546535492,-0.06776054948568344,0.001312255859375,-0.0060482025146484375,-27.9595947265625
1743586408.682021,-0.1355210933344245,-0.0,"[174.0, 185.0, 181.0, 156.0, 154.0, 154.0, 156.0, 181.0, 185.0, 174.0]",0.19224689900875092,-0.06776054948568344,0.00115966796875,-0.0050907135009765625,-27.95587158203125
1743586408.7155702,-0.1355210933344245,-0.0,"[174.0, 185.0, 181.0, 156.0, 154.0, 154.0, 156.0, 181.0, 185.0, 174.0]",0.13406775891780853,-0.06776054948568344,0.00103759765625,-0.004177093505859375,-27.953346252441406
1743586408.7191138,-0.1355210933344245,-0.0,"[174.0, 185.0, 181.0, 156.0, 154.0, 154.0, 156.0, 181.0, 185.0, 174.0]",0.14235901832580566,-0.06776054948568344,0.001129150390625,-0.0033206939697265625,-27.95606231689453
1743586408.7523134,-0.1355210933344245,-0.0,"[174.0, 185.0, 181.0, 156.0, 154.0, 154.0, 156.0, 181.0, 185.0, 174.0]",0.07534843683242798,-0.06776054948568344,0.0010986328125,-0.0025310516357421875,-27.95477294921875
1743586408.754856,-0.1355210933344245,-0.0,"[174.0, 185.0, 181.0, 156.0, 154.0, 154.0, 156.0, 181.0, 185.0, 174.0]",0.17648206651210785,-0.06776054948568344,0.001220703125,-0.0018177032470703125,-27.958236694335938
1743586408.7847471,-0.1355210933344245,-0.0,"[174.0, 185.0, 181.0, 156.0, 154.0, 154.0, 156.0, 181.0, 185.0, 174.0]",0.10963095724582672,-0.06776054948568344,0.0013427734375,-0.0011844635009765625,-27.960342407226562
1743586408.8178833,-0.1355210933344245,-0.0,"[174.0, 185.0, 181.0, 156.0, 154.0, 154.0, 156.0, 181.0, 185.0, 174.0]",0.18951651453971863,-0.06776054948568344,0.00115966796875,-0.00063323974609375,-27.956588745117188
1743586408.8224633,-0.1355210933344245,-0.0,"[174.0, 185.0, 181.0, 156.0, 154.0, 154.0, 156.0, 181.0, 185.0, 174.0]",0.12092574685811996,-0.06776054948568344,0.001068115234375,-0.000164031982421875,-27.954208374023438
1743586408.853938,-0.1355210933344245,-0.0,"[174.0, 185.0, 181.0, 156.0, 154.0, 154.0, 156.0, 181.0, 185.0, 174.0]",0.16823722422122955,-0.06776054948568344,0.001190185546875,0.0002288818359375,-27.957557678222656
1743586408.8566303,-0.1355210933344245,-0.0,"[174.0, 185.0, 181.0, 156.0, 154.0, 154.0, 156.0, 181.0, 185.0, 174.0]",0.08931301534175873,-0.06776054948568344,0.00128173828125,0.0005435943603515625,-27.959320068359375
1743586408.8916342,-0.1355210933344245,-0.0,"[174.0, 185.0, 181.0, 156.0, 154.0, 154.0, 156.0, 181.0, 185.0, 174.0]",0.19893778860569,-0.06776054948568344,0.001129150390625,0.000789642333984375,-27.955337524414062
1743586408.8959057,-0.1355210933344245,-0.0,"[174.0, 185.0, 181.0, 156.0, 154.0, 154.0, 156.0, 181.0, 185.0, 174.0]",0.09814644604921341,-0.06776054948568344,0.00103759765625,0.000972747802734375,-27.953384399414062
1743586408.9275591,-0.1355210933344245,-0.0,"[174.0, 185.0, 181.0, 156.0, 154.0, 154.0, 156.0, 181.0, 185.0, 174.0]",0.19693683087825775,-0.06776054948568344,0.001190185546875,0.0010967254638671875,-27.957321166992188
1743586408.9598086,-0.1355210933344245,-0.0,"[174.0, 185.0, 181.0, 156.0, 154.0, 154.0, 156.0, 181.0, 185.0, 174.0]",0.10551388561725616,-0.06776054948568344,0.00128173828125,0.0011692047119140625,-27.959434509277344
1743586408.9629483,-0.1355210933344245,-0.0,"[174.0, 185.0, 181.0, 156.0, 154.0, 154.0, 156.0, 181.0, 185.0, 174.0]",0.18864096701145172,-0.06776054948568344,0.001129150390625,0.00119781494140625,-27.955657958984375
1743586408.9960933,-0.1355210933344245,-0.0,"[174.0, 185.0, 181.0, 156.0, 154.0, 154.0, 156.0, 181.0, 185.0, 174.0]",0.12461579591035843,-0.06776054948568344,0.001007080078125,0.0011882781982421875,-27.953163146972656
1743586408.9992938,-0.1355210933344245,-0.0,"[174.0, 185.0, 181.0, 156.0, 154.0, 154.0, 156.0, 181.0, 185.0, 174.0]",0.14422020316123962,-0.06776054948568344,0.001129150390625,0.001148223876953125,-27.9560546875
1743586409.0339758,-0.1355210933344245,-0.0,"[174.0, 185.0, 181.0, 156.0, 154.0, 154.0, 156.0, 181.0, 185.0, 174.0]",0.009633172303438187,-0.06776054948568344,0.001129150390625,0.0010833740234375,-27.95587158203125
1743586409.0386302,-0.1355210933344245,-0.0,"[174.0, 185.0, 181.0, 156.0, 154.0, 154.0, 156.0, 181.0, 185.0, 174.0]",0.0657622292637825,-0.06776054948568344,0.001190185546875,0.00099945068359375,-27.957183837890625
1743586409.0781147,-0.1355210933344245,-0.0,"[174.0, 185.0, 181.0, 156.0, 154.0, 154.0, 156.0, 181.0, 185.0, 174.0]",0.17293821275234222,-0.06776054948568344,0.00103759765625,0.0009002685546875,-27.953720092773438
1743586409.0807116,-0.1355210933344245,-0.0,"[174.0, 185.0, 181.0, 156.0, 154.0, 154.0, 156.0, 181.0, 185.0, 174.0]",0.11520744860172272,-0.06776054948568344,0.00091552734375,0.0007915496826171875,-27.951416015625
1743586409.1138468,-0.1355210933344245,-0.0,"[174.0, 185.0, 181.0, 156.0, 154.0, 154.0, 156.0, 181.0, 185.0, 174.0]",0.18645277619361877,-0.06776054948568344,0.0010986328125,0.00067901611328125,-27.955154418945312
1743586409.118195,-0.1355210933344245,-0.0,"[174.0, 185.0, 181.0, 156.0, 154.0, 154.0, 156.0, 181.0, 185.0, 174.0]",0.13213182985782623,-0.06776054948568344,0.001190185546875,0.0005645751953125,-27.957794189453125
1743586409.1488366,-0.1355210933344245,-0.0,"[174.0, 185.0, 181.0, 156.0, 154.0, 154.0, 156.0, 181.0, 185.0, 174.0]",0.10882259905338287,-0.06776054948568344,0.001129150390625,0.0004520416259765625,-27.95561981201172
1743586409.1524472,-0.1355210933344245,-0.0,"[174.0, 185.0, 181.0, 156.0, 154.0, 154.0, 156.0, 181.0, 185.0, 174.0]",0.18158704042434692,-0.06776054948568344,0.00128173828125,0.00034332275390625,-27.959251403808594
1743586409.1831393,-0.1355210933344245,-0.0,"[174.0, 185.0, 181.0, 156.0, 154.0, 154.0, 156.0, 181.0, 185.0, 174.0]",0.1323941946029663,-0.06776054948568344,0.00140380859375,0.0002384185791015625,-27.961898803710938
1743586409.21569,-0.1355210933344245,-0.0,"[174.0, 185.0, 181.0, 156.0, 154.0, 154.0, 156.0, 181.0, 185.0, 174.0]",0.10773647576570511,-0.06776054948568344,0.001312255859375,0.0001430511474609375,-27.959747314453125
1743586409.219723,-0.1355210933344245,-0.0,"[174.0, 185.0, 181.0, 156.0, 154.0, 154.0, 156.0, 181.0, 185.0, 174.0]",0.18449173867702484,-0.06776054948568344,0.001495361328125,5.53131103515625e-05,-27.96343994140625
1743586409.2508395,-0.1355210933344245,-0.0,"[174.0, 185.0, 181.0, 156.0, 154.0, 154.0, 156.0, 181.0, 185.0, 174.0]",0.1343124806880951,-0.06776054948568344,0.001617431640625,-2.288818359375e-05,-27.96612548828125
1743586409.2541182,-0.1355210933344245,-0.0,"[174.0, 185.0, 181.0, 156.0, 154.0, 154.0, 156.0, 181.0, 185.0, 174.0]",0.09500101953744888,-0.06776054948568344,0.00152587890625,-9.34600830078125e-05,-27.96422576904297
1743586409.288526,-0.1355210933344245,-0.0,"[174.0, 185.0, 181.0, 156.0, 154.0, 154.0, 156.0, 181.0, 185.0, 174.0]",0.2077084332704544,-0.06776054948568344,0.001708984375,-0.000152587890625,-27.9683837890625
1743586409.3756075,-0.1355210933344245,-0.0,"[174.0, 185.0, 181.0, 156.0, 154.0, 154.0, 156.0, 181.0, 185.0, 174.0]",0.06355193257331848,-0.06776054948568344,0.00177001953125,-0.0002040863037109375,-27.969650268554688
1743586409.3786352,-0.1355210933344245,-0.0,"[174.0, 185.0, 181.0, 156.0, 154.0, 154.0, 156.0, 181.0, 185.0, 174.0]",0.17278754711151123,-0.06776054948568344,0.001617431640625,-0.000244140625,-27.96619415283203
1743586409.381172,-0.1355210933344245,-0.0,"[174.0, 185.0, 181.0, 156.0, 154.0, 154.0, 156.0, 181.0, 185.0, 174.0]",0.1174415647983551,-0.06776054948568344,0.00152587890625,-0.000278472900390625,-27.963844299316406
1743586409.3838246,-0.1355210933344245,-0.0,"[174.0, 185.0, 181.0, 156.0, 154.0, 154.0, 156.0, 181.0, 185.0, 174.0]",0.17883464694023132,-0.06776054948568344,0.001678466796875,-0.0003032684326171875,-27.967422485351562
1743586409.3862689,-0.1355210933344245,-0.0,"[174.0, 185.0, 181.0, 156.0, 154.0, 154.0, 156.0, 181.0, 185.0, 174.0]",0.1297193169593811,-0.06776054948568344,0.001800537109375,-0.0003204345703125,-27.97002410888672
1743586409.4204326,-0.1355210933344245,-0.0,"[174.0, 185.0, 181.0, 156.0, 154.0, 154.0, 156.0, 181.0, 185.0, 174.0]",0.12237711995840073,-0.06776054948568344,0.001708984375,-0.000331878662109375,-27.967575073242188
1743586409.4241307,-0.1355210933344245,-0.0,"[174.0, 185.0, 181.0, 156.0, 154.0, 154.0, 156.0, 181.0, 185.0, 174.0]",0.20120589435100555,-0.06776054948568344,0.001861572265625,-0.000339508056640625,-27.971603393554688
1743586409.4569771,-0.1355210933344245,-0.0,"[174.0, 185.0, 181.0, 156.0, 154.0, 154.0, 156.0, 181.0, 185.0, 174.0]",0.09686339646577835,-0.06776054948568344,0.001953125,-0.000339508056640625,-27.973541259765625
1743586409.4617853,-0.1355210933344245,-0.0,"[174.0, 185.0, 181.0, 156.0, 154.0, 154.0, 156.0, 181.0, 185.0, 174.0]",0.204408660531044,-0.06776054948568344,0.001800537109375,-0.0003376007080078125,-27.969451904296875
1743586409.492152,-0.1355210933344245,-0.0,"[174.0, 185.0, 181.0, 156.0, 154.0, 154.0, 156.0, 181.0, 185.0, 174.0]",0.08014988899230957,-0.06776054948568344,0.001708984375,-0.000331878662109375,-27.967849731445312
1743586409.4952955,-0.1355210933344245,-0.0,"[174.0, 185.0, 181.0, 156.0, 154.0, 154.0, 156.0, 181.0, 185.0, 174.0]",0.18885023891925812,-0.06776054948568344,0.00189208984375,-0.0003223419189453125,-27.97162628173828
1743586409.5268066,-0.1355210933344245,-0.0,"[174.0, 185.0, 181.0, 156.0, 154.0, 154.0, 156.0, 181.0, 185.0, 174.0]",0.13140736520290375,-0.06776054948568344,0.001983642578125,-0.00031280517578125,-27.974258422851562
1743586409.5560827,-0.1355210933344245,-0.0,"[174.0, 185.0, 181.0, 156.0, 154.0, 154.0, 156.0, 181.0, 185.0, 174.0]",0.11293783038854599,-0.06776054948568344,0.001922607421875,-0.0002994537353515625,-27.972000122070312
1743586409.559248,-0.1355210933344245,-0.0,"[174.0, 185.0, 181.0, 156.0, 154.0, 154.0, 156.0, 181.0, 185.0, 174.0]",0.17743080854415894,-0.06776054948568344,0.0020751953125,-0.0002880096435546875,-27.975547790527344
1743586409.5903664,-0.1355210933344245,-0.0,"[174.0, 185.0, 181.0, 156.0, 154.0, 154.0, 156.0, 181.0, 185.0, 174.0]",0.12703880667686462,-0.06776054948568344,0.002197265625,-0.000274658203125,-27.97808837890625
1743586409.5935972,-0.1355210933344245,-0.0,"[174.0, 185.0, 181.0, 156.0, 154.0, 154.0, 156.0, 181.0, 185.0, 174.0]",0.13497638702392578,-0.06776054948568344,0.0020751953125,-0.0002613067626953125,-27.975387573242188
1743586409.6273959,-0.1355210933344245,-0.0,"[174.0, 185.0, 181.0, 156.0, 154.0, 154.0, 156.0, 181.0, 185.0, 174.0]",0.08437436819076538,-0.06776054948568344,0.002166748046875,-0.000247955322265625,-27.977081298828125
1743586409.6605875,-0.1355210933344245,-0.0,"[174.0, 185.0, 181.0, 156.0, 154.0, 154.0, 156.0, 181.0, 185.0, 174.0]",0.20084817707538605,-0.06776054948568344,0.001983642578125,-0.00023651123046875,-27.973052978515625
1743586409.663937,-0.1355210933344245,-0.0,"[174.0, 185.0, 181.0, 156.0, 154.0, 154.0, 156.0, 181.0, 185.0, 174.0]",0.09766463935375214,-0.06776054948568344,0.00189208984375,-0.0002231597900390625,-27.971099853515625
1743586409.695934,-0.1355210933344245,-0.0,"[174.0, 185.0, 181.0, 156.0, 154.0, 154.0, 156.0, 181.0, 185.0, 174.0]",0.20288419723510742,-0.06776054948568344,0.0020751953125,-0.000213623046875,-27.97515869140625
1743586409.6993244,-0.1355210933344245,-0.0,"[174.0, 185.0, 181.0, 156.0, 154.0, 154.0, 156.0, 181.0, 185.0, 174.0]",0.08765491098165512,-0.06776054948568344,0.00213623046875,-0.0002040863037109375,-27.976913452148438
1743586409.7306132,-0.1355210933344245,-0.0,"[174.0, 185.0, 181.0, 156.0, 154.0, 154.0, 156.0, 181.0, 185.0, 174.0]",0.20345757901668549,-0.06776054948568344,0.001983642578125,-0.000194549560546875,-27.97284698486328
1743586409.7339704,-0.1355210933344245,-0.0,"[174.0, 185.0, 181.0, 156.0, 154.0, 154.0, 156.0, 181.0, 185.0, 174.0]",0.08465338498353958,-0.06776054948568344,0.00189208984375,-0.000186920166015625,-27.971153259277344
1743586409.7632782,-0.1355210933344245,-0.0,"[174.0, 185.0, 181.0, 156.0, 154.0, 154.0, 156.0, 181.0, 185.0, 174.0]",0.19842849671840668,-0.06776054948568344,0.0020751953125,-0.0001811981201171875,-27.975120544433594
1743586409.7924676,-0.1355210933344245,-0.0,"[174.0, 185.0, 181.0, 156.0, 154.0, 154.0, 156.0, 181.0, 185.0, 174.0]",0.10800198465585709,-0.06776054948568344,0.002166748046875,-0.00017547607421875,-27.977279663085938
1743586409.7976098,-0.1355210933344245,-0.0,"[174.0, 185.0, 181.0, 156.0, 154.0, 154.0, 156.0, 181.0, 185.0, 174.0]",0.1902054399251938,-0.06776054948568344,0.00201416015625,-0.0001697540283203125,-27.973480224609375
1743586409.8280723,-0.1355210933344245,-0.0,"[174.0, 185.0, 181.0, 156.0, 154.0, 154.0, 156.0, 181.0, 185.0, 174.0]",0.1290465146303177,-0.06776054948568344,0.00189208984375,-0.0001678466796875,-27.97089385986328
1743586409.831053,-0.1355210933344245,-0.0,"[174.0, 185.0, 181.0, 156.0, 154.0, 154.0, 156.0, 181.0, 185.0, 174.0]",0.12591157853603363,-0.06776054948568344,0.001983642578125,-0.000164031982421875,-27.973411560058594
1743586409.8632886,-0.1355210933344245,-0.0,"[174.0, 185.0, 181.0, 156.0, 154.0, 154.0, 156.0, 181.0, 185.0, 174.0]",0.18862465023994446,-0.06776054948568344,0.001800537109375,-0.0001621246337890625,-27.969635009765625
1743586409.8945942,-0.1355210933344245,-0.0,"[174.0, 185.0, 181.0, 156.0, 154.0, 154.0, 156.0, 181.0, 185.0, 174.0]",0.13106867671012878,-0.06776054948568344,0.001678466796875,-0.0001621246337890625,-27.967010498046875
1743586409.8979957,-0.1355210933344245,-0.0,"[174.0, 185.0, 181.0, 156.0, 154.0, 154.0, 156.0, 181.0, 185.0, 174.0]",0.11465713381767273,-0.06776054948568344,0.00177001953125,-0.00016021728515625,-27.96930694580078
1743586409.9292471,-0.1355210933344245,-0.0,"[174.0, 185.0, 181.0, 156.0, 154.0, 154.0, 156.0, 181.0, 185.0, 174.0]",0.18066631257534027,-0.06776054948568344,0.001617431640625,-0.00016021728515625,-27.96569061279297
1743586409.932417,-0.1355210933344245,-0.0,"[174.0, 185.0, 181.0, 156.0, 154.0, 154.0, 156.0, 181.0, 185.0, 174.0]",0.13129164278507233,-0.06776054948568344,0.001495361328125,-0.0001621246337890625,-27.963058471679688
1743586409.9615188,-0.1355210933344245,-0.0,"[174.0, 185.0, 181.0, 156.0, 154.0, 154.0, 156.0, 181.0, 185.0, 174.0]",0.11307449638843536,-0.06776054948568344,0.0015869140625,-0.0001621246337890625,-27.96532440185547
1743586409.9908798,-0.1355210933344245,-0.0,"[174.0, 185.0, 181.0, 156.0, 154.0, 154.0, 156.0, 181.0, 185.0, 174.0]",0.17781855165958405,-0.06776054948568344,0.001434326171875,-0.000164031982421875,-27.961761474609375
1743586409.993906,-0.1355210933344245,-0.0,"[174.0, 185.0, 181.0, 156.0, 154.0, 154.0, 156.0, 181.0, 185.0, 174.0]",0.12757740914821625,-0.06776054948568344,0.001312255859375,-0.000164031982421875,-27.959213256835938
1743586410.0249372,-0.1355210933344245,-0.0,"[174.0, 185.0, 181.0, 156.0, 154.0, 154.0, 156.0, 181.0, 185.0, 174.0]",0.1322934925556183,-0.06776054948568344,0.00140380859375,-0.0001659393310546875,-27.96186065673828
1743586410.0576305,-0.1355210933344245,-0.0,"[174.0, 185.0, 181.0, 156.0, 154.0, 154.0, 156.0, 181.0, 185.0, 174.0]",0.11917547136545181,-0.06776054948568344,0.001312255859375,-0.0001678466796875,-27.95947265625
1743586410.062531,-0.1355210933344245,-0.0,"[174.0, 185.0, 181.0, 156.0, 154.0, 154.0, 156.0, 181.0, 185.0, 174.0]",0.18669167160987854,-0.06776054948568344,0.00146484375,-0.0001697540283203125,-27.963211059570312
1743586410.0923674,-0.1355210933344245,-0.0,"[174.0, 185.0, 181.0, 156.0, 154.0, 154.0, 156.0, 181.0, 185.0, 174.0]",0.13252705335617065,-0.06776054948568344,0.0015869140625,-0.000171661376953125,-27.965866088867188
1743586410.095668,-0.1355210933344245,-0.0,"[174.0, 185.0, 181.0, 156.0, 154.0, 154.0, 156.0, 181.0, 185.0, 174.0]",0.10538814216852188,-0.06776054948568344,0.00152587890625,-0.000171661376953125,-27.96375274658203
1743586410.1267443,-0.1355210933344245,-0.0,"[174.0, 185.0, 181.0, 156.0, 154.0, 154.0, 156.0, 181.0, 185.0, 174.0]",0.18950282037258148,-0.06776054948568344,0.001678466796875,-0.0001735687255859375,-27.967544555664062
1743586410.1568286,-0.1355210933344245,-0.0,"[174.0, 185.0, 181.0, 156.0, 154.0, 154.0, 156.0, 181.0, 185.0, 174.0]",0.1303761899471283,-0.06776054948568344,0.001800537109375,-0.00017547607421875,-27.97015380859375
1743586410.1595466,-0.1355210933344245,-0.0,"[174.0, 185.0, 181.0, 156.0, 154.0, 154.0, 156.0, 181.0, 185.0, 174.0]",0.11898311227560043,-0.06776054948568344,0.001708984375,-0.00017547607421875,-27.9677734375
1743586410.1915705,-0.1355210933344245,-0.0,"[174.0, 185.0, 181.0, 156.0, 154.0, 154.0, 156.0, 181.0, 185.0, 174.0]",0.19494479894638062,-0.06776054948568344,0.00189208984375,-0.0001773834228515625,-27.9716796875
1743586410.1947455,-0.1355210933344245,-0.0,"[174.0, 185.0, 181.0, 156.0, 154.0, 154.0, 156.0, 181.0, 185.0, 174.0]",0.11918210238218307,-0.06776054948568344,0.001983642578125,-0.0001773834228515625,-27.97406005859375
1743586410.2247083,-0.1355210933344245,-0.0,"[174.0, 185.0, 181.0, 156.0, 154.0, 154.0, 156.0, 181.0, 185.0, 174.0]",0.17161054909229279,-0.06776054948568344,0.0018310546875,-0.000179290771484375,-27.970626831054688
1743586410.2568712,-0.1355210933344245,-0.0,"[174.0, 185.0, 181.0, 156.0, 154.0, 154.0, 156.0, 181.0, 185.0, 174.0]",0.11301300674676895,-0.06776054948568344,0.001739501953125,-0.000179290771484375,-27.968368530273438
1743586410.261093,-0.1355210933344245,-0.0,"[174.0, 185.0, 181.0, 156.0, 154.0, 154.0, 156.0, 181.0, 185.0, 174.0]",0.19054508209228516,-0.06776054948568344,0.00189208984375,-0.0001811981201171875,-27.972183227539062
1743586410.2911124,-0.1355210933344245,-0.0,"[174.0, 185.0, 181.0, 156.0, 154.0, 154.0, 156.0, 181.0, 185.0, 174.0]",0.12900428473949432,-0.06776054948568344,0.00201416015625,-0.0001811981201171875,-27.974761962890625
1743586410.2951348,-0.1355210933344245,-0.0,"[174.0, 185.0, 181.0, 156.0, 154.0, 154.0, 156.0, 181.0, 185.0, 174.0]",0.12681153416633606,-0.06776054948568344,0.001922607421875,-0.0001811981201171875,-27.97222900390625
1743586410.3261123,-0.1355210933344245,-0.0,"[174.0, 185.0, 181.0, 156.0, 154.0, 154.0, 156.0, 181.0, 185.0, 174.0]",0.1820586621761322,-0.06776054948568344,0.0020751953125,-0.0001811981201171875,-27.975868225097656
1743586410.3568876,-0.1355210933344245,-0.0,"[174.0, 185.0, 181.0, 156.0, 154.0, 154.0, 156.0, 181.0, 185.0, 174.0]",0.1315350979566574,-0.06776054948568344,0.002197265625,-0.0001811981201171875,-27.978500366210938
1743586410.3602386,-0.1355210933344245,-0.0,"[174.0, 185.0, 181.0, 156.0, 154.0, 154.0, 156.0, 181.0, 185.0, 174.0]",0.11155697703361511,-0.06776054948568344,0.00213623046875,-0.0001811981201171875,-27.976272583007812
1743586410.3896937,-0.1355210933344245,-0.0,"[174.0, 185.0, 181.0, 156.0, 154.0, 154.0, 156.0, 181.0, 185.0, 174.0]",0.17717304825782776,-0.06776054948568344,0.002288818359375,-0.0001811981201171875,-27.979812622070312
1743586410.3928485,-0.1355210933344245,-0.0,"[174.0, 185.0, 181.0, 156.0, 154.0, 154.0, 156.0, 181.0, 185.0, 174.0]",0.1263260692358017,-0.06776054948568344,0.00238037109375,-0.0001811981201171875,-27.982345581054688
1743586410.427266,-0.1355210933344245,-0.0,"[174.0, 185.0, 181.0, 156.0, 154.0, 154.0, 156.0, 181.0, 185.0, 174.0]",0.13774338364601135,-0.06776054948568344,0.002288818359375,-0.0001811981201171875,-27.979591369628906
1743586410.4591317,-0.1355210933344245,-0.0,"[174.0, 185.0, 181.0, 156.0, 154.0, 154.0, 156.0, 181.0, 185.0, 174.0]",0.053316764533519745,-0.06776054948568344,0.0023193359375,-0.0001811981201171875,-27.98065948486328
1743586410.4622529,-0.1355210933344245,-0.0,"[174.0, 185.0, 181.0, 156.0, 154.0, 154.0, 156.0, 181.0, 185.0, 174.0]",0.18121187388896942,-0.06776054948568344,0.002166748046875,-0.0001811981201171875,-27.977027893066406
1743586410.4924822,-0.1355210933344245,-0.0,"[174.0, 185.0, 181.0, 156.0, 154.0, 154.0, 156.0, 181.0, 185.0, 174.0]",0.13166704773902893,-0.06776054948568344,0.002044677734375,-0.0001811981201171875,-27.974395751953125
1743586410.4954932,-0.1355210933344245,-0.0,"[174.0, 185.0, 181.0, 156.0, 154.0, 154.0, 156.0, 181.0, 185.0, 174.0]",0.11089859902858734,-0.06776054948568344,0.00213623046875,-0.0001811981201171875,-27.97661590576172
1743586410.5266712,-0.1355210933344245,-0.0,"[174.0, 185.0, 181.0, 156.0, 154.0, 154.0, 156.0, 181.0, 185.0, 174.0]",0.1774042546749115,-0.06776054948568344,0.001983642578125,-0.0001811981201171875,-27.973060607910156
1743586410.5557752,-0.1355210933344245,-0.0,"[174.0, 185.0, 181.0, 156.0, 154.0, 154.0, 156.0, 181.0, 185.0, 174.0]",0.1265757530927658,-0.06776054948568344,0.001861572265625,-0.0001811981201171875,-27.97052764892578
1743586410.5585768,-0.1355210933344245,-0.0,"[174.0, 185.0, 181.0, 156.0, 154.0, 154.0, 156.0, 181.0, 185.0, 174.0]",0.13661330938339233,-0.06776054948568344,0.001983642578125,-0.0001811981201171875,-27.9732666015625
1743586410.5877764,-0.1355210933344245,-0.0,"[174.0, 185.0, 181.0, 156.0, 154.0, 154.0, 156.0, 181.0, 185.0, 174.0]",0.06524484604597092,-0.06776054948568344,0.001922607421875,-0.0001811981201171875,-27.971954345703125
1743586410.590554,-0.1355210933344245,-0.0,"[174.0, 185.0, 181.0, 156.0, 154.0, 154.0, 156.0, 181.0, 185.0, 174.0]",0.1727018654346466,-0.06776054948568344,0.0020751953125,-0.0001811981201171875,-27.97541046142578
1743586410.622673,-0.1355210933344245,-0.0,"[174.0, 185.0, 181.0, 156.0, 154.0, 154.0, 156.0, 181.0, 185.0, 174.0]",0.11601919680833817,-0.06776054948568344,0.002166748046875,-0.0001811981201171875,-27.977737426757812
1743586410.6547508,-0.1355210933344245,-0.0,"[174.0, 185.0, 181.0, 156.0, 154.0, 154.0, 156.0, 181.0, 185.0, 174.0]",0.18358410894870758,-0.06776054948568344,0.00201416015625,-0.000179290771484375,-27.97406005859375
1743586410.657815,-0.1355210933344245,-0.0,"[174.0, 185.0, 181.0, 156.0, 154.0, 154.0, 156.0, 181.0, 185.0, 174.0]",0.13259631395339966,-0.06776054948568344,0.00189208984375,-0.000179290771484375,-27.971405029296875
1743586410.689147,-0.1355210933344245,-0.0,"[174.0, 185.0, 181.0, 156.0, 154.0, 154.0, 156.0, 181.0, 185.0, 174.0]",0.10494568198919296,-0.06776054948568344,0.001953125,-0.000179290771484375,-27.97350311279297
1743586410.6918807,-0.1355210933344245,-0.0,"[174.0, 185.0, 181.0, 156.0, 154.0, 154.0, 156.0, 181.0, 185.0, 174.0]",0.1906663328409195,-0.06776054948568344,0.001800537109375,-0.000179290771484375,-27.969688415527344
1743586410.7234857,-0.1355210933344245,-0.0,"[174.0, 185.0, 181.0, 156.0, 154.0, 154.0, 156.0, 181.0, 185.0, 174.0]",0.12875232100486755,-0.06776054948568344,0.001678466796875,-0.000179290771484375,-27.96710968017578
1743586410.7533867,-0.1355210933344245,-0.0,"[174.0, 185.0, 181.0, 156.0, 154.0, 154.0, 156.0, 181.0, 185.0, 174.0]",0.12799842655658722,-0.06776054948568344,0.00177001953125,-0.000179290771484375,-27.96967315673828
1743586410.7562544,-0.1355210933344245,-0.0,"[174.0, 185.0, 181.0, 156.0, 154.0, 154.0, 156.0, 181.0, 185.0, 174.0]",0.17119276523590088,-0.06776054948568344,0.001617431640625,-0.000179290771484375,-27.96624755859375
1743586410.7848985,-0.1355210933344245,-0.0,"[174.0, 185.0, 181.0, 156.0, 154.0, 154.0, 156.0, 181.0, 185.0, 174.0]",0.11018086969852448,-0.06776054948568344,0.00152587890625,-0.000179290771484375,-27.96404266357422
1743586410.8167384,-0.1355210933344245,-0.0,"[174.0, 185.0, 181.0, 156.0, 154.0, 154.0, 156.0, 181.0, 185.0, 174.0]",0.1934174746274948,-0.06776054948568344,0.001678466796875,-0.000179290771484375,-27.967910766601562
1743586410.8196924,-0.1355210933344245,-0.0,"[174.0, 185.0, 181.0, 156.0, 154.0, 154.0, 156.0, 181.0, 185.0, 174.0]",0.12335958331823349,-0.06776054948568344,0.001800537109375,-0.000179290771484375,-27.970382690429688
1743586410.851466,-0.1355210933344245,-0.0,"[174.0, 185.0, 181.0, 156.0, 154.0, 154.0, 156.0, 181.0, 185.0, 174.0]",0.15234200656414032,-0.06776054948568344,0.001678466796875,-0.000179290771484375,-27.967330932617188
1743586410.8546562,-0.1355210933344245,-0.0,"[174.0, 185.0, 181.0, 156.0, 154.0, 154.0, 156.0, 181.0, 185.0, 174.0]",0.02194090001285076,-0.06776054948568344,0.00164794921875,-0.000179290771484375,-27.966896057128906
1743586410.8851206,-0.1355210933344245,-0.0,"[174.0, 185.0, 181.0, 156.0, 154.0, 154.0, 156.0, 181.0, 185.0, 174.0]",0.19558392465114594,-0.06776054948568344,0.0018310546875,-0.000179290771484375,-27.970809936523438
1743586410.9194362,-0.1355210933344245,-0.0,"[174.0, 185.0, 181.0, 156.0, 154.0, 154.0, 156.0, 181.0, 185.0, 174.0]",0.11721830815076828,-0.06776054948568344,0.001922607421875,-0.000179290771484375,-27.973159790039062
1743586410.922817,-0.1355210933344245,-0.0,"[174.0, 185.0, 181.0, 156.0, 154.0, 154.0, 156.0, 181.0, 185.0, 174.0]",0.17994369566440582,-0.06776054948568344,0.00177001953125,-0.000179290771484375,-27.969558715820312
1743586410.95244,-0.1355210933344245,-0.0,"[174.0, 185.0, 181.0, 156.0, 154.0, 154.0, 156.0, 181.0, 185.0, 174.0]",0.1299830675125122,-0.06776054948568344,0.00164794921875,-0.000179290771484375,-27.966949462890625
1743586410.9551816,-0.1355210933344245,-0.0,"[174.0, 185.0, 181.0, 156.0, 154.0, 154.0, 156.0, 181.0, 185.0, 174.0]",0.12012200057506561,-0.06776054948568344,0.001739501953125,-0.000179290771484375,-27.9693603515625
1743586410.9850054,-0.1355210933344245,-0.0,"[174.0, 185.0, 181.0, 156.0, 154.0, 154.0, 156.0, 181.0, 185.0, 174.0]",0.1980002522468567,-0.06776054948568344,0.0015869140625,-0.000179290771484375,-27.96539306640625
1743586411.0168269,-0.1355210933344245,-0.0,"[174.0, 185.0, 181.0, 156.0, 154.0, 154.0, 156.0, 181.0, 185.0, 174.0]",0.10944057255983353,-0.06776054948568344,0.00146484375,-0.000179290771484375,-27.96320343017578
1743586411.0197704,-0.1355210933344245,-0.0,"[174.0, 185.0, 181.0, 156.0, 154.0, 154.0, 156.0, 181.0, 185.0, 174.0]",0.19077622890472412,-0.06776054948568344,0.00164794921875,-0.000179290771484375,-27.967018127441406
1743586411.0520077,-0.1355210933344245,-0.0,"[174.0, 185.0, 181.0, 156.0, 154.0, 154.0, 156.0, 181.0, 185.0, 174.0]",0.12839612364768982,-0.06776054948568344,0.00177001953125,-0.000179290771484375,-27.969589233398438
1743586411.0550034,-0.1355210933344245,-0.0,"[174.0, 185.0, 181.0, 156.0, 154.0, 154.0, 156.0, 181.0, 185.0, 174.0]",0.1295126974582672,-0.06776054948568344,0.00164794921875,-0.000179290771484375,-27.966995239257812
1743586411.088187,-0.1355210933344245,-0.0,"[174.0, 185.0, 181.0, 156.0, 154.0, 154.0, 156.0, 181.0, 185.0, 174.0]",0.15434008836746216,-0.06776054948568344,0.001800537109375,-0.000179290771484375,-27.9700927734375
1743586411.125367,-0.1355210933344245,-0.0,"[174.0, 185.0, 181.0, 156.0, 154.0, 154.0, 156.0, 181.0, 185.0, 174.0]",0.038010094314813614,-0.06776054948568344,0.0018310546875,-0.000179290771484375,-27.970848083496094
1743586411.129859,-0.1355210933344245,-0.0,"[174.0, 185.0, 181.0, 156.0, 154.0, 154.0, 156.0, 181.0, 185.0, 174.0]",0.20439358055591583,-0.06776054948568344,0.00164794921875,-0.000179290771484375,-27.966758728027344
1743586411.158542,-0.1355210933344245,-0.0,"[174.0, 185.0, 181.0, 156.0, 154.0, 154.0, 156.0, 181.0, 185.0, 174.0]",0.07988209277391434,-0.06776054948568344,0.0015869140625,-0.000179290771484375,-27.965164184570312
1743586411.1629064,-0.1355210933344245,-0.0,"[174.0, 185.0, 181.0, 156.0, 154.0, 154.0, 156.0, 181.0, 185.0, 174.0]",0.18827949464321136,-0.06776054948568344,0.001739501953125,-0.000179290771484375,-27.96893310546875
1743586411.1912808,-0.1355210933344245,-0.0,"[174.0, 185.0, 181.0, 156.0, 154.0, 154.0, 156.0, 181.0, 185.0, 174.0]",0.1315682828426361,-0.06776054948568344,0.001861572265625,-0.000179290771484375,-27.97156524658203
1743586411.1942935,-0.1355210933344245,-0.0,"[174.0, 185.0, 181.0, 156.0, 154.0, 154.0, 156.0, 181.0, 185.0, 174.0]",0.11167590320110321,-0.06776054948568344,0.001800537109375,-0.000179290771484375,-27.969329833984375
1743586411.2255147,-0.1355210933344245,-0.0,"[174.0, 185.0, 181.0, 156.0, 154.0, 154.0, 156.0, 181.0, 185.0, 174.0]",0.176963672041893,-0.06776054948568344,0.001922607421875,-0.000179290771484375,-27.972869873046875
1743586411.2575903,-0.1355210933344245,-0.0,"[174.0, 185.0, 181.0, 156.0, 154.0, 154.0, 156.0, 181.0, 185.0, 174.0]",0.12592850625514984,-0.06776054948568344,0.002044677734375,-0.000179290771484375,-27.975387573242188
1743586411.2619815,-0.1355210933344245,-0.0,"[174.0, 185.0, 181.0, 156.0, 154.0, 154.0, 156.0, 181.0, 185.0, 174.0]",0.1394055038690567,-0.06776054948568344,0.001953125,-0.000179290771484375,-27.97260284423828
1743586411.2920418,-0.1355210933344245,-0.0,"[174.0, 185.0, 181.0, 156.0, 154.0, 154.0, 156.0, 181.0, 185.0, 174.0]",0.03828089311718941,-0.06776054948568344,0.001983642578125,-0.000179290771484375,-27.973365783691406
1743586411.2946227,-0.1355210933344245,-0.0,"[174.0, 185.0, 181.0, 156.0, 154.0, 154.0, 156.0, 181.0, 185.0, 174.0]",0.20702536404132843,-0.06776054948568344,0.001800537109375,-0.000179290771484375,-27.969223022460938
1743586411.3264425,-0.1355210933344245,-0.0,"[174.0, 185.0, 181.0, 156.0, 154.0, 154.0, 156.0, 181.0, 185.0, 174.0]",0.06601885706186295,-0.06776054948568344,0.001739501953125,-0.000179290771484375,-27.96790313720703
1743586411.3563695,-0.1355210933344245,-0.0,"[174.0, 185.0, 181.0, 156.0, 154.0, 154.0, 156.0, 181.0, 185.0, 174.0]",0.17260541021823883,-0.06776054948568344,0.00189208984375,-0.000179290771484375,-27.971359252929688
1743586411.3595042,-0.1355210933344245,-0.0,"[174.0, 185.0, 181.0, 156.0, 154.0, 154.0, 156.0, 181.0, 185.0, 174.0]",0.11573992669582367,-0.06776054948568344,0.001983642578125,-0.000179290771484375,-27.973670959472656
1743586411.3918233,-0.1355210933344245,-0.0,"[174.0, 185.0, 181.0, 156.0, 154.0, 154.0, 156.0, 181.0, 185.0, 174.0]",0.1845424771308899,-0.06776054948568344,0.0018310546875,-0.000179290771484375,-27.96997833251953
1743586411.395259,-0.1355210933344245,-0.0,"[174.0, 185.0, 181.0, 156.0, 154.0, 154.0, 156.0, 181.0, 185.0, 174.0]",0.13283663988113403,-0.06776054948568344,0.001708984375,-0.000179290771484375,-27.967315673828125
1743586411.437767,-0.1355210933344245,-0.0,"[174.0, 185.0, 227.0, 295.0, 259.0, 161.0, 182.0, 190.0, 185.0, 174.0]",0.0,0.0,0.0,0.10000038146972656,-27.93000030517578
1743586411.4413314,-0.1355210933344245,-0.0,"[174.0, 185.0, 227.0, 295.0, 259.0, 161.0, 182.0, 190.0, 185.0, 174.0]",0.8976176977157593,-0.06776054948568344,0.0,0.08204841613769531,-27.930015563964844
1743586411.4734464,-0.1355210933344245,-0.0,"[174.0, 185.0, 179.0, 155.0, 154.0, 154.0, 156.0, 180.0, 185.0, 174.0]",0.8461860418319702,-0.06776054948568344,0.0,0.06512641906738281,-27.929733276367188
1743586411.477772,-0.1355210933344245,-0.0,"[174.0, 185.0, 179.0, 155.0, 154.0, 154.0, 156.0, 180.0, 185.0, 174.0]",0.7980753183364868,-0.06776054948568344,0.0001220703125,0.04947090148925781,-27.932838439941406
1743586411.511126,-0.1355210933344245,-0.0,"[174.0, 185.0, 179.0, 156.0, 154.0, 154.0, 156.0, 181.0, 185.0, 174.0]",0.730911135673523,-0.06776054948568344,0.000274658203125,0.03524208068847656,-27.936195373535156
1743586411.514196,-0.1355210933344245,-0.0,"[174.0, 185.0, 179.0, 156.0, 154.0, 154.0, 156.0, 181.0, 185.0, 174.0]",0.6422021389007568,-0.06776054948568344,0.0003662109375,0.022546768188476562,-27.938140869140625
1743586411.5448139,-0.1355210933344245,-0.0,"[174.0, 185.0, 181.0, 156.0, 154.0, 154.0, 156.0, 181.0, 185.0, 174.0]",0.6284833550453186,-0.06776054948568344,0.000152587890625,0.011430740356445312,-27.932273864746094
1743586411.5740857,-0.1355210933344245,-0.0,"[174.0, 185.0, 181.0, 156.0, 154.0, 154.0, 156.0, 181.0, 185.0, 174.0]",0.5752274990081787,-0.06776054948568344,0.00042724609375,0.001895904541015625,-27.938720703125
1743586411.5769992,-0.1355210933344245,-0.0,"[174.0, 185.0, 181.0, 156.0, 154.0, 154.0, 156.0, 181.0, 185.0, 174.0]",0.514237642288208,-0.06776054948568344,0.000152587890625,-0.006092071533203125,-27.932235717773438
1743586411.608317,-0.1355210933344245,-0.0,"[174.0, 185.0, 181.0, 156.0, 154.0, 154.0, 156.0, 181.0, 185.0, 174.0]",0.4656219184398651,-0.06776054948568344,0.00042724609375,-0.012601852416992188,-27.93890380859375
1743586411.6118493,-0.1355210933344245,-0.0,"[174.0, 185.0, 181.0, 156.0, 154.0, 154.0, 156.0, 181.0, 185.0, 174.0]",0.40668219327926636,-0.06776054948568344,0.000152587890625,-0.01772308349609375,-27.932571411132812
1743586411.6474383,-0.1355210933344245,-0.0,"[174.0, 185.0, 181.0, 156.0, 154.0, 154.0, 158.0, 181.0, 185.0, 174.0]",0.3424372673034668,-0.06776054948568344,0.000396728515625,-0.021566390991210938,-27.938247680664062
1743586411.6821456,-0.1355210933344245,-0.0,"[174.0, 185.0, 181.0, 156.0, 154.0, 154.0, 158.0, 183.0, 185.0, 174.0]",0.30411091446876526,-0.06776054948568344,0.00018310546875,-0.02425384521484375,-27.932785034179688
1743586411.6846867,-0.1355210933344245,-0.0,"[174.0, 185.0, 181.0, 156.0, 154.0, 154.0, 158.0, 183.0, 185.0, 174.0]",0.19180311262607574,-0.06776054948568344,0.00030517578125,-0.025915145874023438,-27.936248779296875
1743586411.7164896,-0.1355210933344245,-0.0,"[174.0, 185.0, 181.0, 156.0, 154.0, 154.0, 156.0, 181.0, 185.0, 174.0]",0.25864729285240173,-0.06776054948568344,0.000518798828125,-0.02667999267578125,-27.941368103027344
1743586411.7198334,-0.1355210933344245,-0.0,"[174.0, 185.0, 181.0, 156.0, 154.0, 154.0, 156.0, 181.0, 185.0, 174.0]",0.2330949455499649,-0.06776054948568344,0.000335693359375,-0.026681900024414062,-27.93670654296875
1743586411.7505898,-0.1355210933344245,-0.0,"[174.0, 185.0, 181.0, 156.0, 154.0, 154.0, 156.0, 181.0, 185.0, 174.0]",0.05881892889738083,-0.06776054948568344,0.0003662109375,-0.0260467529296875,-27.937698364257812
1743586411.7535129,-0.1355210933344245,-0.0,"[174.0, 185.0, 181.0, 156.0, 154.0, 154.0, 156.0, 181.0, 185.0, 174.0]",0.17578189074993134,-0.06776054948568344,0.000213623046875,-0.024898529052734375,-27.934371948242188
1743586411.7834413,-0.1355210933344245,-0.0,"[174.0, 185.0, 181.0, 156.0, 154.0, 154.0, 156.0, 181.0, 185.0, 174.0]",0.16751673817634583,-0.06776054948568344,9.1552734375e-05,-0.023349761962890625,-27.931396484375
1743586411.8149412,-0.1355210933344245,-0.0,"[174.0, 185.0, 181.0, 156.0, 154.0, 154.0, 156.0, 181.0, 185.0, 174.0]",0.09237769991159439,-0.06776054948568344,6.103515625e-05,-0.021505355834960938,-27.931297302246094
1743586411.8178174,-0.1355210933344245,-0.0,"[174.0, 185.0, 181.0, 156.0, 154.0, 154.0, 156.0, 181.0, 185.0, 174.0]",0.11348214745521545,-0.06776054948568344,0.0001220703125,-0.019458770751953125,-27.932281494140625
1743586411.8493836,-0.1355210933344245,-0.0,"[174.0, 185.0, 181.0, 156.0, 154.0, 154.0, 156.0, 181.0, 185.0, 174.0]",0.22348523139953613,-0.06776054948568344,-3.0517578125e-05,-0.017292022705078125,-27.928367614746094
1743586411.8524406,-0.1355210933344245,-0.0,"[174.0, 185.0, 181.0, 156.0, 154.0, 154.0, 156.0, 181.0, 185.0, 174.0]",0.1683189421892166,-0.06776054948568344,-0.000152587890625,-0.015077590942382812,-27.925827026367188
1743586411.8824818,-0.1355210933344245,-0.0,"[174.0, 185.0, 181.0, 156.0, 154.0, 154.0, 156.0, 181.0, 185.0, 174.0]",0.1755332201719284,-0.06776054948568344,-6.103515625e-05,-0.012876510620117188,-27.928565979003906
1743586411.9152896,-0.1355210933344245,-0.0,"[174.0, 185.0, 181.0, 156.0, 154.0, 154.0, 156.0, 181.0, 185.0, 174.0]",0.11988073587417603,-0.06776054948568344,-9.1552734375e-05,-0.010740280151367188,-27.927474975585938
1743586411.9182603,-0.1355210933344245,-0.0,"[174.0, 185.0, 181.0, 156.0, 154.0, 154.0, 156.0, 181.0, 185.0, 174.0]",0.20569314062595367,-0.06776054948568344,6.103515625e-05,-0.008707046508789062,-27.931053161621094
1743586411.948135,-0.1355210933344245,-0.0,"[174.0, 185.0, 181.0, 156.0, 154.0, 154.0, 156.0, 181.0, 185.0, 174.0]",0.14408238232135773,-0.06776054948568344,0.000152587890625,-0.0068111419677734375,-27.9332275390625
1743586411.950791,-0.1355210933344245,-0.0,"[174.0, 185.0, 181.0, 156.0, 154.0, 154.0, 156.0, 181.0, 185.0, 174.0]",0.2023497372865677,-0.06776054948568344,0.0,-0.0050716400146484375,-27.9295654296875
1743586411.9571087,-0.1355210933344245,-0.0,"[174.0, 185.0, 180.0, 156.0, 154.0, 154.0, 156.0, 181.0, 185.0, 174.0]",0.1311304271221161,-0.06776054948568344,-9.1552734375e-05,-0.0035076141357421875,-27.927459716796875
1743586411.9632926,-0.1355210933344245,-0.0,"[174.0, 185.0, 180.0, 156.0, 154.0, 154.0, 156.0, 181.0, 185.0, 174.0]",0.1954733282327652,-0.06776054948568344,6.103515625e-05,-0.002124786376953125,-27.931121826171875
1743586411.9819925,-0.1355210933344245,-0.0,"[174.0, 185.0, 180.0, 156.0, 154.0, 154.0, 156.0, 181.0, 185.0, 174.0]",0.11993326991796494,-0.06776054948568344,0.000152587890625,-0.000926971435546875,-27.933197021484375
1743586412.0043383,-0.1355210933344245,-0.0,"[174.0, 185.0, 180.0, 156.0, 154.0, 154.0, 156.0, 181.0, 185.0, 174.0]",0.1895395964384079,-0.06776054948568344,0.0,8.7738037109375e-05,-27.929550170898438
1743586412.0225158,-0.1355210933344245,-0.0,"[174.0, 185.0, 180.0, 156.0, 154.0, 154.0, 156.0, 181.0, 185.0, 174.0]",0.11302869766950607,-0.06776054948568344,-9.1552734375e-05,0.000926971435546875,-27.927444458007812
1743586412.0423186,-0.1355210933344245,-0.0,"[174.0, 185.0, 180.0, 156.0, 154.0, 154.0, 156.0, 181.0, 185.0, 174.0]",0.18640536069869995,-0.06776054948568344,6.103515625e-05,0.0016002655029296875,-27.931114196777344
1743586412.0634232,-0.1355210933344245,-0.0,"[174.0, 185.0, 180.0, 156.0, 154.0, 154.0, 156.0, 181.0, 185.0, 174.0]",0.11131241172552109,-0.06776054948568344,0.000152587890625,0.002117156982421875,-27.93328094482422
1743586412.0817137,-0.1355210933344245,-0.0,"[174.0, 185.0, 180.0, 156.0, 154.0, 154.0, 156.0, 181.0, 185.0, 174.0]",0.18535569310188293,-0.06776054948568344,0.0,0.0024929046630859375,-27.929595947265625
1743586412.1024005,-0.1355210933344245,-0.0,"[174.0, 185.0, 180.0, 156.0, 154.0, 154.0, 156.0, 181.0, 185.0, 174.0]",0.11316525936126709,-0.06776054948568344,-9.1552734375e-05,0.002742767333984375,-27.927337646484375
1743586412.1219747,-0.1355210933344245,-0.0,"[174.0, 185.0, 180.0, 156.0, 154.0, 154.0, 156.0, 181.0, 185.0, 174.0]",0.18345411121845245,-0.06776054948568344,6.103515625e-05,0.002880096435546875,-27.931015014648438
1743586412.1427124,-0.1355210933344245,-0.0,"[174.0, 185.0, 180.0, 156.0, 154.0, 154.0, 156.0, 181.0, 185.0, 174.0]",0.11688504368066788,-0.06776054948568344,0.000152587890625,0.00292205810546875,-27.933349609375
1743586412.1622603,-0.1355210933344245,-0.0,"[174.0, 185.0, 180.0, 156.0, 154.0, 154.0, 156.0, 181.0, 185.0, 174.0]",0.17436927556991577,-0.06776054948568344,0.0,0.0028820037841796875,-27.92986297607422
1743586412.1823845,-0.1355210933344245,-0.0,"[174.0, 185.0, 180.0, 156.0, 154.0, 154.0, 156.0, 181.0, 185.0, 174.0]",0.11062765121459961,-0.06776054948568344,-9.1552734375e-05,0.0027751922607421875,-27.927650451660156
1743586412.2043056,-0.1355210933344245,-0.0,"[174.0, 185.0, 181.0, 156.0, 154.0, 154.0, 156.0, 181.0, 185.0, 174.0]",0.18931376934051514,-0.06776054948568344,6.103515625e-05,0.00261688232421875,-27.931434631347656
1743586412.2227972,-0.1355210933344245,-0.0,"[174.0, 185.0, 181.0, 156.0, 154.0, 154.0, 156.0, 181.0, 185.0, 174.0]",0.12385182082653046,-0.06776054948568344,0.00018310546875,0.00241851806640625,-27.93390655517578
1743586412.242219,-0.1355210933344245,-0.0,"[174.0, 185.0, 181.0, 156.0, 154.0, 154.0, 156.0, 181.0, 185.0, 174.0]",0.15010346472263336,-0.06776054948568344,6.103515625e-05,0.00218963623046875,-27.930908203125
1743586412.2631867,-0.1355210933344245,-0.0,"[174.0, 185.0, 181.0, 156.0, 154.0, 154.0, 156.0, 181.0, 185.0, 174.0]",0.016155114397406578,-0.06776054948568344,6.103515625e-05,0.0019435882568359375,-27.930702209472656
1743586412.282556,-0.1355210933344245,-0.0,"[174.0, 185.0, 181.0, 156.0, 154.0, 154.0, 156.0, 181.0, 185.0, 174.0]",0.0875135287642479,-0.06776054948568344,0.0001220703125,0.0016880035400390625,-27.93243408203125
1743586412.3020432,-0.1355210933344245,-0.0,"[174.0, 185.0, 181.0, 156.0, 154.0, 154.0, 156.0, 181.0, 185.0, 174.0]",0.20441560447216034,-0.06776054948568344,-3.0517578125e-05,0.001430511474609375,-27.92835235595703
1743586412.322737,-0.1355210933344245,-0.0,"[174.0, 185.0, 181.0, 156.0, 154.0, 154.0, 156.0, 181.0, 185.0, 174.0]",0.08373606950044632,-0.06776054948568344,-0.0001220703125,0.0011768341064453125,-27.92669677734375
1743586412.34255,-0.1355210933344245,-0.0,"[174.0, 185.0, 181.0, 156.0, 154.0, 154.0, 156.0, 181.0, 185.0, 174.0]",0.19565251469612122,-0.06776054948568344,3.0517578125e-05,0.000934600830078125,-27.93060302734375
1743586412.3619382,-0.1355210933344245,-0.0,"[174.0, 185.0, 181.0, 156.0, 154.0, 154.0, 156.0, 181.0, 185.0, 174.0]",0.12160255759954453,-0.06776054948568344,0.000152587890625,0.000705718994140625,-27.933029174804688
1743586412.3822076,-0.1355210933344245,-0.0,"[174.0, 185.0, 181.0, 156.0, 154.0, 154.0, 156.0, 181.0, 185.0, 174.0]",0.16565506160259247,-0.06776054948568344,3.0517578125e-05,0.0004940032958984375,-27.929718017578125
1743586412.4041932,-0.1355210933344245,-0.0,"[174.0, 185.0, 181.0, 156.0, 154.0, 154.0, 156.0, 181.0, 185.0, 174.0]",0.09222228825092316,-0.06776054948568344,-6.103515625e-05,0.000301361083984375,-27.927879333496094
1743586412.4222062,-0.1355210933344245,-0.0,"[174.0, 185.0, 181.0, 156.0, 154.0, 154.0, 156.0, 181.0, 185.0, 174.0]",0.2086927890777588,-0.06776054948568344,0.0001220703125,0.00012969970703125,-27.932052612304688
1743586412.4422033,0.0,-0.0,"[174.0, 185.0, 181.0, 156.0, 154.0, 154.0, 156.0, 181.0, 185.0, 174.0]",0.06115693598985672,-0.06776054948568344,0.000152587890625,-2.09808349609375e-05,-27.933265686035156
1743586412.4622037,0.0,-0.0,"[174.0, 185.0, 181.0, 156.0, 154.0, 154.0, 156.0, 181.0, 185.0, 174.0]",0.1758413016796112,0.0,0.000152587890625,-0.0001506805419921875,-27.92974853515625
1743586412.482616,0.0,-0.0,"[174.0, 185.0, 181.0, 156.0, 154.0, 154.0, 156.0, 181.0, 185.0, 174.0]",0.14039181172847748,0.0,0.000152587890625,-0.0002593994140625,-27.92694854736328
1743586412.5024726,0.0,-0.0,"[174.0, 185.0, 181.0, 156.0, 154.0, 154.0, 156.0, 181.0, 185.0, 174.0]",0.04253370314836502,0.0,0.000152587890625,-0.000347137451171875,-27.92779541015625
1743586412.5213048,0.0,-0.0,"[174.0, 185.0, 181.0, 156.0, 154.0, 154.0, 156.0, 181.0, 185.0, 174.0]",0.21171115338802338,0.0,0.000152587890625,-0.000415802001953125,-27.923561096191406
1743586412.54269,0.0,-0.0,"[174.0, 185.0, 181.0, 156.0, 154.0, 154.0, 156.0, 181.0, 185.0, 174.0]",0.050344668328762054,0.0,0.000152587890625,-0.000469207763671875,-27.92255401611328
1743586412.5620236,0.0,-0.0,"[174.0, 185.0, 181.0, 156.0, 154.0, 154.0, 156.0, 181.0, 185.0, 174.0]",0.19489765167236328,0.0,0.000152587890625,-0.0005054473876953125,-27.92645263671875
1743586412.5826013,0.0,-0.0,"[174.0, 185.0, 181.0, 156.0, 154.0, 154.0, 156.0, 181.0, 185.0, 174.0]",0.12908753752708435,0.0,0.000152587890625,-0.0005283355712890625,-27.929031372070312
1743586412.6041234,0.0,-0.0,"[174.0, 185.0, 181.0, 156.0, 154.0, 154.0, 156.0, 181.0, 185.0, 174.0]",0.12723053991794586,0.0,0.000152587890625,-0.0005397796630859375,-27.926490783691406
1743586412.6225388,0.0,-0.0,"[174.0, 185.0, 181.0, 156.0, 154.0, 154.0, 156.0, 181.0, 185.0, 174.0]",0.1743934601545334,0.0,0.000152587890625,-0.0005397796630859375,-27.929977416992188
1743586412.6413994,0.0,-0.0,"[174.0, 185.0, 181.0, 156.0, 154.0, 154.0, 156.0, 181.0, 185.0, 174.0]",0.13263675570487976,0.0,0.00018310546875,-0.000530242919921875,-27.932632446289062
1743586412.6626444,0.0,-0.0,"[174.0, 185.0, 181.0, 156.0, 154.0, 154.0, 156.0, 181.0, 185.0, 174.0]",0.10250206291675568,0.0,0.00018310546875,-0.000514984130859375,-27.930580139160156
1743586412.681791,0.0,-0.0,"[174.0, 185.0, 181.0, 156.0, 154.0, 154.0, 156.0, 181.0, 185.0, 174.0]",0.20009514689445496,0.0,0.00018310546875,-0.00049591064453125,-27.934585571289062
1743586412.7032342,0.0,-0.0,"[174.0, 185.0, 181.0, 156.0, 154.0, 154.0, 156.0, 181.0, 185.0, 174.0]",0.10868092626333237,0.0,0.00018310546875,-0.0004711151123046875,-27.93675994873047
1743586412.722289,0.0,-0.0,"[174.0, 185.0, 181.0, 156.0, 154.0, 154.0, 156.0, 181.0, 185.0, 174.0]",0.19241870939731598,0.0,0.00018310546875,-0.0004425048828125,-27.932907104492188
1743586412.7418425,0.0,-0.0,"[174.0, 185.0, 181.0, 156.0, 154.0, 154.0, 156.0, 181.0, 185.0, 174.0]",0.13413530588150024,0.0,0.00018310546875,-0.0004138946533203125,-27.93022918701172
1743586412.7620413,0.0,-0.0,"[174.0, 185.0, 181.0, 156.0, 154.0, 154.0, 156.0, 181.0, 185.0, 174.0]",0.08985649794340134,0.0,0.00018310546875,-0.0003833770751953125,-27.932022094726562
1743586412.7825441,0.0,-0.0,"[174.0, 185.0, 181.0, 156.0, 154.0, 154.0, 156.0, 181.0, 185.0, 174.0]",0.2100115567445755,0.0,0.00018310546875,-0.000354766845703125,-27.927825927734375
1743586412.8051944,0.0,-0.0,"[174.0, 185.0, 181.0, 156.0, 154.0, 154.0, 156.0, 181.0, 185.0, 174.0]",0.05682484805583954,0.0,0.00018310546875,-0.0003261566162109375,-27.92668914794922
1743586412.8225567,0.0,-0.0,"[174.0, 185.0, 181.0, 156.0, 154.0, 154.0, 156.0, 181.0, 185.0, 174.0]",0.17972449958324432,0.0,0.00018310546875,-0.00029754638671875,-27.930282592773438
1743586412.8418515,0.0,-0.0,"[174.0, 185.0, 181.0, 156.0, 154.0, 154.0, 156.0, 181.0, 185.0, 174.0]",0.1422968953847885,0.0,0.00018310546875,-0.0002727508544921875,-27.933128356933594
1743586412.8628025,0.0,-0.0,"[174.0, 185.0, 181.0, 156.0, 154.0, 154.0, 156.0, 181.0, 185.0, 174.0]",0.024947339668869972,0.0,0.00018310546875,-0.000247955322265625,-27.932632446289062
1743586412.882433,0.0,-0.0,"[174.0, 185.0, 181.0, 156.0, 154.0, 154.0, 156.0, 181.0, 185.0, 174.0]",0.18739226460456848,0.0,0.00018310546875,-0.0002269744873046875,-27.936378479003906
1743586412.902442,0.0,-0.0,"[174.0, 185.0, 181.0, 156.0, 154.0, 154.0, 156.0, 181.0, 185.0, 174.0]",0.14181366562843323,0.0,0.00018310546875,-0.0002079010009765625,-27.939208984375
1743586412.9222925,0.0,-0.0,"[174.0, 185.0, 181.0, 156.0, 154.0, 154.0, 156.0, 181.0, 185.0, 174.0]",0.028619367629289627,0.0,0.000213623046875,-0.0001926422119140625,-27.938644409179688
1743586412.9422324,0.0,-0.0,"[174.0, 185.0, 181.0, 156.0, 154.0, 154.0, 156.0, 181.0, 185.0, 174.0]",0.1855146884918213,0.0,0.000213623046875,-0.0001773834228515625,-27.942352294921875
1743586412.9622688,0.0,-0.0,"[174.0, 185.0, 181.0, 156.0, 154.0, 154.0, 156.0, 181.0, 185.0, 174.0]",0.14309144020080566,0.0,0.000213623046875,-0.0001659393310546875,-27.945213317871094
1743586412.9825964,0.0,-0.0,"[174.0, 185.0, 181.0, 156.0, 154.0, 154.0, 156.0, 181.0, 185.0, 174.0]",0.0192522294819355,0.0,0.000213623046875,-0.000156402587890625,-27.94482421875
1743586413.005565,0.0,-0.0,"[174.0, 185.0, 181.0, 156.0, 154.0, 154.0, 156.0, 181.0, 185.0, 174.0]",0.18703775107860565,0.0,0.000213623046875,-0.0001506805419921875,-27.948562622070312
1743586413.0240695,0.0,-0.0,"[174.0, 185.0, 181.0, 156.0, 154.0, 154.0, 156.0, 181.0, 185.0, 174.0]",0.1416492760181427,0.0,0.000213623046875,-0.00014495849609375,-27.951400756835938
1743586413.0444345,0.0,-0.0,"[174.0, 185.0, 181.0, 156.0, 154.0, 154.0, 156.0, 181.0, 185.0, 174.0]",0.029925605282187462,0.0,0.000213623046875,-0.000141143798828125,-27.95079803466797
1743586413.0651016,0.0,-0.0,"[174.0, 185.0, 181.0, 156.0, 154.0, 154.0, 156.0, 181.0, 185.0, 174.0]",0.18863406777381897,0.0,0.000213623046875,-0.0001392364501953125,-27.954574584960938
1743586413.0842717,0.0,-0.0,"[174.0, 185.0, 181.0, 156.0, 154.0, 154.0, 156.0, 181.0, 185.0, 174.0]",0.1401095986366272,0.0,0.000244140625,-0.0001373291015625,-27.957374572753906
1743586413.1040323,0.0,-0.0,"[174.0, 185.0, 181.0, 156.0, 154.0, 154.0, 156.0, 181.0, 185.0, 174.0]",0.04186149686574936,0.0,0.000244140625,-0.0001392364501953125,-27.95653533935547
1743586413.1228685,0.0,-0.0,"[174.0, 185.0, 181.0, 156.0, 154.0, 154.0, 156.0, 181.0, 185.0, 174.0]",0.2103549689054489,0.0,0.000244140625,-0.0001392364501953125,-27.96074676513672
1743586413.143,0.0,-0.0,"[174.0, 185.0, 181.0, 156.0, 154.0, 154.0, 156.0, 181.0, 185.0, 174.0]",0.055095311254262924,0.0,0.000244140625,-0.000141143798828125,-27.96184539794922
1743586413.1629128,0.0,0.2969888182619589,"[174.0, 185.0, 181.0, 156.0, 154.0, 154.0, 156.0, 181.0, 185.0, 174.0]",0.18286827206611633,0.0,0.000244140625,-0.00014495849609375,-27.95819091796875
1743586413.183327,0.0,0.41725049877047277,"[174.0, 185.0, 181.0, 156.0, 154.0, 154.0, 156.0, 181.0, 185.0, 174.0]",0.14381884038448334,0.0,0.000244140625,-0.0001468658447265625,-27.95531463623047
1743586413.208134,0.0,0.5523593003294205,"[174.0, 185.0, 181.0, 156.0, 154.0, 154.0, 156.0, 181.0, 185.0, 174.0]",0.05209215357899666,0.0,-0.00079345703125,-0.0001506805419921875,-27.955474853515625
1743586413.226348,0.0,0.8040180021342737,"[174.0, 185.0, 181.0, 156.0, 154.0, 154.0, 156.0, 181.0, 185.0, 174.0]",0.10813770443201065,0.0,-0.0029296875,-0.0001544952392578125,-27.955116271972656
1743586413.244377,-0.15712590531527476,0.8997819329095718,"[174.0, 185.0, 181.0, 156.0, 154.0, 154.0, 156.0, 181.0, 185.0, 174.0]",0.2137991189956665,0.0,-0.0072021484375,-0.000156402587890625,-27.95526123046875
1743586413.264258,-0.18134948238471296,1.0259824618382591,"[174.0, 185.0, 181.0, 156.0, 154.0, 154.0, 156.0, 181.0, 185.0, 174.0]",0.30777671933174133,-0.07856295257806778,-0.013336181640625,-0.00016021728515625,-27.95562744140625
1743586413.283377,-0.18134948238471296,1.0259824618382591,"[174.0, 185.0, 181.0, 156.0, 154.0, 154.0, 156.0, 181.0, 185.0, 174.0]",0.44743943214416504,-0.0906747430562973,-0.02227783203125,-0.000164031982421875,-27.9556884765625
1743586413.3033938,-0.18134948238471296,1.0259824618382591,"[174.0, 185.0, 181.0, 156.0, 154.0, 154.0, 156.0, 181.0, 185.0, 174.0]",0.5915052890777588,-0.0906747430562973,-0.03411865234375,-0.0001678466796875,-27.956077575683594
1743586413.323551,-0.18134948238471296,1.0259824618382591,"[174.0, 185.0, 181.0, 156.0, 154.0, 154.0, 156.0, 181.0, 185.0, 174.0]",0.7128393650054932,-0.0906747430562973,-0.048370361328125,-0.0001697540283203125,-27.956558227539062
1743586413.3443713,-0.18134948238471296,1.0259824618382591,"[174.0, 185.0, 181.0, 156.0, 154.0, 154.0, 156.0, 181.0, 185.0, 174.0]",0.847928524017334,-0.0906747430562973,-0.0653076171875,-0.000171661376953125,-27.95708465576172
1743586413.363406,-0.18134948238471296,1.0259824618382591,"[174.0, 185.0, 181.0, 156.0, 154.0, 154.0, 156.0, 181.0, 185.0, 174.0]",0.9841629266738892,-0.0906747430562973,-0.084991455078125,-0.00017547607421875,-27.95769500732422
1743586413.38526,-0.18134948238471296,1.0259824618382591,"[174.0, 185.0, 181.0, 156.0, 154.0, 154.0, 156.0, 181.0, 185.0, 174.0]",1.1054943799972534,-0.0906747430562973,-0.107086181640625,-0.0001773834228515625,-27.958412170410156
1743586413.4080243,-0.18134948238471296,1.0259824618382591,"[174.0, 185.0, 181.0, 156.0, 154.0, 154.0, 156.0, 181.0, 185.0, 174.0]",1.2422144412994385,-0.0906747430562973,-0.131927490234375,-0.000179290771484375,-27.959213256835938
1743586413.4275317,-0.18134948238471296,1.0259824618382591,"[174.0, 185.0, 181.0, 156.0, 154.0, 154.0, 156.0, 181.0, 185.0, 174.0]",1.3707263469696045,-0.0906747430562973,-0.1593017578125,-0.0001811981201171875,-27.960098266601562
1743586413.4455955,-0.18134948238471296,1.0259824618382591,"[174.0, 185.0, 181.0, 156.0, 154.0, 154.0, 156.0, 181.0, 185.0, 174.0]",1.5359761714935303,-0.0906747430562973,-0.19000244140625,-0.0001811981201171875,-27.961090087890625
1743586413.4657257,-0.18134948238471296,1.0274671739433026,"[174.0, 185.0, 181.0, 156.0, 154.0, 154.0, 156.0, 181.0, 185.0, 174.0]",1.6818256378173828,-0.0906747430562973,-0.2236328125,-0.00018310546875,-27.962234497070312
1743586413.483334,-0.18134948238471296,1.0274671739433026,"[174.0, 185.0, 181.0, 156.0, 154.0, 154.0, 156.0, 181.0, 185.0, 174.0]",1.7956833839416504,-0.0906747430562973,-0.259521484375,-0.00018310546875,-27.963462829589844
1743586413.5039515,-0.18134948238471296,1.0274671739433026,"[174.0, 185.0, 181.0, 156.0, 155.0, 154.0, 156.0, 181.0, 185.0, 174.0]",1.9123319387435913,-0.0906747430562973,-0.297760009765625,-0.0001850128173828125,-27.964820861816406
1743586413.5245624,-0.18134948238471296,1.0274671739433026,"[174.0, 185.0, 181.0, 156.0, 155.0, 154.0, 156.0, 181.0, 185.0, 174.0]",2.0260114669799805,-0.0906747430562973,-0.3382568359375,-0.0001850128173828125,-27.96624755859375
1743586413.5439382,-0.18134948238471296,1.0274671739433026,"[174.0, 185.0, 181.0, 156.0, 155.0, 154.0, 156.0, 181.0, 185.0, 174.0]",2.194565773010254,-0.0906747430562973,-0.382110595703125,-0.0001850128173828125,-27.96784210205078
1743586413.5640635,-0.18134948238471296,1.031410940472324,"[174.0, 185.0, 181.0, 156.0, 155.0, 154.0, 156.0, 181.0, 185.0, 174.0]",2.3404884338378906,-0.0906747430562973,-0.42889404296875,-0.0001850128173828125,-27.969573974609375
1743586413.5828602,-0.18134948238471296,1.031410940472324,"[174.0, 185.0, 181.0, 156.0, 155.0, 154.0, 156.0, 181.0, 185.0, 174.0]",2.4447953701019287,-0.0906747430562973,-0.477752685546875,-0.0001850128173828125,-27.971435546875
1743586413.607093,-0.18134948238471296,1.031410940472324,"[174.0, 185.0, 181.0, 156.0, 155.0, 154.0, 156.0, 181.0, 185.0, 174.0]",2.573061466217041,-0.0906747430562973,-0.5291748046875,-0.0001850128173828125,-27.97344970703125
1743586413.6248379,-0.18134948238471296,1.031410940472324,"[174.0, 185.0, 181.0, 157.0, 155.0, 154.0, 156.0, 180.0, 185.0, 174.0]",2.7194604873657227,-0.0906747430562973,-0.583526611328125,-0.0001850128173828125,-27.975608825683594
