timestamp,steering_input,acceleration_input,raycasts,speed,steering,position_x,position_y,position_z
1743580998.0530412,0.0,-0.0,"[174.0, 185.0, 227.0, 295.0, 259.0, 259.0, 295.0, 227.0, 185.0, 174.0]",0.0,0.0,0.0,0.10000038146972656,-27.93000030517578
1743580998.267326,0.0,-0.0,"[174.0, 185.0, 178.0, 155.0, 154.0, 154.0, 156.0, 179.0, 185.0, 174.0]",0.1431841105222702,0.0,0.0,0.097137451171875,-27.93000030517578
1743580998.3273962,0.0,-0.0,"[174.0, 185.0, 178.0, 155.0, 154.0, 154.0, 156.0, 179.0, 185.0, 174.0]",0.2360968291759491,0.0,0.0,0.09241485595703125,-27.93000030517578
1743580998.3310664,0.0,-0.0,"[174.0, 185.0, 178.0, 155.0, 154.0, 154.0, 156.0, 179.0, 185.0, 174.0]",0.30777978897094727,0.0,0.0,0.08625984191894531,-27.93000030517578
1743580998.3647296,0.0,-0.0,"[174.0, 185.0, 179.0, 155.0, 154.0, 154.0, 156.0, 179.0, 185.0, 174.0]",0.36006540060043335,0.0,0.0,0.07905769348144531,-27.93000030517578
1743580998.3698416,0.0,-0.0,"[174.0, 185.0, 179.0, 155.0, 154.0, 154.0, 156.0, 179.0, 185.0, 174.0]",0.3949472904205322,0.0,0.0,0.07115936279296875,-27.93000030517578
1743580998.4010756,0.0,-0.0,"[174.0, 185.0, 179.0, 155.0, 154.0, 154.0, 156.0, 180.0, 185.0, 174.0]",0.41450235247612,0.0,0.0,0.06286811828613281,-27.93000030517578
1743580998.4042044,0.0,-0.0,"[174.0, 185.0, 179.0, 155.0, 154.0, 154.0, 156.0, 180.0, 185.0, 174.0]",0.42082807421684265,0.0,0.0,0.05445289611816406,-27.93000030517578
1743580998.4369113,0.0,-0.0,"[174.0, 185.0, 179.0, 155.0, 154.0, 154.0, 156.0, 181.0, 185.0, 174.0]",0.41598936915397644,0.0,0.0,0.04613304138183594,-27.93000030517578
1743580998.440619,0.0,-0.0,"[174.0, 185.0, 179.0, 155.0, 154.0, 154.0, 156.0, 181.0, 185.0, 174.0]",0.4019714593887329,0.0,0.0,0.03809356689453125,-27.93000030517578
1743580998.4748633,0.0,-0.0,"[174.0, 185.0, 179.0, 156.0, 154.0, 154.0, 156.0, 181.0, 185.0, 174.0]",0.3806484043598175,0.0,0.0,0.03047943115234375,-27.93000030517578
1743580998.5067103,0.0,-0.0,"[174.0, 185.0, 180.0, 156.0, 154.0, 154.0, 156.0, 181.0, 185.0, 174.0]",0.3537571132183075,0.0,0.0,0.023405075073242188,-27.93000030517578
1743580998.5093157,0.0,-0.0,"[174.0, 185.0, 180.0, 156.0, 154.0, 154.0, 156.0, 181.0, 185.0, 174.0]",0.3228750228881836,0.0,0.0,0.016946792602539062,-27.92999267578125
1743580998.538958,0.0,-0.0,"[174.0, 185.0, 180.0, 156.0, 154.0, 154.0, 156.0, 181.0, 185.0, 174.0]",0.28941938281059265,0.0,0.0,0.011159896850585938,-27.930038452148438
1743580998.5418339,0.0,-0.0,"[174.0, 185.0, 180.0, 156.0, 154.0, 154.0, 156.0, 181.0, 185.0, 174.0]",0.2562173306941986,0.0,0.0,0.0060672760009765625,-27.929466247558594
1743580998.5714598,0.0,-0.0,"[174.0, 185.0, 181.0, 156.0, 154.0, 154.0, 156.0, 181.0, 185.0, 174.0]",0.34839218854904175,0.0,0.0,0.0016765594482421875,-27.93487548828125
1743580998.6015787,0.0,-0.0,"[174.0, 185.0, 181.0, 156.0, 154.0, 154.0, 156.0, 181.0, 185.0, 174.0]",0.255353718996048,0.0,0.0,-0.0020236968994140625,-27.931358337402344
1743580998.604452,0.0,-0.0,"[174.0, 185.0, 181.0, 156.0, 154.0, 154.0, 156.0, 181.0, 185.0, 174.0]",0.2815416157245636,0.0,0.0,-0.0050601959228515625,-27.926612854003906
1743580998.6351135,0.0,-0.0,"[174.0, 185.0, 181.0, 156.0, 154.0, 154.0, 156.0, 181.0, 185.0, 174.0]",0.15634490549564362,0.0,0.0,-0.007472991943359375,-27.928604125976562
1743580998.63837,0.0,-0.0,"[174.0, 185.0, 181.0, 156.0, 154.0, 154.0, 156.0, 181.0, 185.0, 174.0]",0.27455902099609375,0.0,0.0,-0.009307861328125,-27.923431396484375
1743580998.6713653,0.0,-0.0,"[174.0, 185.0, 181.0, 156.0, 154.0, 154.0, 156.0, 181.0, 185.0, 174.0]",0.2245660424232483,0.0,0.0,-0.010616302490234375,-27.92772674560547
1743580998.7038465,0.0,-0.0,"[174.0, 185.0, 181.0, 156.0, 154.0, 154.0, 156.0, 181.0, 185.0, 174.0]",0.08891011029481888,0.0,0.0,-0.011455535888671875,-27.929290771484375
1743580998.7070794,0.0,-0.0,"[174.0, 185.0, 181.0, 156.0, 154.0, 154.0, 156.0, 181.0, 185.0, 174.0]",0.1896505206823349,0.0,0.0,-0.011884689331054688,-27.925521850585938
1743580998.7411656,0.0,-0.0,"[174.0, 185.0, 181.0, 156.0, 154.0, 154.0, 156.0, 181.0, 185.0, 174.0]",0.2066076397895813,0.0,0.0,-0.011960983276367188,-27.92139434814453
1743580998.7475767,0.0,-0.0,"[174.0, 185.0, 181.0, 156.0, 154.0, 154.0, 156.0, 181.0, 185.0, 174.0]",0.12101753056049347,0.0,0.0,-0.011743545532226562,-27.918983459472656
1743580998.7817597,0.0,-0.0,"[174.0, 185.0, 181.0, 156.0, 154.0, 154.0, 156.0, 181.0, 185.0, 174.0]",0.19259010255336761,0.0,0.0,-0.011285781860351562,-27.922805786132812
1743580998.7901273,0.0,-0.0,"[174.0, 185.0, 181.0, 156.0, 154.0, 154.0, 156.0, 181.0, 185.0, 174.0]",0.17800575494766235,0.0,0.0,-0.010637283325195312,-27.926307678222656
1743580998.8248076,0.0,-0.0,"[174.0, 185.0, 181.0, 156.0, 154.0, 154.0, 156.0, 181.0, 185.0, 174.0]",0.16013549268245697,0.0,0.0,-0.009847640991210938,-27.929412841796875
1743580998.82988,0.0,-0.0,"[174.0, 185.0, 181.0, 156.0, 154.0, 154.0, 156.0, 181.0, 185.0, 174.0]",0.07219173014163971,0.0,0.0,-0.0089569091796875,-27.9305419921875
1743580998.864418,0.0,-0.0,"[174.0, 185.0, 181.0, 156.0, 154.0, 154.0, 156.0, 181.0, 185.0, 174.0]",0.1852148175239563,0.0,0.0,-0.008007049560546875,-27.926963806152344
1743580998.870692,0.0,-0.0,"[174.0, 185.0, 181.0, 156.0, 154.0, 154.0, 156.0, 181.0, 185.0, 174.0]",0.15632963180541992,0.0,0.0,-0.00702667236328125,-27.923995971679688
1743580998.960948,0.0,-0.0,"[174.0, 185.0, 181.0, 156.0, 154.0, 154.0, 156.0, 181.0, 185.0, 174.0]",0.051327187567949295,0.0,0.0,-0.0060482025146484375,-27.923690795898438
1743580998.9643219,0.0,-0.0,"[174.0, 185.0, 181.0, 156.0, 154.0, 154.0, 156.0, 181.0, 185.0, 174.0]",0.15988554060459137,0.0,0.0,-0.0050907135009765625,-27.926742553710938
1743580998.9669127,0.0,-0.0,"[174.0, 185.0, 181.0, 156.0, 154.0, 154.0, 156.0, 181.0, 185.0, 174.0]",0.05791441351175308,0.0,0.0,-0.004177093505859375,-27.927452087402344
1743580998.9726257,0.0,-0.0,"[174.0, 185.0, 181.0, 156.0, 154.0, 154.0, 156.0, 181.0, 185.0, 174.0]",0.19991730153560638,0.0,0.0,-0.0033206939697265625,-27.923545837402344
1743580998.9758034,0.0,-0.0,"[174.0, 185.0, 181.0, 156.0, 154.0, 154.0, 156.0, 181.0, 185.0, 174.0]",0.12208718806505203,0.0,0.0,-0.0025310516357421875,-27.921234130859375
1743580999.0149286,0.0,-0.0,"[174.0, 185.0, 181.0, 156.0, 154.0, 154.0, 156.0, 181.0, 185.0, 174.0]",0.18460233509540558,0.0,0.0,-0.0018177032470703125,-27.92485809326172
1743580999.0198977,0.0,-0.0,"[174.0, 185.0, 181.0, 156.0, 154.0, 154.0, 156.0, 181.0, 185.0, 174.0]",0.13353228569030762,0.0,0.0,-0.0011844635009765625,-27.927452087402344
1743580999.0557547,0.0,-0.0,"[174.0, 185.0, 181.0, 156.0, 154.0, 154.0, 156.0, 181.0, 185.0, 174.0]",0.11446059495210648,0.0,3.0517578125e-05,-0.00063323974609375,-27.92523193359375
1743580999.0610802,0.0,-0.0,"[174.0, 185.0, 181.0, 156.0, 154.0, 154.0, 156.0, 181.0, 185.0, 174.0]",0.18039268255233765,0.0,3.0517578125e-05,-0.0001621246337890625,-27.928802490234375
1743580999.0638528,0.0,-0.0,"[174.0, 185.0, 181.0, 156.0, 154.0, 154.0, 156.0, 181.0, 185.0, 174.0]",0.12967412173748016,0.0,3.0517578125e-05,0.0002288818359375,-27.931365966796875
1743580999.096705,0.0,-0.0,"[174.0, 185.0, 181.0, 156.0, 154.0, 154.0, 156.0, 181.0, 185.0, 174.0]",0.1237604022026062,0.0,3.0517578125e-05,0.000545501708984375,-27.928909301757812
1743580999.1020215,0.0,-0.0,"[174.0, 185.0, 181.0, 156.0, 154.0, 154.0, 156.0, 181.0, 185.0, 174.0]",0.1935333013534546,0.0,3.0517578125e-05,0.0007915496826171875,-27.932777404785156
1743580999.13608,0.0,-0.0,"[174.0, 185.0, 181.0, 156.0, 154.0, 154.0, 156.0, 181.0, 185.0, 174.0]",0.12180628627538681,0.0,6.103515625e-05,0.000972747802734375,-27.935203552246094
1743580999.141523,0.0,-0.0,"[174.0, 185.0, 181.0, 156.0, 154.0, 154.0, 156.0, 181.0, 185.0, 174.0]",0.16159525513648987,0.0,6.103515625e-05,0.0010967254638671875,-27.931976318359375
1743580999.1725981,0.0,-0.0,"[174.0, 185.0, 181.0, 156.0, 154.0, 154.0, 156.0, 181.0, 185.0, 174.0]",0.0772232785820961,0.0,6.103515625e-05,0.0011692047119140625,-27.930435180664062
1743580999.205933,0.0,-0.0,"[174.0, 185.0, 181.0, 156.0, 154.0, 154.0, 156.0, 181.0, 185.0, 174.0]",0.184142604470253,0.0,6.103515625e-05,0.00119781494140625,-27.934112548828125
1743580999.2105298,0.0,-0.0,"[174.0, 185.0, 181.0, 156.0, 154.0, 154.0, 156.0, 181.0, 185.0, 174.0]",0.1367751508951187,0.0,6.103515625e-05,0.0011882781982421875,-27.936851501464844
1743580999.2446096,0.0,-0.0,"[174.0, 185.0, 181.0, 156.0, 154.0, 154.0, 156.0, 181.0, 185.0, 174.0]",0.06419677287340164,0.0,6.103515625e-05,0.001148223876953125,-27.935569763183594
1743580999.2479618,0.0,-0.0,"[174.0, 185.0, 181.0, 156.0, 154.0, 154.0, 156.0, 181.0, 185.0, 174.0]",0.1747168004512787,0.0,6.103515625e-05,0.0010833740234375,-27.939064025878906
1743580999.2831159,0.0,-0.0,"[174.0, 185.0, 181.0, 156.0, 154.0, 154.0, 156.0, 181.0, 185.0, 174.0]",0.1311485320329666,0.0,9.1552734375e-05,0.00099945068359375,-27.941680908203125
1743580999.2891276,0.0,-0.0,"[174.0, 185.0, 181.0, 156.0, 154.0, 154.0, 156.0, 181.0, 185.0, 174.0]",0.11074256151914597,0.0,9.1552734375e-05,0.0009002685546875,-27.939468383789062
1743580999.322126,0.0,-0.0,"[174.0, 185.0, 181.0, 156.0, 154.0, 154.0, 156.0, 181.0, 185.0, 174.0]",0.1801898330450058,0.0,9.1552734375e-05,0.00079345703125,-27.943069458007812
1743580999.3267663,0.0,-0.0,"[174.0, 185.0, 181.0, 156.0, 154.0, 154.0, 156.0, 181.0, 185.0, 174.0]",0.14138393104076385,0.0,9.1552734375e-05,0.00067901611328125,-27.945899963378906
1743580999.357662,0.0,-0.0,"[174.0, 185.0, 181.0, 156.0, 154.0, 154.0, 156.0, 181.0, 185.0, 174.0]",0.0333004854619503,0.0,9.1552734375e-05,0.0005645751953125,-27.94524383544922
1743580999.362827,0.0,-0.0,"[174.0, 185.0, 181.0, 156.0, 154.0, 154.0, 156.0, 181.0, 185.0, 174.0]",0.19635771214962006,0.0,9.1552734375e-05,0.0004520416259765625,-27.94916534423828
1743580999.3944805,0.0,-0.0,"[174.0, 185.0, 181.0, 156.0, 154.0, 154.0, 156.0, 181.0, 185.0, 174.0]",0.12271545082330704,0.0,0.0001220703125,0.00034332275390625,-27.951614379882812
1743580999.3987997,0.0,-0.0,"[174.0, 185.0, 181.0, 156.0, 154.0, 154.0, 156.0, 181.0, 185.0, 174.0]",0.15798240900039673,0.0,0.0001220703125,0.0002384185791015625,-27.948455810546875
1743580999.43291,0.0,-0.0,"[174.0, 185.0, 181.0, 156.0, 154.0, 154.0, 156.0, 181.0, 185.0, 174.0]",0.0622306689620018,0.0,0.0001220703125,0.0001430511474609375,-27.947219848632812
1743580999.4700155,0.0,-0.0,"[174.0, 185.0, 181.0, 156.0, 154.0, 154.0, 156.0, 181.0, 185.0, 174.0]",0.17492303252220154,0.0,0.0001220703125,5.53131103515625e-05,-27.950714111328125
1743580999.4754844,0.0,-0.0,"[174.0, 185.0, 181.0, 156.0, 154.0, 154.0, 156.0, 181.0, 185.0, 174.0]",0.13653863966464996,0.0,0.0001220703125,-2.288818359375e-05,-27.953445434570312
1743580999.507008,0.0,-0.0,"[174.0, 185.0, 181.0, 156.0, 154.0, 154.0, 156.0, 181.0, 185.0, 174.0]",0.0718504786491394,0.0,0.0001220703125,-9.34600830078125e-05,-27.952011108398438
1743580999.5124972,0.0,-0.0,"[174.0, 185.0, 181.0, 156.0, 154.0, 154.0, 156.0, 181.0, 185.0, 174.0]",0.17569200694561005,0.0,0.0001220703125,-0.000152587890625,-27.955520629882812
1743580999.5455673,0.0,-0.0,"[174.0, 185.0, 181.0, 156.0, 154.0, 154.0, 156.0, 181.0, 185.0, 174.0]",0.13826613128185272,0.0,0.000152587890625,-0.000202178955078125,-27.958290100097656
1743580999.5496092,0.0,-0.0,"[174.0, 185.0, 181.0, 156.0, 154.0, 154.0, 156.0, 181.0, 185.0, 174.0]",0.05745533108711243,0.0,0.000152587890625,-0.000244140625,-27.957138061523438
1743580999.5811129,0.0,-0.0,"[174.0, 185.0, 181.0, 156.0, 154.0, 154.0, 156.0, 181.0, 185.0, 174.0]",0.1775936484336853,0.0,0.000152587890625,-0.000278472900390625,-27.960693359375
1743580999.5838478,0.0,-0.0,"[174.0, 185.0, 181.0, 156.0, 154.0, 154.0, 156.0, 181.0, 185.0, 174.0]",0.14114311337471008,0.0,0.000152587890625,-0.0003032684326171875,-27.963516235351562
1743580999.6142807,0.0,-0.0,"[174.0, 185.0, 181.0, 156.0, 154.0, 154.0, 156.0, 181.0, 185.0, 174.0]",0.034520473331213,0.0,0.000152587890625,-0.0003204345703125,-27.96282196044922
1743580999.6171749,0.0,-0.0,"[174.0, 185.0, 181.0, 156.0, 154.0, 154.0, 156.0, 181.0, 185.0, 174.0]",0.20195074379444122,0.0,0.00018310546875,-0.000331878662109375,-27.96686553955078
1743580999.647866,0.0,-0.0,"[174.0, 185.0, 181.0, 156.0, 154.0, 154.0, 156.0, 181.0, 185.0, 174.0]",0.09901262819766998,0.0,0.00018310546875,-0.000339508056640625,-27.968841552734375
1743580999.6811943,0.0,-0.0,"[174.0, 185.0, 181.0, 156.0, 154.0, 154.0, 156.0, 181.0, 185.0, 174.0]",0.20315459370613098,0.0,0.00018310546875,-0.000339508056640625,-27.96478271484375
1743580999.6847308,0.0,-0.0,"[174.0, 185.0, 181.0, 156.0, 154.0, 154.0, 156.0, 181.0, 185.0, 174.0]",0.09250973165035248,0.0,0.000152587890625,-0.0003376007080078125,-27.962928771972656
1743580999.7169921,0.0,-0.0,"[174.0, 185.0, 181.0, 156.0, 154.0, 154.0, 156.0, 181.0, 185.0, 174.0]",0.21048150956630707,0.0,0.00018310546875,-0.000331878662109375,-27.967140197753906
1743580999.721202,0.0,-0.0,"[174.0, 185.0, 181.0, 156.0, 154.0, 154.0, 156.0, 181.0, 185.0, 174.0]",0.054807256907224655,0.0,0.00018310546875,-0.0003223419189453125,-27.968238830566406
1743580999.7509203,0.0,-0.0,"[174.0, 185.0, 181.0, 156.0, 154.0, 154.0, 156.0, 181.0, 185.0, 174.0]",0.18342110514640808,0.0,0.00018310546875,-0.00031280517578125,-27.964569091796875
1743580999.7820742,0.0,-0.0,"[174.0, 185.0, 181.0, 156.0, 154.0, 154.0, 156.0, 181.0, 185.0, 174.0]",0.14437030255794525,0.0,0.000152587890625,-0.0002994537353515625,-27.961685180664062
1743580999.7853925,0.0,-0.0,"[174.0, 185.0, 181.0, 156.0, 154.0, 154.0, 156.0, 181.0, 185.0, 174.0]",0.010325106792151928,0.0,0.000152587890625,-0.0002880096435546875,-27.961883544921875
1743580999.8147104,0.0,-0.0,"[174.0, 185.0, 181.0, 156.0, 154.0, 154.0, 156.0, 181.0, 185.0, 174.0]",0.08798801898956299,0.0,0.000152587890625,-0.000274658203125,-27.960128784179688
1743580999.817907,0.0,-0.0,"[174.0, 185.0, 181.0, 156.0, 154.0, 154.0, 156.0, 181.0, 185.0, 174.0]",0.2099931389093399,0.0,0.00018310546875,-0.0002613067626953125,-27.964324951171875
1743580999.862964,0.0,-0.0,"[174.0, 185.0, 227.0, 295.0, 259.0, 161.0, 182.0, 190.0, 185.0, 174.0]",0.0,0.0,0.0,0.10000038146972656,-27.93000030517578
1743580999.8668468,0.0,-0.0,"[174.0, 185.0, 227.0, 295.0, 259.0, 161.0, 182.0, 190.0, 185.0, 174.0]",0.8981506824493408,0.0,0.0,0.08203697204589844,-27.930007934570312
1743580999.899903,0.0,-0.0,"[174.0, 185.0, 179.0, 155.0, 154.0, 154.0, 156.0, 180.0, 185.0, 174.0]",0.8465182185173035,0.0,0.0,0.06510734558105469,-27.929885864257812
1743580999.9060383,0.0,-0.0,"[174.0, 185.0, 179.0, 155.0, 154.0, 154.0, 156.0, 180.0, 185.0, 174.0]",0.8315760493278503,0.0,0.0,0.04944419860839844,-27.93548583984375
1743580999.9382384,0.0,-0.0,"[174.0, 185.0, 179.0, 156.0, 154.0, 154.0, 156.0, 181.0, 185.0, 174.0]",0.7598007321357727,0.0,0.0,0.03521156311035156,-27.930160522460938
1743580999.9410677,0.0,-0.0,"[174.0, 185.0, 179.0, 156.0, 154.0, 154.0, 156.0, 181.0, 185.0, 174.0]",0.653371274471283,0.0,0.0,0.022512435913085938,-27.93323516845703
1743580999.9713137,0.0,-0.0,"[174.0, 185.0, 181.0, 156.0, 154.0, 154.0, 156.0, 181.0, 185.0, 174.0]",0.589614987373352,0.0,3.0517578125e-05,0.011392593383789062,-27.937164306640625
1743581000.0028746,0.0,-0.0,"[174.0, 185.0, 181.0, 156.0, 154.0, 154.0, 156.0, 181.0, 185.0, 174.0]",0.5271403193473816,0.0,3.0517578125e-05,0.001857757568359375,-27.941665649414062
1743581000.0058558,0.0,-0.0,"[174.0, 185.0, 181.0, 156.0, 154.0, 154.0, 156.0, 181.0, 185.0, 174.0]",0.42171812057495117,0.0,3.0517578125e-05,-0.006130218505859375,-27.944366455078125
1743581000.0374622,0.0,-0.0,"[174.0, 185.0, 181.0, 156.0, 154.0, 154.0, 156.0, 181.0, 185.0, 174.0]",0.326857328414917,0.0,6.103515625e-05,-0.012638092041015625,-27.943756103515625
1743581000.0408773,0.0,-0.0,"[174.0, 185.0, 181.0, 156.0, 154.0, 154.0, 156.0, 181.0, 185.0, 174.0]",0.3647949695587158,0.0,6.103515625e-05,-0.017757415771484375,-27.948951721191406
1743581000.0742366,0.0,-0.0,"[174.0, 185.0, 181.0, 156.0, 154.0, 154.0, 156.0, 181.0, 185.0, 174.0]",0.27348023653030396,0.0,6.103515625e-05,-0.02159881591796875,-27.94506072998047
1743581000.106223,0.0,-0.0,"[174.0, 185.0, 181.0, 156.0, 154.0, 154.0, 158.0, 181.0, 185.0, 174.0]",0.2833592891693115,0.0,6.103515625e-05,-0.02428436279296875,-27.9400634765625
1743581000.1097362,0.0,-0.0,"[174.0, 185.0, 181.0, 156.0, 154.0, 154.0, 158.0, 181.0, 185.0, 174.0]",0.21923644840717316,0.0,6.103515625e-05,-0.025941848754882812,-27.944122314453125
1743581000.1405323,0.0,-0.0,"[174.0, 185.0, 181.0, 156.0, 154.0, 154.0, 156.0, 181.0, 185.0, 174.0]",0.22966569662094116,0.0,6.103515625e-05,-0.026702880859375,-27.948654174804688
1743581000.1438625,0.0,-0.0,"[174.0, 185.0, 181.0, 156.0, 154.0, 154.0, 156.0, 181.0, 185.0, 174.0]",0.011545730754733086,0.0,6.103515625e-05,-0.026702880859375,-27.948883056640625
1743581000.1747,0.0,-0.0,"[174.0, 185.0, 181.0, 156.0, 154.0, 154.0, 156.0, 181.0, 185.0, 174.0]",0.23216788470745087,0.0,6.103515625e-05,-0.026065826416015625,-27.944290161132812
1743581000.1787639,0.0,-0.0,"[174.0, 185.0, 181.0, 156.0, 154.0, 154.0, 156.0, 181.0, 185.0, 174.0]",0.06394991278648376,0.0,6.103515625e-05,-0.024913787841796875,-27.944847106933594
1743581000.20866,0.0,-0.0,"[174.0, 185.0, 181.0, 156.0, 154.0, 154.0, 156.0, 181.0, 185.0, 174.0]",0.23873469233512878,0.0,6.103515625e-05,-0.023363113403320312,-27.940330505371094
1743581000.2403667,0.0,-0.0,"[174.0, 185.0, 181.0, 156.0, 154.0, 154.0, 156.0, 181.0, 185.0, 174.0]",0.09246574342250824,0.0,6.103515625e-05,-0.021514892578125,-27.940414428710938
1743581000.243458,0.0,-0.0,"[174.0, 185.0, 181.0, 156.0, 154.0, 154.0, 156.0, 181.0, 185.0, 174.0]",0.10810261964797974,0.0,6.103515625e-05,-0.019464492797851562,-27.939720153808594
1743581000.276945,0.0,-0.0,"[174.0, 185.0, 181.0, 156.0, 154.0, 154.0, 156.0, 181.0, 185.0, 174.0]",0.24244534969329834,0.0,6.103515625e-05,-0.01729583740234375,-27.944061279296875
1743581000.280533,0.0,-0.0,"[174.0, 185.0, 181.0, 156.0, 154.0, 154.0, 156.0, 181.0, 185.0, 174.0]",0.11440995335578918,0.0,6.103515625e-05,-0.015079498291015625,-27.944625854492188
1743581000.310693,0.0,-0.0,"[174.0, 185.0, 181.0, 156.0, 154.0, 154.0, 156.0, 181.0, 185.0, 174.0]",0.20981493592262268,0.0,6.103515625e-05,-0.012876510620117188,-27.941055297851562
1743581000.3421683,0.0,-0.0,"[174.0, 185.0, 181.0, 156.0, 154.0, 154.0, 156.0, 181.0, 185.0, 174.0]",0.17019438743591309,0.0,6.103515625e-05,-0.010738372802734375,-27.93840789794922
1743581000.3458924,0.0,-0.0,"[174.0, 185.0, 181.0, 156.0, 154.0, 154.0, 156.0, 181.0, 185.0, 174.0]",0.13439738750457764,0.0,3.0517578125e-05,-0.00870513916015625,-27.940162658691406
1743581000.3765473,0.0,-0.0,"[174.0, 185.0, 181.0, 156.0, 154.0, 154.0, 156.0, 181.0, 185.0, 174.0]",0.21828393638134003,0.0,3.0517578125e-05,-0.0068073272705078125,-27.936233520507812
1743581000.3803365,0.0,-0.0,"[174.0, 185.0, 181.0, 156.0, 154.0, 154.0, 156.0, 181.0, 185.0, 174.0]",0.13041983544826508,0.0,3.0517578125e-05,-0.005069732666015625,-27.934288024902344
1743581000.414742,0.0,-0.0,"[174.0, 185.0, 181.0, 156.0, 154.0, 154.0, 156.0, 181.0, 185.0, 174.0]",0.204370379447937,0.0,3.0517578125e-05,-0.0035037994384765625,-27.938064575195312
1743581000.4445055,0.0,-0.0,"[174.0, 185.0, 181.0, 156.0, 154.0, 154.0, 156.0, 181.0, 185.0, 174.0]",0.13027843832969666,0.0,3.0517578125e-05,-0.0021209716796875,-27.940277099609375
1743581000.448195,0.0,-0.0,"[174.0, 185.0, 181.0, 156.0, 154.0, 154.0, 156.0, 181.0, 185.0, 174.0]",0.19119969010353088,0.0,3.0517578125e-05,-0.00092315673828125,-27.9366455078125
1743581000.4816084,0.0,-0.0,"[174.0, 185.0, 181.0, 156.0, 154.0, 154.0, 156.0, 181.0, 185.0, 174.0]",0.12425045669078827,0.0,3.0517578125e-05,9.1552734375e-05,-27.934371948242188
1743581000.4861002,0.0,-0.0,"[174.0, 185.0, 181.0, 156.0, 154.0, 154.0, 156.0, 181.0, 185.0, 174.0]",0.18339022994041443,0.0,3.0517578125e-05,0.0009307861328125,-27.937942504882812
1743581000.5174809,0.0,-0.0,"[174.0, 185.0, 181.0, 156.0, 154.0, 154.0, 156.0, 181.0, 185.0, 174.0]",0.11850155144929886,0.0,3.0517578125e-05,0.0016040802001953125,-27.940216064453125
1743581000.5219376,0.0,-0.0,"[174.0, 185.0, 181.0, 156.0, 154.0, 154.0, 156.0, 181.0, 185.0, 174.0]",0.182154580950737,0.0,3.0517578125e-05,0.0021209716796875,-27.936614990234375
1743581000.5522406,0.0,-0.0,"[174.0, 185.0, 180.0, 156.0, 154.0, 154.0, 156.0, 181.0, 185.0, 174.0]",0.12022534757852554,0.0,3.0517578125e-05,0.0024967193603515625,-27.934234619140625
1743581000.556267,0.0,-0.0,"[174.0, 185.0, 180.0, 156.0, 154.0, 154.0, 156.0, 181.0, 185.0, 174.0]",0.16809943318367004,0.0,3.0517578125e-05,0.00274658203125,-27.937591552734375
1743581000.586615,0.0,-0.0,"[174.0, 185.0, 181.0, 156.0, 154.0, 154.0, 156.0, 181.0, 185.0, 174.0]",0.09770788252353668,0.0,3.0517578125e-05,0.0028839111328125,-27.939544677734375
1743581000.616206,0.0,-0.0,"[174.0, 185.0, 181.0, 156.0, 154.0, 154.0, 156.0, 181.0, 185.0, 174.0]",0.19669324159622192,0.0,3.0517578125e-05,0.0029239654541015625,-27.93560791015625
1743581000.6196437,0.0,-0.0,"[174.0, 185.0, 181.0, 156.0, 154.0, 154.0, 156.0, 181.0, 185.0, 174.0]",0.10781770199537277,0.0,3.0517578125e-05,0.0028839111328125,-27.933456420898438
1743581000.6490266,0.0,-0.0,"[174.0, 185.0, 181.0, 156.0, 154.0, 154.0, 156.0, 181.0, 185.0, 174.0]",0.1895626336336136,0.0,3.0517578125e-05,0.0027790069580078125,-27.937240600585938
1743581000.6823192,0.0,-0.0,"[174.0, 185.0, 181.0, 156.0, 154.0, 154.0, 156.0, 181.0, 185.0, 174.0]",0.12969471514225006,0.0,3.0517578125e-05,0.0026187896728515625,-27.939834594726562
1743581000.6870592,0.0,-0.0,"[174.0, 185.0, 181.0, 156.0, 154.0, 154.0, 156.0, 181.0, 185.0, 174.0]",0.11868541687726974,0.0,6.103515625e-05,0.00241851806640625,-27.937469482421875
1743581000.7182255,0.0,-0.0,"[174.0, 185.0, 181.0, 156.0, 154.0, 154.0, 156.0, 181.0, 185.0, 174.0]",0.19655413925647736,0.0,6.103515625e-05,0.0021915435791015625,-27.941390991210938
1743581000.722588,0.0,-0.0,"[174.0, 185.0, 181.0, 156.0, 154.0, 154.0, 156.0, 181.0, 185.0, 174.0]",0.11951146274805069,0.0,6.103515625e-05,0.00194549560546875,-27.943771362304688
1743581000.7529955,0.0,-0.0,"[174.0, 185.0, 181.0, 156.0, 154.0, 154.0, 156.0, 181.0, 185.0, 174.0]",0.1755618155002594,0.0,6.103515625e-05,0.0016880035400390625,-27.940261840820312
1743581000.7566454,0.0,-0.0,"[174.0, 185.0, 181.0, 156.0, 154.0, 154.0, 156.0, 181.0, 185.0, 174.0]",0.13535965979099274,0.0,6.103515625e-05,0.001430511474609375,-27.93756866455078
1743581000.7868304,0.0,-0.0,"[174.0, 185.0, 181.0, 156.0, 154.0, 154.0, 156.0, 181.0, 185.0, 174.0]",0.08585511147975922,0.0,3.0517578125e-05,0.0011768341064453125,-27.93927001953125
1743581000.8171718,0.0,-0.0,"[174.0, 185.0, 181.0, 156.0, 154.0, 154.0, 156.0, 181.0, 185.0, 174.0]",0.20529092848300934,0.0,3.0517578125e-05,0.000934600830078125,-27.935165405273438
1743581000.820711,0.0,-0.0,"[174.0, 185.0, 181.0, 156.0, 154.0, 154.0, 156.0, 181.0, 185.0, 174.0]",0.08549951016902924,0.0,3.0517578125e-05,0.000705718994140625,-27.9334716796875
1743581000.850563,0.0,-0.0,"[174.0, 185.0, 181.0, 156.0, 154.0, 154.0, 156.0, 181.0, 185.0, 174.0]",0.20294630527496338,0.0,3.0517578125e-05,0.000492095947265625,-27.937530517578125
1743581000.8838134,0.0,-0.0,"[174.0, 185.0, 181.0, 156.0, 154.0, 154.0, 156.0, 181.0, 185.0, 174.0]",0.0983281061053276,0.0,3.0517578125e-05,0.0002994537353515625,-27.939483642578125
1743581000.8892348,0.0,-0.0,"[174.0, 185.0, 181.0, 156.0, 154.0, 154.0, 156.0, 181.0, 185.0, 174.0]",0.20763376355171204,0.0,3.0517578125e-05,0.0001277923583984375,-27.935333251953125
1743581000.9251778,0.0,-0.0,"[174.0, 185.0, 181.0, 156.0, 154.0, 154.0, 156.0, 181.0, 185.0, 174.0]",0.07262473553419113,0.0,3.0517578125e-05,-2.288818359375e-05,-27.93389129638672
1743581000.928743,0.0,-0.0,"[174.0, 185.0, 181.0, 156.0, 154.0, 154.0, 156.0, 181.0, 185.0, 174.0]",0.17713959515094757,0.0,3.0517578125e-05,-0.0001506805419921875,-27.93743133544922
1743581000.9606016,0.0,-0.0,"[174.0, 185.0, 181.0, 156.0, 154.0, 154.0, 156.0, 181.0, 185.0, 174.0]",0.14261992275714874,0.0,3.0517578125e-05,-0.0002593994140625,-27.940284729003906
1743581000.9650428,0.0,-0.0,"[174.0, 185.0, 181.0, 156.0, 154.0, 154.0, 156.0, 181.0, 185.0, 174.0]",0.025250354781746864,0.0,6.103515625e-05,-0.000347137451171875,-27.939788818359375
1743581000.9954698,0.0,-0.0,"[174.0, 185.0, 181.0, 156.0, 154.0, 154.0, 156.0, 181.0, 185.0, 174.0]",0.18790003657341003,0.0,6.103515625e-05,-0.0004177093505859375,-27.94354248046875
1743581000.9990425,0.0,-0.0,"[174.0, 185.0, 181.0, 156.0, 154.0, 154.0, 156.0, 181.0, 185.0, 174.0]",0.14496470987796783,0.0,6.103515625e-05,-0.000469207763671875,-27.946441650390625
1743581001.0292437,0.0,-0.0,"[174.0, 185.0, 181.0, 156.0, 154.0, 154.0, 156.0, 181.0, 185.0, 174.0]",0.007197350729256868,0.0,6.103515625e-05,-0.0005054473876953125,-27.946304321289062
1743581001.0625935,0.0,-0.0,"[174.0, 185.0, 181.0, 156.0, 154.0, 154.0, 156.0, 181.0, 185.0, 174.0]",0.04849337786436081,0.0,6.103515625e-05,-0.0005283355712890625,-27.94727325439453
1743581001.0656903,0.0,-0.0,"[174.0, 185.0, 181.0, 156.0, 154.0, 154.0, 156.0, 181.0, 185.0, 174.0]",0.20004697144031525,0.0,6.103515625e-05,-0.0005397796630859375,-27.943267822265625
1743581001.100945,0.0,-0.0,"[174.0, 185.0, 181.0, 156.0, 154.0, 154.0, 156.0, 181.0, 185.0, 174.0]",0.10986826568841934,0.0,6.103515625e-05,-0.0005397796630859375,-27.941070556640625
1743581001.1057343,0.0,-0.0,"[174.0, 185.0, 181.0, 156.0, 154.0, 154.0, 156.0, 181.0, 185.0, 174.0]",0.1925521045923233,0.0,6.103515625e-05,-0.0005321502685546875,-27.944923400878906
1743581001.1311376,0.0,-0.0,"[174.0, 185.0, 181.0, 156.0, 154.0, 154.0, 156.0, 181.0, 185.0, 174.0]",0.1350945234298706,0.0,6.103515625e-05,-0.0005168914794921875,-27.94762420654297
1743581001.1338737,0.0,-0.0,"[174.0, 185.0, 181.0, 156.0, 154.0, 154.0, 156.0, 181.0, 185.0, 174.0]",0.08271284401416779,0.0,6.103515625e-05,-0.00049591064453125,-27.945968627929688
1743581001.1590502,0.0,-0.0,"[174.0, 185.0, 181.0, 156.0, 154.0, 154.0, 156.0, 181.0, 185.0, 174.0]",0.19954532384872437,0.0,6.103515625e-05,-0.0004711151123046875,-27.949966430664062
1743581001.184986,0.0,-0.0,"[174.0, 185.0, 181.0, 156.0, 154.0, 154.0, 156.0, 181.0, 185.0, 174.0]",0.11009648442268372,0.0,6.103515625e-05,-0.0004425048828125,-27.952163696289062
1743581001.2089672,0.0,-0.0,"[174.0, 185.0, 181.0, 156.0, 154.0, 154.0, 156.0, 181.0, 185.0, 174.0]",0.19304963946342468,0.0,6.103515625e-05,-0.0004138946533203125,-27.94830322265625
1743581001.2115824,0.0,-0.0,"[174.0, 185.0, 181.0, 156.0, 154.0, 154.0, 156.0, 181.0, 185.0, 174.0]",0.13286620378494263,0.0,6.103515625e-05,-0.0003833770751953125,-27.945648193359375
1743581001.2361274,0.0,-0.0,"[174.0, 185.0, 181.0, 156.0, 154.0, 154.0, 156.0, 181.0, 185.0, 174.0]",0.09963202476501465,0.0,6.103515625e-05,-0.000354766845703125,-27.94763946533203
1743581001.2628005,0.0,-0.0,"[174.0, 185.0, 181.0, 156.0, 154.0, 154.0, 156.0, 181.0, 185.0, 174.0]",0.20587898790836334,0.0,6.103515625e-05,-0.0003261566162109375,-27.943519592285156
1743581001.2888787,0.0,-0.0,"[174.0, 185.0, 181.0, 156.0, 154.0, 154.0, 156.0, 181.0, 185.0, 174.0]",0.07771915197372437,0.0,3.0517578125e-05,-0.00029754638671875,-27.941970825195312
1743581001.2915084,0.0,-0.0,"[174.0, 185.0, 181.0, 156.0, 154.0, 154.0, 156.0, 181.0, 185.0, 174.0]",0.186497762799263,0.0,6.103515625e-05,-0.0002727508544921875,-27.945693969726562
1743581001.3168008,0.0,-0.0,"[174.0, 185.0, 181.0, 156.0, 154.0, 154.0, 156.0, 181.0, 185.0, 174.0]",0.1426415741443634,0.0,6.103515625e-05,-0.000247955322265625,-27.94854736328125
1743581001.3407695,0.0,-0.0,"[174.0, 185.0, 181.0, 156.0, 154.0, 154.0, 156.0, 181.0, 185.0, 174.0]",0.022534001618623734,0.0,6.103515625e-05,-0.0002269744873046875,-27.948104858398438
1743581001.365303,0.0,-0.0,"[174.0, 185.0, 181.0, 156.0, 154.0, 154.0, 156.0, 181.0, 185.0, 174.0]",0.1904146373271942,0.0,6.103515625e-05,-0.0002079010009765625,-27.95191192626953
1743581001.3901172,0.0,-0.0,"[174.0, 185.0, 181.0, 156.0, 154.0, 154.0, 156.0, 181.0, 185.0, 174.0]",0.13809891045093536,0.0,6.103515625e-05,-0.0001926422119140625,-27.954673767089844
1743581001.393455,0.0,-0.0,"[174.0, 185.0, 181.0, 156.0, 154.0, 154.0, 156.0, 181.0, 185.0, 174.0]",0.057165518403053284,0.0,9.1552734375e-05,-0.0001773834228515625,-27.953529357910156
1743581001.4200292,0.0,-0.0,"[174.0, 185.0, 181.0, 156.0, 154.0, 154.0, 156.0, 181.0, 185.0, 174.0]",0.17801271378993988,0.0,9.1552734375e-05,-0.0001659393310546875,-27.95709228515625
1743581001.4451303,0.0,-0.0,"[174.0, 185.0, 181.0, 156.0, 154.0, 154.0, 156.0, 181.0, 185.0, 174.0]",0.1399085819721222,0.0,9.1552734375e-05,-0.000156402587890625,-27.959884643554688
1743581001.4535112,0.0,-0.0,"[174.0, 185.0, 181.0, 156.0, 154.0, 154.0, 156.0, 181.0, 185.0, 174.0]",0.04312916472554207,0.0,9.1552734375e-05,-0.0001506805419921875,-27.959030151367188
1743581001.4594212,0.0,-0.0,"[174.0, 185.0, 181.0, 156.0, 154.0, 154.0, 156.0, 181.0, 185.0, 174.0]",0.20939965546131134,0.0,9.1552734375e-05,-0.00014495849609375,-27.963211059570312
1743581001.4695463,0.0,-0.0,"[174.0, 185.0, 181.0, 156.0, 154.0, 154.0, 156.0, 181.0, 185.0, 174.0]",0.05962354317307472,0.0,9.1552734375e-05,-0.000141143798828125,-27.96440887451172
1743581001.489797,0.0,-0.0,"[174.0, 185.0, 181.0, 156.0, 154.0, 154.0, 156.0, 181.0, 185.0, 174.0]",0.17676590383052826,0.0,9.1552734375e-05,-0.0001392364501953125,-27.96086883544922
1743581001.5113418,0.0,-0.0,"[174.0, 185.0, 181.0, 156.0, 154.0, 154.0, 156.0, 181.0, 185.0, 174.0]",0.13839411735534668,0.0,9.1552734375e-05,-0.0001373291015625,-27.958099365234375
1743581001.528673,0.0,-0.0,"[174.0, 185.0, 181.0, 156.0, 154.0, 154.0, 156.0, 181.0, 185.0, 174.0]",0.05488041788339615,0.0,9.1552734375e-05,-0.0001392364501953125,-27.959197998046875
1743581001.5488229,0.0,-0.0,"[174.0, 185.0, 181.0, 156.0, 154.0, 154.0, 156.0, 181.0, 185.0, 174.0]",0.18170355260372162,0.0,9.1552734375e-05,-0.0001392364501953125,-27.95556640625
1743581001.5685399,0.0,-0.0,"[174.0, 185.0, 181.0, 156.0, 154.0, 154.0, 156.0, 181.0, 185.0, 174.0]",0.1432798057794571,0.0,9.1552734375e-05,-0.000141143798828125,-27.95269775390625
1743581001.5898778,0.0,-0.0,"[174.0, 185.0, 181.0, 156.0, 154.0, 154.0, 156.0, 181.0, 185.0, 174.0]",0.018006715923547745,0.0,6.103515625e-05,-0.00014495849609375,-27.95306396484375
1743581001.6097572,0.0,-0.0,"[174.0, 185.0, 181.0, 156.0, 154.0, 154.0, 156.0, 181.0, 185.0, 174.0]",0.1813851296901703,0.0,6.103515625e-05,-0.0001468658447265625,-27.949432373046875
1743581001.6314967,0.0,-0.0,"[174.0, 185.0, 181.0, 156.0, 154.0, 154.0, 156.0, 181.0, 185.0, 174.0]",0.14355990290641785,0.0,6.103515625e-05,-0.0001506805419921875,-27.946563720703125
1743581001.6507802,0.0,-0.0,"[174.0, 185.0, 181.0, 156.0, 154.0, 154.0, 156.0, 181.0, 185.0, 174.0]",0.015715984627604485,0.0,6.103515625e-05,-0.0001544952392578125,-27.946876525878906
1743581001.668948,0.0,-0.0,"[174.0, 185.0, 181.0, 156.0, 154.0, 154.0, 156.0, 181.0, 185.0, 174.0]",0.16243816912174225,0.0,6.103515625e-05,-0.000156402587890625,-27.943634033203125
1743581001.68974,0.0,0.25244745511065747,"[174.0, 185.0, 181.0, 156.0, 154.0, 154.0, 156.0, 181.0, 185.0, 174.0]",0.08784817159175873,0.0,6.103515625e-05,-0.00016021728515625,-27.941871643066406
1743581001.7097986,0.0,0.4387788242936018,"[174.0, 185.0, 181.0, 156.0, 154.0, 154.0, 156.0, 181.0, 185.0, 174.0]",0.18681292235851288,0.0,0.0001220703125,-0.000164031982421875,-27.94561004638672
1743581001.7293687,0.0,0.6644550642601958,"[174.0, 185.0, 181.0, 156.0, 154.0, 154.0, 156.0, 181.0, 185.0, 174.0]",0.12491308152675629,0.0,-0.000946044921875,-0.0001678466796875,-27.943344116210938
1743581001.7493327,0.0,0.8752841831763559,"[174.0, 185.0, 181.0, 156.0, 154.0, 154.0, 156.0, 181.0, 185.0, 174.0]",0.11748996376991272,0.0,-0.003265380859375,-0.0001697540283203125,-27.94304656982422
1743581001.7693443,0.0,1.0252401057857374,"[174.0, 185.0, 181.0, 156.0, 154.0, 154.0, 156.0, 181.0, 185.0, 174.0]",0.259586900472641,0.0,-0.0084228515625,-0.000171661376953125,-27.9423828125
1743581001.7900393,0.0,1.0252401057857374,"[174.0, 185.0, 181.0, 156.0, 154.0, 154.0, 156.0, 181.0, 185.0, 174.0]",0.34583064913749695,0.0,-0.01531982421875,-0.00017547607421875,-27.942794799804688
1743581001.8103595,0.0,1.0252401057857374,"[174.0, 185.0, 181.0, 156.0, 154.0, 154.0, 156.0, 181.0, 185.0, 174.0]",0.5196731090545654,0.0,-0.02569580078125,-0.0001773834228515625,-27.942520141601562
1743581001.8309972,0.0,1.0252401057857374,"[174.0, 185.0, 181.0, 156.0, 154.0, 154.0, 156.0, 181.0, 185.0, 174.0]",0.6234749555587769,0.0,-0.038177490234375,-0.000179290771484375,-27.942626953125
1743581001.8497078,0.0,1.0252401057857374,"[174.0, 185.0, 181.0, 156.0, 154.0, 154.0, 156.0, 181.0, 185.0, 174.0]",0.8145818710327148,0.0,-0.054473876953125,-0.0001811981201171875,-27.942543029785156
1743581001.869932,-0.134539056426204,1.0252401057857374,"[174.0, 185.0, 181.0, 156.0, 154.0, 154.0, 156.0, 181.0, 185.0, 174.0]",0.8937379717826843,0.0,-0.07232666015625,-0.0001811981201171875,-27.942527770996094
1743581001.8929543,-0.134539056426204,1.0278383519695633,"[174.0, 185.0, 181.0, 156.0, 154.0, 154.0, 156.0, 181.0, 185.0, 174.0]",1.0557917356491089,-0.06726952642202377,-0.09344482421875,-0.00018310546875,-27.942977905273438
1743581001.9094281,-0.134539056426204,1.0301582146336936,"[174.0, 185.0, 181.0, 156.0, 154.0, 154.0, 156.0, 181.0, 185.0, 174.0]",1.1824270486831665,-0.06726952642202377,-0.117095947265625,-0.00018310546875,-27.943519592285156
1743581001.9293017,0.0,1.032478077297824,"[174.0, 185.0, 181.0, 156.0, 154.0, 154.0, 156.0, 181.0, 185.0, 174.0]",1.3115664720535278,-0.06726952642202377,-0.143310546875,-0.0001850128173828125,-27.94409942626953
1743581001.9488206,0.0,1.0345659536955412,"[174.0, 185.0, 181.0, 156.0, 154.0, 154.0, 156.0, 181.0, 185.0, 174.0]",1.4906188249588013,0.0,-0.173126220703125,-0.0001850128173828125,-27.944091796875
1743581001.9694638,0.0,1.0345659536955412,"[174.0, 185.0, 181.0, 156.0, 154.0, 154.0, 156.0, 181.0, 185.0, 174.0]",1.5716582536697388,0.0,-0.204559326171875,-0.0001850128173828125,-27.944076538085938
1743581001.9909213,0.0,1.0361434603071498,"[174.0, 185.0, 181.0, 156.0, 154.0, 154.0, 156.0, 181.0, 185.0, 174.0]",1.6756987571716309,0.0,-0.238067626953125,-0.0001850128173828125,-27.944068908691406
1743581002.008952,0.0,1.0379065559318887,"[174.0, 185.0, 181.0, 156.0, 154.0, 154.0, 156.0, 181.0, 185.0, 174.0]",1.8620617389678955,0.0,-0.27532958984375,-0.0001850128173828125,-27.944046020507812
1743581002.0330603,0.0,1.0379065559318887,"[174.0, 185.0, 181.0, 156.0, 154.0, 154.0, 156.0, 181.0, 185.0, 174.0]",1.9734423160552979,0.0,-0.314788818359375,-0.0001850128173828125,-27.94403076171875
1743581002.048895,0.0,1.0395768570500625,"[174.0, 185.0, 181.0, 156.0, 154.0, 154.0, 156.0, 181.0, 185.0, 174.0]",2.127472162246704,0.0,-0.357330322265625,-0.0001850128173828125,-27.944007873535156
1743581002.0701847,0.0,1.0395768570500625,"[174.0, 185.0, 181.0, 156.0, 154.0, 154.0, 156.0, 181.0, 185.0, 174.0]",2.266469717025757,0.0,-0.402679443359375,-0.0001850128173828125,-27.943984985351562
1743581002.0911624,0.0,1.0395768570500625,"[174.0, 185.0, 181.0, 156.0, 154.0, 154.0, 156.0, 181.0, 185.0, 174.0]",2.386216402053833,0.0,-0.45037841796875,-0.0001850128173828125,-27.943954467773438
1743581002.1096659,0.0,1.0395768570500625,"[174.0, 185.0, 181.0, 156.0, 154.0, 154.0, 156.0, 181.0, 185.0, 174.0]",2.482543468475342,0.0,-0.500030517578125,-0.0001850128173828125,-27.943923950195312
1743581002.1299534,0.0,1.0395768570500625,"[174.0, 185.0, 181.0, 156.0, 154.0, 154.0, 156.0, 181.0, 185.0, 174.0]",2.6522037982940674,0.0,-0.5531005859375,-0.00018310546875,-27.943885803222656
1743581002.1496103,0.0,1.0395768570500625,"[174.0, 185.0, 181.0, 156.0, 154.0, 154.0, 156.0, 181.0, 185.0, 174.0]",2.7956151962280273,0.0,-0.6090087890625,-0.00018310546875,-27.94384765625
1743581002.1695673,0.0,1.0395768570500625,"[174.0, 185.0, 181.0, 156.0, 154.0, 154.0, 156.0, 181.0, 185.0, 174.0]",2.9237122535705566,0.0,-0.66748046875,-0.00018310546875,-27.943809509277344
1743581002.1887794,0.0,1.0395768570500625,"[174.0, 185.0, 181.0, 156.0, 154.0, 154.0, 156.0, 181.0, 185.0, 174.0]",3.033111095428467,0.0,-0.7281494140625,-0.00018310546875,-27.94378662109375
1743581002.2090433,0.0,1.0395768570500625,"[174.0, 185.0, 181.0, 156.0, 154.0, 154.0, 156.0, 181.0, 185.0, 174.0]",3.1734631061553955,0.0,-0.791595458984375,-0.00018310546875,-27.943763732910156
1743581002.2347002,0.0,1.0395768570500625,"[174.0, 185.0, 181.0, 156.0, 154.0, 154.0, 156.0, 181.0, 185.0, 174.0]",3.2960009574890137,0.0,-0.857513427734375,-0.00018310546875,-27.943756103515625
1743581002.2481484,0.0,1.0395768570500625,"[174.0, 185.0, 181.0, 156.0, 154.0, 154.0, 156.0, 181.0, 185.0, 174.0]",3.4438438415527344,0.0,-0.9263916015625,-0.0001811981201171875,-27.9437255859375
1743581002.269002,0.0,1.0395768570500625,"[174.0, 185.0, 181.0, 156.0, 154.0, 154.0, 156.0, 181.0, 185.0, 174.0]",3.5767648220062256,0.0,-0.9979248046875,-0.0001811981201171875,-27.943702697753906
1743581002.2907894,0.0,1.0395768570500625,"[174.0, 185.0, 181.0, 156.0, 154.0, 154.0, 156.0, 181.0, 185.0, 174.0]",3.728330612182617,0.0,-1.072509765625,-0.0001811981201171875,-27.943679809570312
1743581002.3086607,0.0,1.0395768570500625,"[174.0, 185.0, 181.0, 156.0, 154.0, 154.0, 156.0, 181.0, 185.0, 174.0]",3.86513352394104,0.0,-1.149810791015625,-0.0001811981201171875,-27.943649291992188
1743581002.3284273,0.0,1.0395768570500625,"[174.0, 185.0, 181.0, 156.0, 154.0, 154.0, 156.0, 181.0, 185.0, 174.0]",3.9759280681610107,0.0,-1.22930908203125,-0.0001811981201171875,-27.943618774414062
1743581002.3494728,0.0,1.0395768570500625,"[174.0, 185.0, 181.0, 156.0, 154.0, 154.0, 156.0, 181.0, 185.0, 174.0]",4.1139750480651855,0.0,-1.311614990234375,-0.0001811981201171875,-27.943588256835938
1743581002.3685076,0.0,1.0395768570500625,"[174.0, 185.0, 181.0, 156.0, 154.0, 154.0, 156.0, 181.0, 185.0, 174.0]",4.22421407699585,0.0,-1.396087646484375,-0.0001811981201171875,-27.94355010986328
1743581002.3894942,0.0,1.0395768570500625,"[174.0, 185.0, 181.0, 156.0, 154.0, 154.0, 156.0, 181.0, 185.0, 174.0]",4.363523006439209,0.0,-1.483367919921875,-0.0001811981201171875,-27.943511962890625
1743581002.4107945,0.0,1.0395768570500625,"[174.0, 185.0, 181.0, 156.0, 154.0, 154.0, 156.0, 181.0, 185.0, 174.0]",4.491487979888916,0.0,-1.57318115234375,-0.0001811981201171875,-27.94347381591797
1743581002.4318175,0.0,1.0395768570500625,"[174.0, 185.0, 181.0, 156.0, 154.0, 154.0, 156.0, 181.0, 185.0, 174.0]",4.6194844245910645,0.0,-1.66558837890625,-0.0001811981201171875,-27.943435668945312
1743581002.450359,0.0,1.0395768570500625,"[174.0, 185.0, 181.0, 156.0, 154.0, 154.0, 156.0, 181.0, 185.0, 174.0]",4.748056888580322,0.0,-1.760528564453125,-0.0001811981201171875,-27.943405151367188
1743581002.4696622,0.0,1.0395768570500625,"[174.0, 185.0, 181.0, 156.0, 154.0, 154.0, 156.0, 181.0, 185.0, 174.0]",4.881243705749512,0.0,-1.858154296875,-0.0001811981201171875,-27.943374633789062
1743581002.488824,0.0,1.0395768570500625,"[174.0, 185.0, 181.0, 156.0, 154.0, 154.0, 156.0, 181.0, 185.0, 174.0]",5.0222272872924805,0.0,-1.9586181640625,-0.0001811981201171875,-27.943336486816406
1743581002.5088763,0.0,1.0395768570500625,"[174.0, 185.0, 181.0, 156.0, 154.0, 154.0, 156.0, 181.0, 185.0, 174.0]",5.159783363342285,0.0,-2.061798095703125,0.000156402587890625,-27.94329833984375
1743581002.529054,0.0,1.0395768570500625,"[174.0, 185.0, 181.0, 156.0, 154.0, 154.0, 156.0, 181.0, 185.0, 174.0]",5.210892677307129,0.0,-2.166015625,0.0004425048828125,-27.943260192871094
1743581002.5484917,0.0,1.0395768570500625,"[174.0, 185.0, 181.0, 156.0, 154.0, 154.0, 156.0, 181.0, 185.0, 174.0]",5.216731071472168,0.0,-2.270355224609375,0.0006809234619140625,-27.94318389892578
1743581002.568134,0.0,1.0395768570500625,"[174.0, 185.0, 181.0, 156.0, 154.0, 154.0, 156.0, 181.0, 185.0, 174.0]",5.52018404006958,0.0,-2.380767822265625,0.0008716583251953125,-27.943161010742188
1743581002.589671,0.0,1.0395768570500625,"[174.0, 185.0, 181.0, 156.0, 154.0, 154.0, 156.0, 181.0, 185.0, 174.0]",5.551182270050049,0.0,-2.491790771484375,0.001018524169921875,-27.94306182861328
1743581002.6087666,0.0,1.0395768570500625,"[174.0, 185.0, 181.0, 156.0, 154.0, 154.0, 156.0, 181.0, 185.0, 174.0]",5.723907947540283,0.0,-2.60626220703125,0.0011272430419921875,-27.943038940429688
1743581002.6346555,0.0,1.0395768570500625,"[174.0, 185.0, 181.0, 156.0, 154.0, 154.0, 156.0, 181.0, 185.0, 174.0]",5.90897798538208,0.0,-2.72442626953125,0.0011997222900390625,-27.943206787109375
1743581002.6508858,0.0,1.0395768570500625,"[174.0, 185.0, 181.0, 156.0, 154.0, 154.0, 156.0, 181.0, 185.0, 174.0]",5.970770835876465,0.0,-2.843841552734375,0.001239776611328125,-27.942733764648438
1743581002.669476,0.0,1.0395768570500625,"[174.0, 185.0, 181.0, 156.0, 154.0, 154.0, 156.0, 181.0, 185.0, 174.0]",5.950063228607178,0.0,-2.962860107421875,0.001255035400390625,-27.94335174560547
1743581002.6893277,0.0,1.0395768570500625,"[174.0, 185.0, 181.0, 156.0, 154.0, 154.0, 156.0, 181.0, 185.0, 174.0]",6.2489118576049805,0.0,-3.08782958984375,0.001247406005859375,-27.942413330078125
1743581002.7085688,0.0,1.0395768570500625,"[174.0, 185.0, 180.0, 156.0, 154.0, 154.0, 156.0, 181.0, 185.0, 174.0]",6.445052146911621,0.0,-3.21673583984375,0.0012226104736328125,-27.94347381591797
1743581002.729954,0.0,1.0395768570500625,"[174.0, 185.0, 181.0, 156.0, 154.0, 154.0, 156.0, 181.0, 185.0, 174.0]",6.513294219970703,0.0,-3.34698486328125,0.00118255615234375,-27.94184112548828
1743581002.7486439,0.0,1.0395768570500625,"[174.0, 185.0, 180.0, 156.0, 154.0, 155.0, 158.0, 181.0, 185.0, 174.0]",6.59201192855835,0.0,-3.478790283203125,0.001132965087890625,-27.944244384765625
1743581002.7684102,0.0,1.0395768570500625,"[174.0, 185.0, 181.0, 156.0, 154.0, 154.0, 156.0, 181.0, 185.0, 174.0]",6.761534214019775,0.0,-3.613983154296875,0.00107574462890625,-27.940597534179688
1743581002.7888808,0.0,1.0395768570500625,"[174.0, 185.0, 180.0, 155.0, 154.0, 155.0, 158.0, 181.0, 185.0, 174.0]",6.629092216491699,0.0,-3.746490478515625,0.00101470947265625,-27.944580078125
1743581002.8088176,0.0,1.0395768570500625,"[174.0, 185.0, 181.0, 156.0, 154.0, 154.0, 156.0, 181.0, 185.0, 174.0]",6.894572734832764,0.0,-3.88433837890625,0.0009517669677734375,-27.940597534179688
1743581002.8353631,0.0,1.0412007609149538,"[174.0, 185.0, 180.0, 156.0, 154.0, 154.0, 156.0, 181.0, 185.0, 174.0]",7.016568660736084,0.0,-4.02459716796875,0.000888824462890625,-27.944664001464844
1743581002.850802,0.0,1.0412007609149538,"[174.0, 185.0, 181.0, 156.0, 154.0, 154.0, 156.0, 181.0, 185.0, 174.0]",7.203237056732178,0.0,-4.16864013671875,0.000827789306640625,-27.94146728515625
1743581002.8685727,0.0,1.0412007609149538,"[174.0, 185.0, 180.0, 156.0, 154.0, 154.0, 156.0, 181.0, 185.0, 174.0]",7.2075300216674805,0.0,-4.312744140625,0.00077056884765625,-27.944602966308594
1743581002.8880785,0.0,1.0412007609149538,"[174.0, 185.0, 181.0, 156.0, 154.0, 154.0, 156.0, 181.0, 185.0, 174.0]",7.528182506561279,0.0,-4.463287353515625,0.0007190704345703125,-27.941665649414062
1743581002.9106247,0.0,1.0412007609149538,"[174.0, 185.0, 181.0, 156.0, 154.0, 154.0, 156.0, 181.0, 185.0, 174.0]",7.5928850173950195,0.0,-4.615142822265625,0.0006694793701171875,-27.943939208984375
1743581002.9289515,0.0,1.0412007609149538,"[174.0, 185.0, 181.0, 156.0, 154.0, 154.0, 156.0, 181.0, 185.0, 174.0]",7.603166103363037,0.0,-4.767181396484375,0.0006275177001953125,-27.94237518310547
1743581002.9492352,0.0,1.0412007609149538,"[174.0, 185.0, 181.0, 156.0, 154.0, 154.0, 156.0, 181.0, 185.0, 174.0]",7.934786796569824,0.0,-4.925872802734375,0.000591278076171875,-27.94329071044922
1743581002.9686494,0.0,1.0412007609149538,"[174.0, 185.0, 181.0, 156.0, 154.0, 154.0, 156.0, 181.0, 185.0, 174.0]",7.9488348960876465,0.0,-5.0848388671875,0.000560760498046875,-27.942832946777344
1743581002.990223,0.0,1.0412007609149538,"[174.0, 185.0, 181.0, 156.0, 154.0, 154.0, 156.0, 181.0, 185.0, 174.0]",8.085267066955566,0.0,-5.246551513671875,0.0005340576171875,-27.943069458007812
1743581003.0089884,0.0,1.0412007609149538,"[174.0, 185.0, 180.0, 156.0, 154.0, 154.0, 156.0, 181.0, 185.0, 174.0]",8.082098007202148,0.0,-5.408203125,0.000514984130859375,-27.9432373046875
1743581003.0327823,0.0,1.0412007609149538,"[174.0, 185.0, 181.0, 156.0, 154.0, 154.0, 156.0, 181.0, 185.0, 174.0]",8.20720386505127,0.0,-5.572357177734375,0.0004978179931640625,-27.9427490234375
1743581003.0503333,0.0,1.0412007609149538,"[174.0, 185.0, 181.0, 156.0, 154.0, 154.0, 156.0, 181.0, 185.0, 174.0]",8.549369812011719,0.0,-5.743316650390625,0.00048828125,-27.943161010742188
1743581003.0695317,0.0,1.0412007609149538,"[174.0, 185.0, 181.0, 156.0, 154.0, 154.0, 156.0, 181.0, 185.0, 174.0]",8.618250846862793,0.0,-5.915679931640625,0.00048065185546875,-27.942901611328125
1743581003.0904162,0.0,1.0412007609149538,"[174.0, 185.0, 181.0, 156.0, 154.0, 154.0, 156.0, 181.0, 185.0, 174.0]",8.63302230834961,0.0,-6.088348388671875,0.000476837158203125,-27.942901611328125
1743581003.1097894,0.0,1.0412007609149538,"[174.0, 185.0, 181.0, 156.0, 154.0, 154.0, 156.0, 181.0, 185.0, 174.0]",8.973625183105469,0.0,-6.267822265625,0.0004749298095703125,-27.942787170410156
1743581003.130879,0.0,1.0412007609149538,"[174.0, 185.0, 181.0, 156.0, 154.0, 154.0, 156.0, 181.0, 185.0, 174.0]",8.784812927246094,0.0,-6.443511962890625,0.000476837158203125,-27.94269561767578
1743581003.1487737,0.0,1.0412007609149538,"[174.0, 185.0, 181.0, 156.0, 154.0, 154.0, 156.0, 181.0, 185.0, 174.0]",8.886813163757324,0.0,-6.621246337890625,0.00048065185546875,-27.942832946777344
1743581003.1682627,0.0,1.0412007609149538,"[174.0, 185.0, 181.0, 156.0, 154.0, 154.0, 156.0, 181.0, 185.0, 174.0]",8.961796760559082,0.0,-6.800506591796875,0.000484466552734375,-27.942459106445312
1743581003.1891406,0.0,1.0412007609149538,"[174.0, 185.0, 181.0, 156.0, 154.0, 154.0, 156.0, 181.0, 185.0, 174.0]",9.261872291564941,0.0,-6.9857177734375,0.0004901885986328125,-27.94269561767578
1743581003.2086053,0.0,1.0412007609149538,"[174.0, 185.0, 181.0, 156.0, 154.0, 154.0, 156.0, 181.0, 185.0, 174.0]",9.431689262390137,0.0,-7.17437744140625,0.0004978179931640625,-27.942581176757812
1743581003.232313,0.0,1.0412007609149538,"[174.0, 185.0, 181.0, 156.0, 154.0, 154.0, 156.0, 181.0, 185.0, 174.0]",9.623793601989746,0.0,-7.366851806640625,0.0005035400390625,-27.942962646484375
1743581003.2517424,0.0,1.0412007609149538,"[174.0, 185.0, 181.0, 156.0, 154.0, 154.0, 156.0, 181.0, 185.0, 174.0]",9.800145149230957,0.0,-7.562835693359375,0.00051116943359375,-27.942901611328125
1743581003.2694411,0.0,1.0412007609149538,"[174.0, 185.0, 181.0, 156.0, 154.0, 154.0, 156.0, 181.0, 185.0, 174.0]",9.786270141601562,0.0,-7.758575439453125,0.000518798828125,-27.942886352539062
1743581003.2887726,0.0,1.0412007609149538,"[174.0, 185.0, 181.0, 156.0, 154.0, 154.0, 156.0, 181.0, 185.0, 174.0]",9.77333927154541,0.0,-7.95404052734375,0.0005245208740234375,-27.943016052246094
1743581003.3088837,0.0,1.0412007609149538,"[174.0, 185.0, 181.0, 156.0, 154.0, 154.0, 156.0, 181.0, 185.0, 174.0]",9.861934661865234,0.0,-8.151275634765625,0.0005321502685546875,-27.943130493164062
1743581003.3291695,0.0,1.0412007609149538,"[174.0, 185.0, 181.0, 156.0, 154.0, 154.0, 156.0, 181.0, 185.0, 174.0]",10.19980525970459,0.0,-8.355255126953125,0.000537872314453125,-27.942909240722656
1743581003.348882,0.0,1.0412007609149538,"[174.0, 185.0, 181.0, 156.0, 154.0, 154.0, 156.0, 181.0, 185.0, 174.0]",10.156963348388672,0.0,-8.55841064453125,0.00054168701171875,-27.942710876464844
1743581003.3685539,0.0,1.0412007609149538,"[174.0, 185.0, 181.0, 156.0, 154.0, 154.0, 156.0, 181.0, 185.0, 174.0]",10.329442024230957,0.0,-8.764984130859375,0.0005474090576171875,-27.943267822265625
1743581003.3881974,0.0,1.0412007609149538,"[174.0, 185.0, 181.0, 156.0, 154.0, 154.0, 156.0, 181.0, 185.0, 174.0]",10.511099815368652,0.0,-8.9752197265625,0.0005512237548828125,-27.943405151367188
1743581003.4123285,0.0,1.0412007609149538,"[174.0, 185.0, 181.0, 156.0, 154.0, 154.0, 156.0, 181.0, 185.0, 174.0]",10.710644721984863,0.0,-9.189422607421875,0.0005550384521484375,-27.943458557128906
1743581003.4329991,0.0,1.0412007609149538,"[174.0, 185.0, 181.0, 156.0, 154.0, 154.0, 156.0, 181.0, 185.0, 174.0]",10.446520805358887,0.0,-9.398345947265625,0.00055694580078125,-27.943191528320312
1743581003.4508424,0.0,1.0412007609149538,"[174.0, 185.0, 181.0, 156.0, 154.0, 154.0, 156.0, 181.0, 185.0, 174.0]",10.714262008666992,0.0,-9.612640380859375,0.0005588531494140625,-27.943252563476562
1743581003.469382,0.0,1.0412007609149538,"[174.0, 185.0, 181.0, 156.0, 154.0, 154.0, 156.0, 181.0, 185.0, 174.0]",11.045526504516602,0.0,-9.83355712890625,0.000560760498046875,-27.943275451660156
1743581003.4886217,0.0,1.0412007609149538,"[174.0, 185.0, 181.0, 156.0, 154.0, 154.0, 156.0, 181.0, 185.0, 174.0]",11.312923431396484,0.0,-10.059814453125,0.0005626678466796875,-27.943336486816406
1743581003.510246,0.0,1.0412007609149538,"[174.0, 185.0, 181.0, 156.0, 154.0, 154.0, 156.0, 181.0, 185.0, 174.0]",11.190530776977539,0.0,-10.28363037109375,0.0005626678466796875,-27.943130493164062
1743581003.5298245,0.0,1.0412007609149538,"[174.0, 185.0, 181.0, 156.0, 154.0, 154.0, 156.0, 181.0, 185.0, 174.0]",11.365763664245605,0.0,-10.51092529296875,0.0005645751953125,-27.943267822265625
1743581003.548974,0.0,1.0412007609149538,"[174.0, 185.0, 181.0, 156.0, 154.0, 154.0, 156.0, 181.0, 185.0, 174.0]",11.322035789489746,0.0,-10.73736572265625,0.0005645751953125,-27.943069458007812
1743581003.5688748,0.0,1.0412007609149538,"[174.0, 185.0, 181.0, 156.0, 154.0, 154.0, 156.0, 181.0, 185.0, 174.0]",11.451847076416016,0.0,-10.9664306640625,0.0005626678466796875,-27.94280242919922
1743581003.5886734,0.0,1.0412007609149538,"[174.0, 185.0, 181.0, 156.0, 154.0, 154.0, 156.0, 181.0, 185.0, 174.0]",11.77526569366455,0.0,-11.201934814453125,0.0005626678466796875,-27.942840576171875
1743581003.6097353,0.0,1.0412007609149538,"[174.0, 185.0, 181.0, 156.0, 154.0, 154.0, 156.0, 181.0, 185.0, 174.0]",11.956008911132812,0.0,-11.4410400390625,0.0005626678466796875,-27.942848205566406
1743581003.6327052,0.0,1.0412007609149538,"[174.0, 185.0, 181.0, 156.0, 154.0, 154.0, 156.0, 181.0, 185.0, 174.0]",11.754915237426758,0.0,-11.6761474609375,0.0005626678466796875,-27.942550659179688
1743581003.651218,0.0,1.0412007609149538,"[174.0, 185.0, 181.0, 156.0, 154.0, 154.0, 156.0, 181.0, 185.0, 174.0]",12.101349830627441,0.0,-11.918182373046875,0.000560760498046875,-27.942596435546875
1743581003.669422,0.0,1.0412007609149538,"[174.0, 185.0, 181.0, 156.0, 154.0, 154.0, 156.0, 181.0, 185.0, 174.0]",12.283965110778809,0.0,-12.163848876953125,0.000560760498046875,-27.942733764648438
1743581003.6892576,0.0,1.0412007609149538,"[174.0, 185.0, 181.0, 156.0, 154.0, 154.0, 156.0, 181.0, 185.0, 174.0]",12.19161605834961,0.0,-12.407684326171875,0.0005588531494140625,-27.942489624023438
1743581003.708349,0.0,1.0412007609149538,"[174.0, 185.0, 181.0, 156.0, 154.0, 154.0, 156.0, 181.0, 185.0, 174.0]",12.520858764648438,0.0,-12.6580810546875,0.0005588531494140625,-27.942283630371094
1743581003.7298088,0.0,1.0412007609149538,"[174.0, 185.0, 181.0, 156.0, 154.0, 154.0, 156.0, 181.0, 185.0, 174.0]",12.495214462280273,0.0,-12.907989501953125,0.0005588531494140625,-27.942100524902344
1743581003.7501378,0.0,1.0412007609149538,"[174.0, 185.0, 181.0, 156.0, 154.0, 154.0, 156.0, 181.0, 185.0, 174.0]",12.6471529006958,0.0,-13.16094970703125,0.00055694580078125,-27.94202423095703
1743581003.7690165,0.0,1.0412007609149538,"[174.0, 185.0, 181.0, 156.0, 154.0, 154.0, 156.0, 181.0, 185.0, 174.0]",12.585493087768555,0.0,-13.41265869140625,0.00055694580078125,-27.94239044189453
1743581003.789442,0.0,1.0412007609149538,"[174.0, 185.0, 181.0, 156.0, 154.0, 154.0, 156.0, 181.0, 185.0, 174.0]",12.886999130249023,0.0,-13.670379638671875,0.0005550384521484375,-27.942100524902344
1743581003.809923,0.0,1.0412007609149538,"[174.0, 185.0, 181.0, 156.0, 154.0, 154.0, 156.0, 181.0, 185.0, 174.0]",13.043828010559082,0.0,-13.9312744140625,0.0005550384521484375,-27.9417724609375
1743581003.8327036,0.0,1.0412007609149538,"[174.0, 185.0, 181.0, 156.0, 154.0, 154.0, 156.0, 181.0, 185.0, 174.0]",12.928831100463867,0.0,-14.189849853515625,0.0005550384521484375,-27.941848754882812
1743581003.8527176,0.0,1.0412007609149538,"[174.0, 185.0, 181.0, 156.0, 154.0, 154.0, 156.0, 181.0, 185.0, 174.0]",13.212607383728027,0.0,-14.4541015625,0.0005550384521484375,-27.94194793701172
1743581003.868558,0.0,1.0412007609149538,"[174.0, 185.0, 181.0, 156.0, 154.0, 154.0, 156.0, 181.0, 185.0, 174.0]",13.423454284667969,0.0,-14.722564697265625,0.0005550384521484375,-27.941993713378906
1743581003.8898993,0.0,1.0412007609149538,"[174.0, 185.0, 181.0, 156.0, 154.0, 154.0, 156.0, 181.0, 185.0, 174.0]",13.43055534362793,0.0,-14.991180419921875,0.0005550384521484375,-27.941749572753906
1743581003.9111326,0.0,1.0412007609149538,"[174.0, 185.0, 181.0, 156.0, 154.0, 154.0, 156.0, 181.0, 185.0, 174.0]",13.736119270324707,0.0,-15.265899658203125,0.000553131103515625,-27.941665649414062
1743581003.9289377,0.0,1.0412007609149538,"[174.0, 185.0, 180.0, 156.0, 154.0, 154.0, 156.0, 181.0, 185.0, 174.0]",13.677720069885254,0.0,-15.539459228515625,0.000553131103515625,-27.94178009033203
1743581003.950388,0.0,1.0412007609149538,"[174.0, 185.0, 181.0, 156.0, 154.0, 154.0, 156.0, 181.0, 185.0, 174.0]",13.680803298950195,0.0,-15.813079833984375,0.000553131103515625,-27.941299438476562
1743581003.9690328,0.0,1.0412007609149538,"[174.0, 185.0, 181.0, 156.0, 154.0, 154.0, 156.0, 181.0, 185.0, 174.0]",14.063132286071777,0.0,-16.094329833984375,0.000553131103515625,-27.941268920898438
1743581003.989264,0.0,1.0412007609149538,"[174.0, 185.0, 180.0, 156.0, 154.0, 154.0, 156.0, 181.0, 185.0, 174.0]",14.077617645263672,0.0,-16.375885009765625,0.000553131103515625,-27.941375732421875
1743581004.0089006,0.0,1.0412007609149538,"[174.0, 185.0, 181.0, 156.0, 154.0, 154.0, 156.0, 181.0, 185.0, 174.0]",14.051380157470703,0.0,-16.65692138671875,0.000553131103515625,-27.941009521484375
1743581004.0349116,0.0,1.0412007609149538,"[174.0, 185.0, 181.0, 156.0, 154.0, 154.0, 156.0, 181.0, 185.0, 174.0]",14.21618366241455,0.0,-16.94122314453125,0.000553131103515625,-27.9412841796875
1743581004.0515156,0.0,1.0412007609149538,"[174.0, 185.0, 181.0, 156.0, 154.0, 154.0, 156.0, 181.0, 185.0, 174.0]",14.516092300415039,0.0,-17.2315673828125,0.000553131103515625,-27.94146728515625
1743581004.0704994,0.0,1.0412007609149538,"[174.0, 185.0, 181.0, 156.0, 154.0, 154.0, 156.0, 181.0, 185.0, 174.0]",14.441556930541992,0.0,-17.5203857421875,0.000553131103515625,-27.941436767578125
1743581004.088683,0.0,1.0412007609149538,"[174.0, 185.0, 180.0, 156.0, 154.0, 154.0, 156.0, 181.0, 185.0, 174.0]",14.620344161987305,0.0,-17.81280517578125,0.000553131103515625,-27.94141387939453
1743581004.1093302,0.0,1.0412007609149538,"[174.0, 185.0, 181.0, 156.0, 154.0, 154.0, 156.0, 181.0, 185.0, 174.0]",14.676671028137207,0.0,-18.1063232421875,0.000553131103515625,-27.94097137451172
1743581004.129298,0.0,1.0412007609149538,"[174.0, 185.0, 181.0, 156.0, 154.0, 154.0, 156.0, 181.0, 185.0, 174.0]",14.96956729888916,0.0,-18.405731201171875,0.0005550384521484375,-27.940948486328125
1743581004.1485994,0.0,1.0412007609149538,"[174.0, 185.0, 181.0, 156.0, 154.0, 154.0, 156.0, 181.0, 185.0, 174.0]",14.926900863647461,0.0,-18.704254150390625,0.0005550384521484375,-27.94091796875
1743581004.1680534,0.0,1.0412007609149538,"[174.0, 185.0, 181.0, 156.0, 154.0, 154.0, 156.0, 181.0, 185.0, 174.0]",14.865633964538574,0.0,-19.001556396484375,0.0005550384521484375,-27.940834045410156
1743581004.189266,0.0,1.0412007609149538,"[174.0, 185.0, 181.0, 156.0, 154.0, 154.0, 156.0, 181.0, 185.0, 174.0]",15.23868179321289,0.0,-19.30633544921875,0.0005550384521484375,-27.94073486328125
1743581004.2095382,0.0,1.0412007609149538,"[174.0, 185.0, 181.0, 156.0, 154.0, 154.0, 156.0, 181.0, 185.0, 174.0]",15.311369895935059,0.0,-19.612579345703125,0.0005550384521484375,-27.940643310546875
1743581004.2344117,0.0,1.0412007609149538,"[174.0, 185.0, 181.0, 156.0, 154.0, 154.0, 156.0, 181.0, 185.0, 174.0]",15.348479270935059,0.0,-19.919525146484375,0.0005550384521484375,-27.94036102294922
1743581004.2498255,0.0,1.0412007609149538,"[174.0, 185.0, 181.0, 156.0, 154.0, 154.0, 156.0, 181.0, 185.0, 174.0]",15.534066200256348,0.0,-20.230224609375,0.0005550384521484375,-27.940093994140625
1743581004.2692618,0.0,1.0412007609149538,"[174.0, 185.0, 180.0, 156.0, 154.0, 154.0, 156.0, 181.0, 185.0, 174.0]",15.504711151123047,0.0,-20.540313720703125,0.0005550384521484375,-27.940277099609375
1743581004.2885022,0.0,1.0412007609149538,"[174.0, 185.0, 181.0, 156.0, 154.0, 154.0, 156.0, 181.0, 185.0, 174.0]",15.645054817199707,0.0,-20.85321044921875,0.0005550384521484375,-27.93993377685547
1743581004.3103979,0.0,1.0412007609149538,"[174.0, 185.0, 181.0, 156.0, 154.0, 154.0, 156.0, 181.0, 185.0, 174.0]",15.899959564208984,0.0,-21.17120361328125,0.0005550384521484375,-27.939666748046875
1743581004.330696,0.0,1.0412007609149538,"[174.0, 185.0, 180.0, 156.0, 154.0, 154.0, 156.0, 181.0, 185.0, 174.0]",15.957104682922363,0.0,-21.4903564453125,0.0005550384521484375,-27.93975830078125
1743581004.3509274,0.0,1.0412007609149538,"[174.0, 185.0, 181.0, 156.0, 154.0, 154.0, 156.0, 181.0, 185.0, 174.0]",15.950242042541504,0.0,-21.809356689453125,0.0005550384521484375,-27.939361572265625
1743581004.3700185,0.0,1.0412007609149538,"[174.0, 185.0, 181.0, 156.0, 154.0, 154.0, 156.0, 181.0, 185.0, 174.0]",16.226457595825195,0.0,-22.133880615234375,0.0005550384521484375,-27.93939971923828
1743581004.3905816,0.0,1.0412007609149538,"[174.0, 185.0, 181.0, 156.0, 154.0, 154.0, 156.0, 181.0, 185.0, 174.0]",16.382497787475586,0.0,-22.4615478515625,0.0005550384521484375,-27.939544677734375
1743581004.4121358,0.0,1.0412007609149538,"[174.0, 185.0, 181.0, 156.0, 154.0, 154.0, 156.0, 181.0, 185.0, 174.0]",16.175418853759766,0.0,-22.7850341796875,0.0005550384521484375,-27.939361572265625
1743581004.4318094,0.0,1.0412007609149538,"[174.0, 185.0, 181.0, 156.0, 154.0, 154.0, 156.0, 181.0, 185.0, 174.0]",16.544588088989258,0.0,-23.115936279296875,0.0005550384521484375,-27.939208984375
1743581004.450936,0.0,1.0412007609149538,"[174.0, 185.0, 181.0, 156.0, 154.0, 154.0, 156.0, 181.0, 185.0, 174.0]",16.734277725219727,0.0,-23.45062255859375,0.0005550384521484375,-27.93909454345703
1743581004.470757,0.0,1.0412007609149538,"[174.0, 185.0, 181.0, 156.0, 154.0, 154.0, 156.0, 181.0, 185.0, 174.0]",16.555789947509766,0.0,-23.78173828125,0.0005550384521484375,-27.938796997070312
1743581004.4900956,0.0,1.0412007609149538,"[174.0, 185.0, 181.0, 156.0, 154.0, 154.0, 156.0, 181.0, 185.0, 174.0]",16.900938034057617,0.0,-24.1197509765625,0.0005550384521484375,-27.938735961914062
1743581004.5096712,0.0,1.0412007609149538,"[174.0, 185.0, 181.0, 156.0, 154.0, 154.0, 156.0, 181.0, 185.0, 174.0]",17.04975700378418,0.0,-24.46075439453125,0.0005550384521484375,-27.938804626464844
1743581004.5289688,0.0,1.0412007609149538,"[174.0, 185.0, 181.0, 156.0, 154.0, 154.0, 156.0, 181.0, 185.0, 174.0]",16.91611671447754,0.0,-24.799072265625,0.0005550384521484375,-27.9385986328125
1743581004.5501661,0.0,1.0412007609149538,"[174.0, 185.0, 181.0, 156.0, 154.0, 154.0, 156.0, 181.0, 185.0, 174.0]",17.28461456298828,0.0,-25.144775390625,0.0005550384521484375,-27.938583374023438
1743581004.5684032,0.0,1.0412007609149538,"[174.0, 185.0, 180.0, 156.0, 154.0, 154.0, 156.0, 181.0, 185.0, 174.0]",17.28984260559082,0.0,-25.490570068359375,0.0005550384521484375,-27.938690185546875
