timestamp,steering_input,acceleration_input,raycasts,speed,steering,position_x,position_y,position_z
1743582143.8220248,-0.13421171079013053,-0.0,"[174.0, 185.0, 227.0, 295.0, 259.0, 259.0, 295.0, 227.0, 185.0, 174.0]",0.0,0.0,0.0,0.10000038146972656,-27.93000030517578
1743582144.064877,-0.13421171079013053,-0.0,"[174.0, 185.0, 178.0, 155.0, 154.0, 154.0, 156.0, 179.0, 185.0, 174.0]",0.1431841105222702,-0.06710585206747055,0.0,0.097137451171875,-27.93000030517578
1743582144.1103528,-0.13421171079013053,-0.0,"[174.0, 185.0, 178.0, 155.0, 154.0, 154.0, 156.0, 179.0, 185.0, 174.0]",0.2360968291759491,-0.06710585206747055,0.0,0.09241485595703125,-27.93000030517578
1743582144.1143105,-0.13421171079013053,-0.0,"[174.0, 185.0, 178.0, 155.0, 154.0, 154.0, 156.0, 179.0, 185.0, 174.0]",0.30777978897094727,-0.06710585206747055,0.0,0.08625984191894531,-27.93000030517578
1743582144.1441827,-0.13421171079013053,-0.0,"[174.0, 185.0, 179.0, 155.0, 154.0, 154.0, 156.0, 179.0, 185.0, 174.0]",0.36006513237953186,-0.06710585206747055,0.0,0.07905769348144531,-27.93000030517578
1743582144.1484795,-0.13421171079013053,-0.0,"[174.0, 185.0, 179.0, 155.0, 154.0, 154.0, 156.0, 179.0, 185.0, 174.0]",0.39494791626930237,-0.06710585206747055,0.0,0.07115936279296875,-27.93000030517578
1743582144.1806724,-0.13421171079013053,-0.0,"[174.0, 185.0, 179.0, 155.0, 154.0, 154.0, 156.0, 180.0, 185.0, 174.0]",0.4145027697086334,-0.06710585206747055,0.0,0.06286811828613281,-27.93000030517578
1743582144.21046,-0.13421171079013053,-0.0,"[174.0, 185.0, 179.0, 155.0, 154.0, 154.0, 156.0, 180.0, 185.0, 174.0]",0.4208291471004486,-0.06710585206747055,0.0,0.05445289611816406,-27.93000030517578
1743582144.213882,-0.13421171079013053,-0.0,"[174.0, 185.0, 179.0, 155.0, 154.0, 154.0, 156.0, 180.0, 185.0, 174.0]",0.41598930954933167,-0.06710585206747055,0.0,0.04613304138183594,-27.93000030517578
1743582144.244386,-0.13421171079013053,-0.0,"[174.0, 185.0, 179.0, 155.0, 154.0, 154.0, 156.0, 181.0, 185.0, 174.0]",0.40197139978408813,-0.06710585206747055,0.0,0.03809356689453125,-27.93000030517578
1743582144.2480946,-0.13421171079013053,-0.0,"[174.0, 185.0, 179.0, 155.0, 154.0, 154.0, 156.0, 181.0, 185.0, 174.0]",0.3806491196155548,-0.06710585206747055,0.0,0.03047943115234375,-27.93000030517578
1743582144.280952,-0.13421171079013053,-0.0,"[174.0, 185.0, 180.0, 156.0, 154.0, 154.0, 156.0, 181.0, 185.0, 174.0]",0.35375669598579407,-0.06710585206747055,0.0,0.023405075073242188,-27.93000030517578
1743582144.3131561,-0.13421171079013053,-0.0,"[174.0, 185.0, 180.0, 156.0, 154.0, 154.0, 156.0, 181.0, 185.0, 174.0]",0.32287511229515076,-0.06710585206747055,0.0,0.016946792602539062,-27.92999267578125
1743582144.3163826,-0.13421171079013053,-0.0,"[174.0, 185.0, 180.0, 156.0, 154.0, 154.0, 156.0, 181.0, 185.0, 174.0]",0.2894448935985565,-0.06710585206747055,0.0,0.011159896850585938,-27.930084228515625
1743582144.3510005,-0.13421171079013053,-0.0,"[174.0, 185.0, 180.0, 156.0, 154.0, 154.0, 156.0, 181.0, 185.0, 174.0]",0.2677757143974304,-0.06710585206747055,-6.103515625e-05,0.0060672760009765625,-27.928421020507812
1743582144.3541934,-0.13421171079013053,-0.0,"[174.0, 185.0, 180.0, 156.0, 154.0, 154.0, 156.0, 181.0, 185.0, 174.0]",0.3081676661968231,-0.06710585206747055,0.0001220703125,0.0016765594482421875,-27.932754516601562
1743582144.3846083,-0.13421171079013053,-0.0,"[174.0, 185.0, 181.0, 156.0, 154.0, 154.0, 156.0, 181.0, 185.0, 174.0]",0.2039361149072647,-0.06710585206747055,0.00018310546875,-0.0020236968994140625,-27.934463500976562
1743582144.3879483,-0.13421171079013053,-0.0,"[174.0, 185.0, 181.0, 156.0, 154.0, 154.0, 156.0, 181.0, 185.0, 174.0]",0.27783203125,-0.06710585206747055,0.0,-0.0050601959228515625,-27.9298095703125
1743582144.4221277,-0.13421171079013053,-0.0,"[174.0, 185.0, 181.0, 156.0, 154.0, 154.0, 156.0, 181.0, 185.0, 174.0]",0.13008885085582733,-0.06710585206747055,3.0517578125e-05,-0.007472991943359375,-27.9307861328125
1743582144.4516861,-0.13421171079013053,-0.0,"[174.0, 185.0, 181.0, 156.0, 154.0, 154.0, 156.0, 181.0, 185.0, 174.0]",0.19232644140720367,-0.06710585206747055,-0.0001220703125,-0.009307861328125,-27.927398681640625
1743582144.4550035,-0.13421171079013053,-0.0,"[174.0, 185.0, 181.0, 156.0, 154.0, 154.0, 156.0, 181.0, 185.0, 174.0]",0.19512680172920227,-0.06710585206747055,-0.000274658203125,-0.010616302490234375,-27.923721313476562
1743582144.4925919,-0.13421171079013053,-0.0,"[174.0, 185.0, 181.0, 156.0, 154.0, 154.0, 156.0, 181.0, 185.0, 174.0]",0.21216367185115814,-0.06710585206747055,-0.000457763671875,-0.011455535888671875,-27.9195556640625
1743582144.4992151,-0.13421171079013053,-0.0,"[174.0, 185.0, 181.0, 156.0, 154.0, 154.0, 156.0, 181.0, 185.0, 174.0]",0.12272034585475922,-0.06710585206747055,-0.00054931640625,-0.011884689331054688,-27.917137145996094
1743582144.5391996,-0.13421171079013053,-0.0,"[174.0, 185.0, 181.0, 156.0, 154.0, 154.0, 156.0, 181.0, 185.0, 174.0]",0.1963793933391571,-0.06710585206747055,-0.000396728515625,-0.011960983276367188,-27.921066284179688
1743582144.5439637,-0.13421171079013053,-0.0,"[174.0, 185.0, 181.0, 156.0, 154.0, 154.0, 156.0, 181.0, 185.0, 174.0]",0.1745988130569458,-0.06710585206747055,-0.000244140625,-0.011743545532226562,-27.924560546875
1743582144.5763109,-0.13421171079013053,-0.0,"[174.0, 185.0, 181.0, 156.0, 154.0, 154.0, 156.0, 181.0, 185.0, 174.0]",0.15615327656269073,-0.06710585206747055,-9.1552734375e-05,-0.011285781860351562,-27.927650451660156
1743582144.5815136,-0.13421171079013053,-0.0,"[174.0, 185.0, 181.0, 156.0, 154.0, 154.0, 156.0, 181.0, 185.0, 174.0]",0.06017541512846947,-0.06710585206747055,-6.103515625e-05,-0.010637283325195312,-27.928665161132812
1743582144.6143713,-0.13421171079013053,-0.0,"[174.0, 185.0, 181.0, 156.0, 154.0, 154.0, 156.0, 181.0, 185.0, 174.0]",0.19615547358989716,-0.06710585206747055,-0.000213623046875,-0.009847640991210938,-27.924819946289062
1743582144.6183746,-0.13421171079013053,-0.0,"[174.0, 185.0, 181.0, 156.0, 154.0, 154.0, 156.0, 181.0, 185.0, 174.0]",0.15091319382190704,-0.06710585206747055,-0.000335693359375,-0.0089569091796875,-27.92193603515625
1743582144.6516228,-0.13421171079013053,-0.0,"[174.0, 185.0, 181.0, 156.0, 154.0, 154.0, 156.0, 181.0, 185.0, 174.0]",0.05280042067170143,-0.06710585206747055,-0.000335693359375,-0.008007049560546875,-27.922393798828125
1743582144.6553547,-0.13421171079013053,-0.0,"[174.0, 185.0, 181.0, 156.0, 154.0, 154.0, 156.0, 181.0, 185.0, 174.0]",0.1910957247018814,-0.06710585206747055,-0.00048828125,-0.00702667236328125,-27.91869354248047
1743582144.689679,-0.13421171079013053,-0.0,"[174.0, 185.0, 180.0, 156.0, 154.0, 154.0, 156.0, 181.0, 185.0, 174.0]",0.14230355620384216,-0.06710585206747055,-0.0006103515625,-0.0060482025146484375,-27.91602325439453
1743582144.6934395,-0.13421171079013053,-0.0,"[174.0, 185.0, 180.0, 156.0, 154.0, 154.0, 156.0, 181.0, 185.0, 174.0]",0.10678116977214813,-0.06710585206747055,-0.000518798828125,-0.0050907135009765625,-27.917930603027344
1743582144.725779,-0.13421171079013053,-0.0,"[174.0, 185.0, 180.0, 156.0, 154.0, 154.0, 156.0, 181.0, 185.0, 174.0]",0.20735488831996918,-0.06710585206747055,-0.000701904296875,-0.004177093505859375,-27.91387939453125
1743582144.7294264,-0.13421171079013053,-0.0,"[174.0, 185.0, 180.0, 156.0, 154.0, 154.0, 156.0, 181.0, 185.0, 174.0]",0.09354768693447113,-0.06710585206747055,-0.000762939453125,-0.0033206939697265625,-27.912216186523438
1743582144.7650769,-0.13421171079013053,-0.0,"[174.0, 185.0, 180.0, 156.0, 154.0, 154.0, 156.0, 181.0, 185.0, 174.0]",0.1954989731311798,-0.06710585206747055,-0.0006103515625,-0.0025310516357421875,-27.916053771972656
1743582144.8042161,-0.13421171079013053,-0.0,"[174.0, 185.0, 180.0, 156.0, 154.0, 154.0, 156.0, 181.0, 185.0, 174.0]",0.120630644261837,-0.06710585206747055,-0.000518798828125,-0.0018177032470703125,-27.918357849121094
1743582144.8092108,-0.13421171079013053,-0.0,"[174.0, 185.0, 180.0, 156.0, 154.0, 154.0, 156.0, 181.0, 185.0, 174.0]",0.1820801943540573,-0.06710585206747055,-0.00067138671875,-0.0011844635009765625,-27.914764404296875
1743582144.8406434,-0.13421171079013053,-0.0,"[174.0, 185.0, 180.0, 156.0, 154.0, 154.0, 156.0, 181.0, 185.0, 174.0]",0.11977063119411469,-0.06710585206747055,-0.000762939453125,-0.00063323974609375,-27.912437438964844
1743582144.8446825,-0.13421171079013053,-0.0,"[174.0, 185.0, 180.0, 156.0, 154.0, 154.0, 156.0, 181.0, 185.0, 174.0]",0.1757274866104126,-0.06710585206747055,-0.0006103515625,-0.0001621246337890625,-27.915924072265625
1743582144.8787944,-0.13421171079013053,-0.0,"[174.0, 185.0, 180.0, 156.0, 154.0, 154.0, 156.0, 181.0, 185.0, 174.0]",0.11018460988998413,-0.06710585206747055,-0.000518798828125,0.0002288818359375,-27.9180908203125
1743582144.8849401,-0.13421171079013053,-0.0,"[174.0, 185.0, 180.0, 156.0, 154.0, 154.0, 156.0, 181.0, 185.0, 174.0]",0.1888929009437561,-0.06710585206747055,-0.00067138671875,0.000545501708984375,-27.914321899414062
1743582144.9696875,-0.13421171079013053,-0.0,"[174.0, 185.0, 180.0, 156.0, 154.0, 154.0, 156.0, 181.0, 185.0, 174.0]",0.12057142704725266,-0.06710585206747055,-0.00079345703125,0.0007915496826171875,-27.91192626953125
1743582144.9738672,-0.13421171079013053,-0.0,"[174.0, 185.0, 180.0, 156.0, 154.0, 154.0, 156.0, 181.0, 185.0, 174.0]",0.16305257380008698,-0.06710585206747055,-0.00067138671875,0.000972747802734375,-27.915184020996094
1743582144.976655,-0.13421171079013053,-0.0,"[174.0, 185.0, 180.0, 156.0, 154.0, 154.0, 156.0, 181.0, 185.0, 174.0]",0.0723024532198906,-0.06710585206747055,-0.000579833984375,0.0010967254638671875,-27.9166259765625
1743582144.9795759,-0.13421171079013053,-0.0,"[174.0, 185.0, 180.0, 156.0, 154.0, 154.0, 156.0, 181.0, 185.0, 174.0]",0.1746124029159546,-0.06710585206747055,-0.000732421875,0.0011692047119140625,-27.913131713867188
1743582144.9833877,-0.13421171079013053,-0.0,"[174.0, 185.0, 180.0, 156.0, 154.0, 154.0, 156.0, 181.0, 185.0, 174.0]",0.11437830328941345,-0.06710585206747055,-0.000823974609375,0.00119781494140625,-27.910842895507812
1743582145.0175653,-0.13421171079013053,-0.0,"[174.0, 185.0, 180.0, 156.0, 154.0, 154.0, 156.0, 181.0, 185.0, 174.0]",0.18550536036491394,-0.06710585206747055,-0.00067138671875,0.0011882781982421875,-27.91455078125
1743582145.0210524,-0.13421171079013053,-0.0,"[174.0, 185.0, 180.0, 156.0, 154.0, 154.0, 156.0, 181.0, 185.0, 174.0]",0.12748830020427704,-0.06710585206747055,-0.000579833984375,0.001148223876953125,-27.91710662841797
1743582145.0532703,-0.13421171079013053,-0.0,"[174.0, 185.0, 180.0, 156.0, 154.0, 154.0, 156.0, 181.0, 185.0, 174.0]",0.13093684613704681,-0.06710585206747055,-0.00067138671875,0.0010833740234375,-27.91448974609375
1743582145.057513,-0.13421171079013053,-0.0,"[174.0, 185.0, 180.0, 156.0, 154.0, 154.0, 156.0, 181.0, 185.0, 174.0]",0.13307081162929535,-0.06710585206747055,-0.00054931640625,0.00099945068359375,-27.917152404785156
1743582145.09113,-0.13421171079013053,-0.0,"[174.0, 185.0, 180.0, 156.0, 154.0, 154.0, 156.0, 181.0, 185.0, 174.0]",0.10036839544773102,-0.06710585206747055,-0.0006103515625,0.0009002685546875,-27.915145874023438
1743582145.0949528,-0.13421171079013053,-0.0,"[174.0, 185.0, 180.0, 156.0, 154.0, 154.0, 156.0, 181.0, 185.0, 174.0]",0.20313423871994019,-0.06710585206747055,-0.000457763671875,0.00079345703125,-27.919204711914062
1743582145.128078,-0.13421171079013053,-0.0,"[174.0, 185.0, 181.0, 156.0, 154.0, 154.0, 156.0, 181.0, 185.0, 174.0]",0.08652643859386444,-0.06710585206747055,-0.0003662109375,0.00067901611328125,-27.920936584472656
1743582145.132495,-0.13421171079013053,-0.0,"[174.0, 185.0, 181.0, 156.0, 154.0, 154.0, 156.0, 181.0, 185.0, 174.0]",0.201786071062088,-0.06710585206747055,-0.00054931640625,0.0005645751953125,-27.916900634765625
1743582145.1648374,-0.13421171079013053,-0.0,"[174.0, 185.0, 180.0, 156.0, 154.0, 154.0, 156.0, 181.0, 185.0, 174.0]",0.09426246583461761,-0.06710585206747055,-0.000640869140625,0.0004520416259765625,-27.915016174316406
1743582145.1688552,-0.13421171079013053,-0.0,"[174.0, 185.0, 180.0, 156.0, 154.0, 154.0, 156.0, 181.0, 185.0, 174.0]",0.2068360447883606,-0.06710585206747055,-0.000457763671875,0.00034332275390625,-27.919158935546875
1743582145.2000175,-0.13421171079013053,-0.0,"[174.0, 185.0, 181.0, 156.0, 154.0, 154.0, 156.0, 181.0, 185.0, 174.0]",0.0684160366654396,-0.06710585206747055,-0.000396728515625,0.0002384185791015625,-27.920516967773438
1743582145.23204,-0.13421171079013053,-0.0,"[174.0, 185.0, 181.0, 156.0, 154.0, 154.0, 156.0, 181.0, 185.0, 174.0]",0.1727043092250824,-0.06710585206747055,-0.00054931640625,0.0001430511474609375,-27.917068481445312
1743582145.23641,-0.13421171079013053,-0.0,"[174.0, 185.0, 181.0, 156.0, 154.0, 154.0, 156.0, 181.0, 185.0, 174.0]",0.11743607372045517,-0.06710585206747055,-0.000640869140625,5.53131103515625e-05,-27.914718627929688
1743582145.2688916,-0.13421171079013053,-0.0,"[174.0, 185.0, 181.0, 156.0, 154.0, 154.0, 156.0, 181.0, 185.0, 174.0]",0.17954950034618378,-0.06710585206747055,-0.00048828125,-2.288818359375e-05,-27.918304443359375
1743582145.27259,-0.13421171079013053,-0.0,"[174.0, 185.0, 181.0, 156.0, 154.0, 154.0, 156.0, 181.0, 185.0, 174.0]",0.13111546635627747,-0.06710585206747055,-0.0003662109375,-9.34600830078125e-05,-27.920928955078125
1743582145.3046606,-0.13421171079013053,-0.0,"[174.0, 185.0, 181.0, 156.0, 154.0, 154.0, 156.0, 181.0, 185.0, 174.0]",0.11526815593242645,-0.06710585206747055,-0.000457763671875,-0.000152587890625,-27.918624877929688
1743582145.3076196,-0.13421171079013053,-0.0,"[174.0, 185.0, 181.0, 156.0, 154.0, 154.0, 156.0, 181.0, 185.0, 174.0]",0.18238267302513123,-0.06710585206747055,-0.00030517578125,-0.0002040863037109375,-27.922279357910156
1743582145.3379722,-0.13421171079013053,-0.0,"[174.0, 185.0, 181.0, 156.0, 154.0, 154.0, 156.0, 181.0, 185.0, 174.0]",0.13439784944057465,-0.06710585206747055,-0.00018310546875,-0.000244140625,-27.924964904785156
1743582145.3680146,-0.13421171079013053,-0.0,"[174.0, 185.0, 181.0, 156.0, 154.0, 154.0, 156.0, 181.0, 185.0, 174.0]",0.09388373792171478,-0.06710585206747055,-0.000244140625,-0.000278472900390625,-27.92308807373047
1743582145.3713892,-0.13421171079013053,-0.0,"[174.0, 185.0, 181.0, 156.0, 154.0, 154.0, 156.0, 181.0, 185.0, 174.0]",0.20777368545532227,-0.06710585206747055,-9.1552734375e-05,-0.0003032684326171875,-27.92724609375
1743582145.4016552,-0.13421171079013053,-0.0,"[174.0, 185.0, 181.0, 156.0, 154.0, 154.0, 156.0, 181.0, 185.0, 174.0]",0.06300044059753418,-0.06710585206747055,-3.0517578125e-05,-0.0003204345703125,-27.928504943847656
1743582145.4326017,-0.13421171079013053,-0.0,"[174.0, 185.0, 181.0, 156.0, 154.0, 154.0, 156.0, 181.0, 185.0, 174.0]",0.17294266819953918,-0.06710585206747055,-0.000152587890625,-0.0003337860107421875,-27.925048828125
1743582145.4360685,-0.13421171079013053,-0.0,"[174.0, 185.0, 181.0, 156.0, 154.0, 154.0, 156.0, 181.0, 185.0, 174.0]",0.1177104115486145,-0.06710585206747055,-0.000274658203125,-0.000339508056640625,-27.922691345214844
1743582145.4709313,-0.13421171079013053,-0.0,"[174.0, 185.0, 181.0, 156.0, 154.0, 154.0, 156.0, 181.0, 185.0, 174.0]",0.17737144231796265,-0.06710585206747055,-0.0001220703125,-0.000339508056640625,-27.926239013671875
1743582145.4743147,-0.13421171079013053,-0.0,"[174.0, 185.0, 181.0, 156.0, 154.0, 154.0, 156.0, 181.0, 185.0, 174.0]",0.1272149235010147,-0.06710585206747055,0.0,-0.0003376007080078125,-27.928787231445312
1743582145.508583,-0.13421171079013053,-0.0,"[174.0, 185.0, 181.0, 156.0, 154.0, 154.0, 156.0, 181.0, 185.0, 174.0]",0.13382744789123535,-0.06710585206747055,-9.1552734375e-05,-0.000331878662109375,-27.926109313964844
1743582145.5113533,-0.13421171079013053,-0.0,"[174.0, 185.0, 181.0, 156.0, 154.0, 154.0, 156.0, 181.0, 185.0, 174.0]",0.09945184737443924,-0.06710585206747055,-3.0517578125e-05,-0.0003223419189453125,-27.9281005859375
1743582145.5421526,-0.13421171079013053,-0.0,"[174.0, 185.0, 181.0, 156.0, 154.0, 154.0, 156.0, 181.0, 185.0, 174.0]",0.20408503711223602,-0.06710585206747055,-0.00018310546875,-0.00031280517578125,-27.92401123046875
1743582145.5730138,-0.13421171079013053,-0.0,"[174.0, 185.0, 181.0, 156.0, 154.0, 154.0, 156.0, 181.0, 185.0, 174.0]",0.08177898079156876,-0.06710585206747055,-0.000274658203125,-0.0002994537353515625,-27.922378540039062
1743582145.5766027,-0.13421171079013053,-0.0,"[174.0, 185.0, 181.0, 156.0, 154.0, 154.0, 156.0, 181.0, 185.0, 174.0]",0.1924068182706833,-0.06710585206747055,-9.1552734375e-05,-0.0002880096435546875,-27.926223754882812
1743582145.60689,-0.13421171079013053,-0.0,"[174.0, 185.0, 181.0, 156.0, 154.0, 154.0, 156.0, 181.0, 185.0, 174.0]",0.12605534493923187,-0.06710585206747055,0.0,-0.000274658203125,-27.928749084472656
1743582145.609875,-0.13421171079013053,-0.0,"[174.0, 185.0, 181.0, 156.0, 154.0, 154.0, 156.0, 181.0, 185.0, 174.0]",0.14138731360435486,-0.06710585206747055,-9.1552734375e-05,-0.0002613067626953125,-27.925918579101562
1743582145.6396372,-0.13421171079013053,-0.0,"[174.0, 185.0, 181.0, 156.0, 154.0, 154.0, 156.0, 181.0, 185.0, 174.0]",0.023917296901345253,-0.06710585206747055,-9.1552734375e-05,-0.000247955322265625,-27.92639923095703
1743582145.6879494,-0.13421171079013053,-0.0,"[174.0, 185.0, 227.0, 295.0, 259.0, 160.0, 295.0, 190.0, 185.0, 174.0]",0.0,0.0,0.0,0.10000038146972656,-27.93000030517578
1743582145.691396,-0.13421171079013053,-0.0,"[174.0, 185.0, 227.0, 295.0, 259.0, 160.0, 295.0, 190.0, 185.0, 174.0]",0.8980554342269897,-0.06710585206747055,0.0,0.08203887939453125,-27.930015563964844
1743582145.6942055,-0.13421171079013053,-0.0,"[174.0, 185.0, 227.0, 295.0, 259.0, 160.0, 295.0, 190.0, 185.0, 174.0]",0.846531867980957,-0.06710585206747055,0.0,0.06511116027832031,-27.92974090576172
1743582145.726634,-0.13421171079013053,-0.0,"[174.0, 185.0, 179.0, 155.0, 154.0, 154.0, 156.0, 181.0, 185.0, 174.0]",0.7974961400032043,-0.06710585206747055,0.0001220703125,0.04944801330566406,-27.932762145996094
1743582145.7296932,-0.13421171079013053,-0.0,"[174.0, 185.0, 179.0, 155.0, 154.0, 154.0, 156.0, 181.0, 185.0, 174.0]",0.7158463001251221,-0.06710585206747055,0.00018310546875,0.03521728515625,-27.934326171875
1743582145.7595992,-0.13421171079013053,-0.0,"[174.0, 185.0, 180.0, 156.0, 154.0, 154.0, 156.0, 181.0, 185.0, 174.0]",0.662379264831543,-0.06710585206747055,3.0517578125e-05,0.022518157958984375,-27.9305419921875
1743582145.7915018,-0.13421171079013053,-0.0,"[174.0, 185.0, 180.0, 156.0, 154.0, 154.0, 156.0, 181.0, 185.0, 174.0]",0.5956611633300781,-0.06710585206747055,-0.0001220703125,0.011400222778320312,-27.92626190185547
1743582145.7945476,-0.13421171079013053,-0.0,"[174.0, 185.0, 180.0, 156.0, 154.0, 154.0, 156.0, 181.0, 185.0, 174.0]",0.5164732933044434,-0.06710585206747055,-0.00030517578125,0.001865386962890625,-27.922286987304688
1743582145.8251028,-0.13421171079013053,-0.0,"[174.0, 185.0, 181.0, 156.0, 154.0, 154.0, 158.0, 181.0, 185.0, 174.0]",0.47041383385658264,-0.06710585206747055,-0.000518798828125,-0.006122589111328125,-27.917312622070312
1743582145.8283966,-0.13421171079013053,-0.0,"[174.0, 185.0, 181.0, 156.0, 154.0, 154.0, 158.0, 181.0, 185.0, 174.0]",0.41838887333869934,-0.06710585206747055,-0.00030517578125,-0.012632369995117188,-27.922576904296875
1743582145.862952,-0.13421171079013053,-0.0,"[174.0, 185.0, 181.0, 156.0, 154.0, 154.0, 158.0, 183.0, 185.0, 174.0]",0.2948031723499298,-0.06710585206747055,-0.00042724609375,-0.017751693725585938,-27.919647216796875
1743582145.8948634,-0.13421171079013053,-0.0,"[174.0, 185.0, 181.0, 156.0, 154.0, 154.0, 158.0, 183.0, 185.0, 174.0]",0.19947856664657593,-0.06710585206747055,-0.000396728515625,-0.021595001220703125,-27.920730590820312
1743582145.8985155,-0.13421171079013053,-0.0,"[174.0, 185.0, 181.0, 156.0, 154.0, 154.0, 158.0, 183.0, 185.0, 174.0]",0.24227236211299896,-0.06710585206747055,-0.00054931640625,-0.024278640747070312,-27.91668701171875
1743582145.9291327,-0.13421171079013053,-0.0,"[174.0, 185.0, 181.0, 156.0, 154.0, 154.0, 158.0, 183.0, 185.0, 174.0]",0.25163689255714417,-0.06710585206747055,-0.000762939453125,-0.025938034057617188,-27.91193389892578
1743582145.9332793,-0.13421171079013053,-0.0,"[174.0, 185.0, 181.0, 156.0, 154.0, 154.0, 158.0, 183.0, 185.0, 174.0]",0.11971857398748398,-0.06710585206747055,-0.00067138671875,-0.026699066162109375,-27.914207458496094
1743582145.9637463,-0.13421171079013053,-0.0,"[174.0, 185.0, 181.0, 156.0, 154.0, 154.0, 158.0, 183.0, 185.0, 174.0]",0.240075021982193,-0.06710585206747055,-0.000885009765625,-0.026699066162109375,-27.909400939941406
1743582145.9667978,-0.13421171079013053,-0.0,"[174.0, 185.0, 181.0, 156.0, 154.0, 154.0, 158.0, 183.0, 185.0, 174.0]",0.14132390916347504,-0.06710585206747055,-0.000762939453125,-0.02606201171875,-27.912155151367188
1743582145.9969387,-0.13421171079013053,-0.0,"[174.0, 185.0, 181.0, 156.0, 154.0, 154.0, 158.0, 183.0, 185.0, 174.0]",0.14901235699653625,-0.06710585206747055,-0.000885009765625,-0.024911880493164062,-27.909408569335938
1743582146.0281522,-0.13421171079013053,-0.0,"[174.0, 185.0, 181.0, 156.0, 154.0, 154.0, 158.0, 183.0, 185.0, 174.0]",0.14175496995449066,-0.06710585206747055,-0.00079345703125,-0.0233612060546875,-27.911781311035156
1743582146.0321004,-0.13421171079013053,-0.0,"[174.0, 185.0, 181.0, 156.0, 154.0, 154.0, 158.0, 183.0, 185.0, 174.0]",0.19332025945186615,-0.06710585206747055,-0.000946044921875,-0.021512985229492188,-27.90837860107422
1743582146.0654893,-0.13421171079013053,-0.0,"[174.0, 185.0, 181.0, 156.0, 154.0, 154.0, 156.0, 183.0, 185.0, 174.0]",0.17191608250141144,-0.06710585206747055,-0.001068115234375,-0.019464492797851562,-27.905616760253906
1743582146.096833,-0.13421171079013053,-0.0,"[174.0, 185.0, 181.0, 156.0, 154.0, 154.0, 156.0, 181.0, 185.0, 174.0]",0.13625334203243256,-0.06710585206747055,-0.001007080078125,-0.01729583740234375,-27.907272338867188
1743582146.1004596,-0.13421171079013053,-0.0,"[174.0, 185.0, 181.0, 156.0, 154.0, 154.0, 156.0, 181.0, 185.0, 174.0]",0.2257726788520813,-0.06710585206747055,-0.00115966796875,-0.015079498291015625,-27.903335571289062
1743582146.1307404,-0.13421171079013053,-0.0,"[174.0, 185.0, 180.0, 156.0, 154.0, 154.0, 156.0, 181.0, 185.0, 174.0]",0.15732428431510925,-0.06710585206747055,-0.00128173828125,-0.01287841796875,-27.901084899902344
1743582146.1339629,-0.13421171079013053,-0.0,"[174.0, 185.0, 180.0, 156.0, 154.0, 154.0, 156.0, 181.0, 185.0, 174.0]",0.21325668692588806,-0.06710585206747055,-0.001129150390625,-0.010740280151367188,-27.90477752685547
1743582146.1635842,-0.13421171079013053,-0.0,"[174.0, 185.0, 180.0, 156.0, 154.0, 154.0, 156.0, 181.0, 185.0, 174.0]",0.15496420860290527,-0.06710585206747055,-0.001007080078125,-0.008707046508789062,-27.907119750976562
1743582146.1671147,-0.13421171079013053,-0.0,"[174.0, 185.0, 180.0, 156.0, 154.0, 154.0, 156.0, 181.0, 185.0, 174.0]",0.19153137505054474,-0.06710585206747055,-0.00115966796875,-0.006809234619140625,-27.903785705566406
1743582146.196723,-0.13421171079013053,-0.0,"[174.0, 185.0, 180.0, 156.0, 154.0, 154.0, 156.0, 181.0, 185.0, 174.0]",0.11500678211450577,-0.06710585206747055,-0.001220703125,-0.005069732666015625,-27.90228271484375
1743582146.2269514,-0.13421171079013053,-0.0,"[174.0, 185.0, 180.0, 156.0, 154.0, 154.0, 156.0, 181.0, 185.0, 174.0]",0.1927567571401596,-0.06710585206747055,-0.001068115234375,-0.003505706787109375,-27.905807495117188
1743582146.2306082,-0.13421171079013053,-0.0,"[174.0, 185.0, 180.0, 156.0, 154.0, 154.0, 156.0, 181.0, 185.0, 174.0]",0.11974018812179565,-0.06710585206747055,-0.0009765625,-0.0021228790283203125,-27.907760620117188
1743582146.2632983,-0.13421171079013053,-0.0,"[174.0, 185.0, 180.0, 156.0, 154.0, 154.0, 156.0, 181.0, 185.0, 174.0]",0.19430266320705414,-0.06710585206747055,-0.001129150390625,-0.00092315673828125,-27.904067993164062
1743582146.2946613,-0.13421171079013053,-0.0,"[174.0, 185.0, 180.0, 156.0, 154.0, 154.0, 156.0, 181.0, 185.0, 174.0]",0.11605750769376755,-0.06710585206747055,-0.001220703125,9.1552734375e-05,-27.9019775390625
1743582146.298303,-0.13421171079013053,-0.0,"[174.0, 185.0, 180.0, 156.0, 154.0, 154.0, 156.0, 181.0, 185.0, 174.0]",0.18768760561943054,-0.06710585206747055,-0.001068115234375,0.0009307861328125,-27.9056396484375
1743582146.3287232,-0.13421171079013053,-0.0,"[174.0, 185.0, 180.0, 156.0, 154.0, 154.0, 156.0, 181.0, 185.0, 174.0]",0.11175983399152756,-0.06710585206747055,-0.0009765625,0.0016040802001953125,-27.90777587890625
1743582146.333213,-0.13421171079013053,-0.0,"[174.0, 185.0, 180.0, 156.0, 154.0, 154.0, 156.0, 181.0, 185.0, 174.0]",0.18567143380641937,-0.06710585206747055,-0.001129150390625,0.0021209716796875,-27.904090881347656
1743582146.3634622,-0.13421171079013053,-0.0,"[174.0, 185.0, 180.0, 156.0, 154.0, 154.0, 156.0, 181.0, 185.0, 174.0]",0.11201788485050201,-0.06710585206747055,-0.001220703125,0.0024967193603515625,-27.901878356933594
1743582146.3671858,-0.13421171079013053,-0.0,"[174.0, 185.0, 180.0, 156.0, 154.0, 154.0, 156.0, 181.0, 185.0, 174.0]",0.18484964966773987,-0.06710585206747055,-0.001068115234375,0.0027446746826171875,-27.90557098388672
1743582146.3986604,-0.13421171079013053,-0.0,"[174.0, 185.0, 180.0, 156.0, 154.0, 154.0, 156.0, 181.0, 185.0, 174.0]",0.11501146107912064,-0.06710585206747055,-0.0009765625,0.0028820037841796875,-27.907867431640625
1743582146.4296558,-0.13421171079013053,-0.0,"[174.0, 185.0, 180.0, 156.0, 154.0, 154.0, 156.0, 181.0, 185.0, 174.0]",0.1798921674489975,-0.06710585206747055,-0.001129150390625,0.0029239654541015625,-27.904266357421875
1743582146.4325187,-0.13421171079013053,-0.0,"[174.0, 185.0, 180.0, 156.0, 154.0, 154.0, 156.0, 181.0, 185.0, 174.0]",0.11715099215507507,-0.06710585206747055,-0.001220703125,0.0028839111328125,-27.90192413330078
1743582146.4657161,-0.13421171079013053,-0.0,"[174.0, 185.0, 180.0, 156.0, 154.0, 154.0, 156.0, 181.0, 185.0, 174.0]",0.17443734407424927,-0.06710585206747055,-0.0010986328125,0.0027790069580078125,-27.905418395996094
1743582146.4965594,-0.13421171079013053,-0.0,"[174.0, 185.0, 180.0, 156.0, 154.0, 154.0, 156.0, 181.0, 185.0, 174.0]",0.11285639554262161,-0.06710585206747055,-0.0009765625,0.0026187896728515625,-27.907669067382812
1743582146.5001762,-0.13421171079013053,-0.0,"[174.0, 185.0, 180.0, 156.0, 154.0, 154.0, 156.0, 181.0, 185.0, 174.0]",0.18897166848182678,-0.06710585206747055,-0.001129150390625,0.0024204254150390625,-27.903892517089844
1743582146.5320642,-0.13421171079013053,-0.0,"[174.0, 185.0, 180.0, 156.0, 154.0, 154.0, 156.0, 181.0, 185.0, 174.0]",0.12668144702911377,-0.06710585206747055,-0.001251220703125,0.0021915435791015625,-27.9013671875
1743582146.53538,-0.13421171079013053,-0.0,"[174.0, 185.0, 180.0, 156.0, 154.0, 154.0, 156.0, 181.0, 185.0, 174.0]",0.1387581080198288,-0.06710585206747055,-0.00115966796875,0.00194549560546875,-27.904136657714844
1743582146.5656502,-0.13421171079013053,-0.0,"[174.0, 185.0, 180.0, 156.0, 154.0, 154.0, 156.0, 181.0, 185.0, 174.0]",0.049388449639081955,-0.06710585206747055,-0.001190185546875,0.0016880035400390625,-27.903182983398438
1743582146.568911,-0.13421171079013053,-0.0,"[174.0, 185.0, 180.0, 156.0, 154.0, 154.0, 156.0, 181.0, 185.0, 174.0]",0.20135168731212616,-0.06710585206747055,-0.00103759765625,0.001430511474609375,-27.907203674316406
1743582146.598346,-0.13421171079013053,-0.0,"[174.0, 185.0, 180.0, 156.0, 154.0, 154.0, 156.0, 181.0, 185.0, 174.0]",0.0990300253033638,-0.06710585206747055,-0.000946044921875,0.0011768341064453125,-27.909164428710938
1743582146.6294596,-0.13421171079013053,-0.0,"[174.0, 185.0, 180.0, 156.0, 154.0, 154.0, 156.0, 181.0, 185.0, 174.0]",0.20341849327087402,-0.06710585206747055,-0.0010986328125,0.000934600830078125,-27.905105590820312
1743582146.63291,-0.13421171079013053,-0.0,"[174.0, 185.0, 180.0, 156.0, 154.0, 154.0, 156.0, 181.0, 185.0, 174.0]",0.08981205523014069,-0.06710585206747055,-0.001190185546875,0.000705718994140625,-27.9033203125
1743582146.6671228,-0.13421171079013053,-0.0,"[174.0, 185.0, 180.0, 156.0, 154.0, 154.0, 156.0, 181.0, 185.0, 174.0]",0.20698462426662445,-0.06710585206747055,-0.001007080078125,0.0004940032958984375,-27.907455444335938
1743582146.6705883,-0.13421171079013053,-0.0,"[174.0, 185.0, 180.0, 156.0, 154.0, 154.0, 156.0, 181.0, 185.0, 174.0]",0.07075346261262894,-0.06710585206747055,-0.000946044921875,0.000301361083984375,-27.908859252929688
1743582146.7015626,-0.13421171079013053,-0.0,"[174.0, 185.0, 180.0, 156.0, 154.0, 154.0, 156.0, 181.0, 185.0, 174.0]",0.17315252125263214,-0.06710585206747055,-0.0010986328125,0.0001277923583984375,-27.9053955078125
1743582146.7330706,-0.13421171079013053,-0.0,"[174.0, 185.0, 180.0, 156.0, 154.0, 154.0, 156.0, 181.0, 185.0, 174.0]",0.12022512406110764,-0.06710585206747055,-0.001190185546875,-2.09808349609375e-05,-27.902999877929688
1743582146.7374763,-0.13421171079013053,-0.0,"[174.0, 185.0, 180.0, 156.0, 154.0, 154.0, 156.0, 181.0, 185.0, 174.0]",0.16794328391551971,-0.06710585206747055,-0.001068115234375,-0.0001506805419921875,-27.906356811523438
1743582146.7692313,-0.13421171079013053,-0.0,"[174.0, 185.0, 180.0, 156.0, 154.0, 154.0, 156.0, 181.0, 185.0, 174.0]",0.10280279070138931,-0.06710585206747055,-0.0009765625,-0.0002593994140625,-27.908409118652344
1743582146.772251,-0.13421171079013053,-0.0,"[174.0, 185.0, 180.0, 156.0, 154.0, 154.0, 156.0, 181.0, 185.0, 174.0]",0.19492831826210022,-0.06710585206747055,-0.001129150390625,-0.000347137451171875,-27.904510498046875
1743582146.802496,-0.13421171079013053,-0.0,"[174.0, 185.0, 180.0, 156.0, 154.0, 154.0, 156.0, 181.0, 185.0, 174.0]",0.12255460768938065,-0.06710585206747055,-0.001251220703125,-0.0004177093505859375,-27.902053833007812
1743582146.8355346,-0.13421171079013053,-0.0,"[174.0, 185.0, 180.0, 156.0, 154.0, 154.0, 156.0, 181.0, 185.0, 174.0]",0.15641561150550842,-0.06710585206747055,-0.0010986328125,-0.000469207763671875,-27.905189514160156
1743582146.8392339,-0.13421171079013053,-0.0,"[174.0, 185.0, 180.0, 156.0, 154.0, 154.0, 156.0, 181.0, 185.0, 174.0]",0.04386965185403824,-0.06710585206747055,-0.001068115234375,-0.0005054473876953125,-27.90606689453125
1743582146.875739,-0.13421171079013053,-0.0,"[174.0, 185.0, 180.0, 156.0, 154.0, 154.0, 156.0, 181.0, 185.0, 174.0]",0.2069665491580963,-0.06710585206747055,-0.001251220703125,-0.0005283355712890625,-27.90192413330078
1743582146.8787365,-0.13421171079013053,-0.0,"[174.0, 185.0, 180.0, 156.0, 154.0, 154.0, 156.0, 181.0, 185.0, 174.0]",0.06772425025701523,-0.06710585206747055,-0.001312255859375,-0.0005397796630859375,-27.90056610107422
1743582146.9123447,-0.13421171079013053,-0.0,"[174.0, 185.0, 180.0, 156.0, 154.0, 154.0, 156.0, 181.0, 185.0, 174.0]",0.17254041135311127,-0.06710585206747055,-0.00115966796875,-0.0005397796630859375,-27.904022216796875
1743582146.915613,-0.13421171079013053,-0.0,"[174.0, 185.0, 180.0, 156.0, 154.0, 154.0, 156.0, 181.0, 185.0, 174.0]",0.11697006225585938,-0.06710585206747055,-0.001068115234375,-0.0005321502685546875,-27.90636444091797
1743582146.9457152,-0.13421171079013053,-0.0,"[174.0, 185.0, 180.0, 156.0, 154.0, 154.0, 156.0, 181.0, 185.0, 174.0]",0.18054929375648499,-0.06710585206747055,-0.001220703125,-0.0005168914794921875,-27.902748107910156
1743582146.9497416,-0.13421171079013053,-0.0,"[174.0, 185.0, 180.0, 156.0, 154.0, 154.0, 156.0, 181.0, 185.0, 174.0]",0.13179491460323334,-0.06710585206747055,-0.001312255859375,-0.00049591064453125,-27.900108337402344
1743582146.97917,-0.13421171079013053,-0.0,"[174.0, 185.0, 180.0, 156.0, 154.0, 154.0, 156.0, 181.0, 185.0, 174.0]",0.11056723445653915,-0.06710585206747055,-0.001251220703125,-0.0004711151123046875,-27.902320861816406
1743582147.0088174,-0.13421171079013053,-0.0,"[174.0, 185.0, 180.0, 156.0, 154.0, 154.0, 156.0, 181.0, 185.0, 174.0]",0.17780539393424988,-0.06710585206747055,-0.00140380859375,-0.0004425048828125,-27.898765563964844
1743582147.0123448,-0.13421171079013053,-0.0,"[174.0, 185.0, 180.0, 156.0, 154.0, 154.0, 156.0, 181.0, 185.0, 174.0]",0.12772305309772491,-0.06710585206747055,-0.00152587890625,-0.0004138946533203125,-27.896209716796875
1743582147.041932,-0.13421171079013053,-0.0,"[174.0, 185.0, 180.0, 156.0, 154.0, 154.0, 156.0, 181.0, 185.0, 174.0]",0.13154488801956177,-0.06710585206747055,-0.00140380859375,-0.0003833770751953125,-27.898841857910156
1743582147.0748332,-0.13421171079013053,-0.0,"[174.0, 185.0, 180.0, 156.0, 154.0, 154.0, 156.0, 181.0, 185.0, 174.0]",0.12895193696022034,-0.06710585206747055,-0.00152587890625,-0.000354766845703125,-27.896255493164062
1743582147.078036,-0.13421171079013053,-0.0,"[174.0, 185.0, 180.0, 156.0, 154.0, 154.0, 156.0, 181.0, 185.0, 174.0]",0.13987259566783905,-0.06710585206747055,-0.00140380859375,-0.0003261566162109375,-27.899063110351562
1743582147.1048222,-0.13421171079013053,-0.0,"[174.0, 185.0, 180.0, 156.0, 154.0, 154.0, 156.0, 181.0, 185.0, 174.0]",0.034439194947481155,-0.06710585206747055,-0.001434326171875,-0.00029754638671875,-27.89836883544922
1743582147.1078227,-0.13421171079013053,-0.0,"[174.0, 185.0, 180.0, 156.0, 154.0, 154.0, 156.0, 181.0, 185.0, 174.0]",0.2029469609260559,-0.06710585206747055,-0.00128173828125,-0.0002727508544921875,-27.902435302734375
1743582147.1347015,-0.13421171079013053,-0.0,"[174.0, 185.0, 180.0, 156.0, 154.0, 154.0, 156.0, 181.0, 185.0, 174.0]",0.08735686540603638,-0.06710585206747055,-0.001190185546875,-0.000247955322265625,-27.90418243408203
1743582147.159673,-0.13421171079013053,-0.0,"[174.0, 185.0, 180.0, 156.0, 154.0, 154.0, 156.0, 181.0, 185.0, 174.0]",0.20307783782482147,-0.06710585206747055,-0.001373291015625,-0.0002269744873046875,-27.900115966796875
1743582147.1624897,-0.13421171079013053,-0.0,"[174.0, 185.0, 180.0, 156.0, 154.0, 154.0, 156.0, 181.0, 185.0, 174.0]",0.08659248799085617,-0.06710585206747055,-0.001434326171875,-0.0002079010009765625,-27.89838409423828
1743582147.186083,-0.13421171079013053,-0.0,"[174.0, 185.0, 180.0, 156.0, 154.0, 154.0, 156.0, 181.0, 185.0, 174.0]",0.20193132758140564,-0.06710585206747055,-0.00128173828125,-0.0001926422119140625,-27.902427673339844
1743582147.2108703,-0.13421171079013053,-0.0,"[174.0, 185.0, 180.0, 156.0, 154.0, 154.0, 156.0, 181.0, 185.0, 174.0]",0.09238094091415405,-0.06710585206747055,-0.001190185546875,-0.0001773834228515625,-27.904273986816406
1743582147.235536,-0.13421171079013053,-0.0,"[174.0, 185.0, 180.0, 156.0, 154.0, 154.0, 156.0, 181.0, 185.0, 174.0]",0.20650553703308105,-0.06710585206747055,-0.001373291015625,-0.0001659393310546875,-27.900146484375
1743582147.2639086,-0.13421171079013053,-0.0,"[174.0, 185.0, 180.0, 156.0, 154.0, 154.0, 156.0, 181.0, 185.0, 174.0]",0.06858071684837341,-0.06710585206747055,-0.001434326171875,-0.000156402587890625,-27.898773193359375
1743582147.2682464,-0.13421171079013053,-0.0,"[174.0, 185.0, 180.0, 156.0, 154.0, 154.0, 156.0, 181.0, 185.0, 174.0]",0.17271287739276886,-0.06710585206747055,-0.00128173828125,-0.0001506805419921875,-27.90222930908203
1743582147.2940338,-0.13421171079013053,-0.0,"[174.0, 185.0, 180.0, 156.0, 154.0, 154.0, 156.0, 181.0, 185.0, 174.0]",0.11592915654182434,-0.06710585206747055,-0.001190185546875,-0.00014495849609375,-27.90454864501953
1743582147.319365,-0.13421171079013053,-0.0,"[174.0, 185.0, 180.0, 156.0, 154.0, 154.0, 156.0, 181.0, 185.0, 174.0]",0.1838502287864685,-0.06710585206747055,-0.0013427734375,-0.000141143798828125,-27.900863647460938
1743582147.32288,-0.13421171079013053,-0.0,"[174.0, 185.0, 180.0, 156.0, 154.0, 154.0, 156.0, 181.0, 185.0, 174.0]",0.1325400471687317,-0.06710585206747055,-0.00146484375,-0.0001392364501953125,-27.898216247558594
1743582147.348574,-0.13421171079013053,-0.0,"[174.0, 185.0, 180.0, 156.0, 154.0, 154.0, 156.0, 181.0, 185.0, 174.0]",0.10506722331047058,-0.06710585206747055,-0.001373291015625,-0.0001373291015625,-27.900314331054688
1743582147.3727043,-0.13421171079013053,-0.0,"[174.0, 185.0, 180.0, 156.0, 154.0, 154.0, 156.0, 181.0, 185.0, 174.0]",0.1903063952922821,-0.06710585206747055,-0.00152587890625,-0.0001392364501953125,-27.896507263183594
1743582147.3969889,-0.13421171079013053,-0.0,"[174.0, 185.0, 180.0, 156.0, 154.0, 154.0, 156.0, 181.0, 185.0, 174.0]",0.1293340027332306,-0.06710585206747055,-0.00164794921875,-0.0001392364501953125,-27.8939208984375
1743582147.4222202,-0.13421171079013053,-0.0,"[174.0, 185.0, 180.0, 156.0, 154.0, 154.0, 156.0, 181.0, 185.0, 174.0]",0.12465780228376389,-0.06710585206747055,-0.001556396484375,-0.000141143798828125,-27.89641571044922
1743582147.4250708,-0.13421171079013053,-0.0,"[174.0, 185.0, 180.0, 156.0, 154.0, 154.0, 156.0, 181.0, 185.0, 174.0]",0.1957578808069229,-0.06710585206747055,-0.001739501953125,-0.00014495849609375,-27.892494201660156
1743582147.4510345,-0.13421171079013053,-0.0,"[174.0, 185.0, 180.0, 156.0, 154.0, 154.0, 156.0, 181.0, 185.0, 174.0]",0.11751939356327057,-0.06710585206747055,-0.0018310546875,-0.0001468658447265625,-27.89014434814453
1743582147.4597208,-0.13421171079013053,-0.0,"[174.0, 185.0, 180.0, 156.0, 154.0, 154.0, 156.0, 181.0, 185.0, 174.0]",0.17980526387691498,-0.06710585206747055,-0.001678466796875,-0.0001506805419921875,-27.89374542236328
1743582147.466657,-0.13421171079013053,-0.0,"[174.0, 185.0, 180.0, 156.0, 154.0, 154.0, 156.0, 181.0, 185.0, 174.0]",0.12987002730369568,-0.06710585206747055,-0.001556396484375,-0.0001544952392578125,-27.896347045898438
1743582147.4798124,-0.13421171079013053,-0.0,"[174.0, 185.0, 180.0, 156.0, 154.0, 154.0, 156.0, 181.0, 185.0, 174.0]",0.12081359326839447,-0.06710585206747055,-0.00164794921875,-0.000156402587890625,-27.8939208984375
1743582147.5000384,-0.13421171079013053,-0.0,"[174.0, 185.0, 180.0, 156.0, 154.0, 154.0, 156.0, 181.0, 185.0, 174.0]",0.19944369792938232,-0.06710585206747055,-0.001495361328125,-0.00016021728515625,-27.897918701171875
1743582147.520821,-0.13421171079013053,-0.0,"[174.0, 185.0, 180.0, 156.0, 154.0, 154.0, 156.0, 181.0, 185.0, 174.0]",0.1038762554526329,-0.06710585206747055,-0.00140380859375,-0.000164031982421875,-27.899993896484375
1743582147.5414417,-0.13421171079013053,-0.0,"[174.0, 185.0, 180.0, 156.0, 154.0, 154.0, 156.0, 181.0, 185.0, 174.0]",0.1922609806060791,-0.06710585206747055,-0.001556396484375,-0.0001659393310546875,-27.896148681640625
1743582147.561166,-0.13421171079013053,-0.0,"[174.0, 185.0, 180.0, 156.0, 154.0, 154.0, 156.0, 181.0, 185.0, 174.0]",0.1256784349679947,-0.06710585206747055,-0.001678466796875,-0.0001697540283203125,-27.893630981445312
1743582147.5803938,-0.13421171079013053,-0.0,"[174.0, 185.0, 180.0, 156.0, 154.0, 154.0, 156.0, 181.0, 185.0, 174.0]",0.14162319898605347,-0.06710585206747055,-0.001556396484375,-0.000171661376953125,-27.896469116210938
1743582147.6010494,-0.13421171079013053,-0.0,"[174.0, 185.0, 180.0, 156.0, 154.0, 154.0, 156.0, 181.0, 185.0, 174.0]",0.022519098594784737,-0.06710585206747055,-0.0015869140625,-0.00017547607421875,-27.896011352539062
1743582147.6241572,-0.13421171079013053,-0.0,"[174.0, 185.0, 180.0, 156.0, 154.0, 154.0, 156.0, 181.0, 185.0, 174.0]",0.1916799396276474,-0.06710585206747055,-0.00140380859375,-0.0001773834228515625,-27.899856567382812
1743582147.6398418,0.0,-0.0,"[174.0, 185.0, 180.0, 156.0, 154.0, 154.0, 156.0, 181.0, 185.0, 174.0]",0.12712343037128448,-0.06710585206747055,-0.001312255859375,-0.000179290771484375,-27.90239715576172
1743582147.6601799,0.0,-0.0,"[174.0, 185.0, 180.0, 156.0, 154.0, 154.0, 156.0, 181.0, 185.0, 174.0]",0.14310017228126526,0.0,-0.00128173828125,-0.000179290771484375,-27.8995361328125
1743582147.68011,0.0,0.25244745511065747,"[174.0, 185.0, 180.0, 156.0, 154.0, 154.0, 156.0, 181.0, 185.0, 174.0]",0.009270479902625084,0.0,-0.00128173828125,-0.0001811981201171875,-27.89971923828125
1743582147.7008245,0.0,0.6369878903168933,"[174.0, 185.0, 180.0, 156.0, 154.0, 154.0, 156.0, 181.0, 185.0, 174.0]",0.07358910888433456,0.0,-0.00128173828125,-0.00018310546875,-27.89824676513672
1743582147.7202518,0.0,1.038602514731128,"[174.0, 185.0, 180.0, 156.0, 154.0, 154.0, 156.0, 181.0, 185.0, 174.0]",0.18827442824840546,0.0,-0.002777099609375,-0.00018310546875,-27.901702880859375
1743582147.7395794,0.0,1.038602514731128,"[174.0, 185.0, 180.0, 156.0, 154.0, 154.0, 156.0, 181.0, 185.0, 174.0]",0.22068628668785095,0.0,-0.00689697265625,-0.00018310546875,-27.900100708007812
1743582147.7589865,0.0,1.038602514731128,"[174.0, 185.0, 180.0, 156.0, 154.0, 154.0, 156.0, 181.0, 185.0, 174.0]",0.355876624584198,0.0,-0.013946533203125,-0.0001850128173828125,-27.90117645263672
1743582147.7805183,0.0,1.038602514731128,"[174.0, 185.0, 180.0, 156.0, 154.0, 154.0, 156.0, 181.0, 185.0, 174.0]",0.4571991562843323,0.0,-0.023040771484375,-0.0001850128173828125,-27.900474548339844
1743582147.8013105,0.0,1.0371178026260846,"[174.0, 185.0, 180.0, 156.0, 154.0, 154.0, 156.0, 181.0, 185.0, 174.0]",0.6289598941802979,0.0,-0.035614013671875,-0.0001850128173828125,-27.900497436523438
1743582147.8261583,0.0,1.0371178026260846,"[174.0, 185.0, 180.0, 156.0, 154.0, 154.0, 156.0, 181.0, 185.0, 174.0]",0.7406805753707886,0.0,-0.050445556640625,-0.0001850128173828125,-27.90050506591797
1743582147.840911,0.0,1.0371178026260846,"[174.0, 185.0, 180.0, 156.0, 154.0, 154.0, 156.0, 181.0, 185.0, 174.0]",0.8876182436943054,0.0,-0.068206787109375,-0.0001850128173828125,-27.90052032470703
1743582147.8602188,0.0,1.0356330905210411,"[174.0, 185.0, 180.0, 156.0, 154.0, 154.0, 156.0, 181.0, 185.0, 174.0]",0.9892435669898987,0.0,-0.087982177734375,-0.0001850128173828125,-27.900535583496094
1743582147.8805676,0.0,1.0356330905210411,"[174.0, 185.0, 180.0, 156.0, 154.0, 154.0, 156.0, 181.0, 185.0, 174.0]",1.1186060905456543,0.0,-0.1103515625,-0.0001850128173828125,-27.900550842285156
1743582147.9002035,0.0,1.0356330905210411,"[174.0, 185.0, 180.0, 156.0, 154.0, 154.0, 156.0, 181.0, 185.0, 174.0]",1.3048232793807983,0.0,-0.136444091796875,-0.00018310546875,-27.90057373046875
1743582147.9195988,0.0,1.0356330905210411,"[174.0, 185.0, 180.0, 156.0, 154.0, 154.0, 156.0, 181.0, 185.0, 174.0]",1.4249869585037231,0.0,-0.164947509765625,-0.00018310546875,-27.900588989257812
1743582147.9403782,0.0,1.0356330905210411,"[174.0, 185.0, 180.0, 156.0, 154.0, 154.0, 156.0, 181.0, 185.0, 174.0]",1.5298553705215454,0.0,-0.195556640625,-0.00018310546875,-27.900596618652344
1743582147.9594374,0.0,1.0356330905210411,"[174.0, 185.0, 180.0, 156.0, 154.0, 154.0, 156.0, 181.0, 185.0, 174.0]",1.674700140953064,0.0,-0.229034423828125,-0.00018310546875,-27.90062713623047
1743582147.9805,0.0,1.0356330905210411,"[174.0, 185.0, 180.0, 156.0, 154.0, 154.0, 156.0, 181.0, 185.0, 174.0]",1.8156886100769043,0.0,-0.265350341796875,-0.00018310546875,-27.900657653808594
1743582148.000559,0.0,1.0356330905210411,"[174.0, 185.0, 180.0, 156.0, 154.0, 154.0, 156.0, 181.0, 185.0, 174.0]",1.9402321577072144,0.0,-0.304168701171875,-0.00018310546875,-27.90069580078125
1743582148.0225077,0.0,1.0356330905210411,"[174.0, 185.0, 180.0, 156.0, 154.0, 154.0, 156.0, 181.0, 185.0, 174.0]",2.092783212661743,0.0,-0.34600830078125,-0.00018310546875,-27.900733947753906
1743582148.0399535,0.0,1.0356330905210411,"[174.0, 185.0, 180.0, 156.0, 154.0, 154.0, 156.0, 181.0, 185.0, 174.0]",2.247835397720337,0.0,-0.390960693359375,-0.0001811981201171875,-27.900779724121094
1743582148.0604515,0.0,1.0356330905210411,"[174.0, 185.0, 180.0, 156.0, 154.0, 154.0, 156.0, 181.0, 185.0, 174.0]",2.3513684272766113,0.0,-0.43798828125,-0.0001811981201171875,-27.900840759277344
1743582148.0795014,0.0,1.0356330905210411,"[174.0, 185.0, 180.0, 156.0, 154.0, 154.0, 156.0, 181.0, 185.0, 174.0]",2.4924051761627197,0.0,-0.48785400390625,-0.0001811981201171875,-27.900901794433594
1743582148.101037,0.0,1.0356330905210411,"[174.0, 185.0, 180.0, 156.0, 154.0, 154.0, 156.0, 181.0, 185.0, 174.0]",2.609571933746338,0.0,-0.5400390625,-0.0001811981201171875,-27.900962829589844
1743582148.1199985,0.0,1.0356330905210411,"[174.0, 185.0, 180.0, 156.0, 154.0, 154.0, 156.0, 181.0, 185.0, 174.0]",2.795907974243164,0.0,-0.595947265625,-0.0001811981201171875,-27.901031494140625
1743582148.140661,0.0,1.0356330905210411,"[174.0, 185.0, 180.0, 156.0, 154.0, 154.0, 156.0, 181.0, 185.0, 174.0]",2.9193003177642822,0.0,-0.654327392578125,-0.0001811981201171875,-27.901100158691406
1743582148.1600885,0.0,1.0356330905210411,"[174.0, 185.0, 180.0, 156.0, 154.0, 154.0, 156.0, 181.0, 185.0, 174.0]",3.0556774139404297,0.0,-0.7154541015625,-0.0001811981201171875,-27.90117645263672
1743582148.1799912,0.0,1.0356330905210411,"[174.0, 185.0, 180.0, 156.0, 154.0, 154.0, 156.0, 181.0, 185.0, 174.0]",3.167936325073242,0.0,-0.77880859375,-0.0001811981201171875,-27.901260375976562
1743582148.1999786,0.0,1.0356330905210411,"[174.0, 185.0, 180.0, 156.0, 154.0, 154.0, 156.0, 181.0, 185.0, 174.0]",3.279604196548462,0.0,-0.844390869140625,-0.0001811981201171875,-27.90135955810547
1743582148.2215338,0.0,1.0356330905210411,"[174.0, 185.0, 180.0, 156.0, 154.0, 154.0, 156.0, 181.0, 185.0, 174.0]",3.390190362930298,0.0,-0.912200927734375,-0.0001811981201171875,-27.901473999023438
1743582148.2405825,0.0,1.0356330905210411,"[174.0, 185.0, 180.0, 156.0, 154.0, 154.0, 156.0, 181.0, 185.0, 174.0]",3.543138027191162,0.0,-0.983062744140625,-0.0001811981201171875,-27.901596069335938
1743582148.2607398,0.0,1.0356330905210411,"[174.0, 185.0, 180.0, 156.0, 154.0, 154.0, 156.0, 181.0, 185.0, 174.0]",3.68843674659729,0.0,-1.05682373046875,-0.0001811981201171875,-27.90172576904297
1743582148.2805433,0.0,1.0356330905210411,"[174.0, 185.0, 180.0, 156.0, 154.0, 154.0, 156.0, 181.0, 185.0, 174.0]",3.812270402908325,0.0,-1.133087158203125,-0.0001811981201171875,-27.90185546875
1743582148.3003132,0.0,1.0356330905210411,"[174.0, 185.0, 180.0, 156.0, 154.0, 154.0, 156.0, 181.0, 185.0, 174.0]",3.9442052841186523,0.0,-1.21197509765625,-0.0001811981201171875,-27.901992797851562
1743582148.3215191,0.0,1.0356330905210411,"[174.0, 185.0, 180.0, 156.0, 154.0, 154.0, 156.0, 181.0, 185.0, 174.0]",4.062088489532471,0.0,-1.293212890625,-0.0001811981201171875,-27.902130126953125
1743582148.3401368,0.0,1.0356330905210411,"[174.0, 185.0, 180.0, 156.0, 154.0, 154.0, 156.0, 181.0, 185.0, 174.0]",4.214308261871338,0.0,-1.37750244140625,-0.0001811981201171875,-27.902267456054688
1743582148.3606448,0.0,1.0356330905210411,"[174.0, 185.0, 180.0, 156.0, 154.0, 154.0, 156.0, 181.0, 185.0, 174.0]",4.328057289123535,0.0,-1.46405029296875,-0.0001811981201171875,-27.90240478515625
1743582148.3797843,0.0,1.0356330905210411,"[174.0, 185.0, 180.0, 156.0, 154.0, 154.0, 156.0, 181.0, 185.0, 174.0]",4.461086750030518,0.0,-1.55328369140625,-0.0001811981201171875,-27.902549743652344
1743582148.401046,0.0,1.0356330905210411,"[174.0, 185.0, 180.0, 156.0, 154.0, 154.0, 156.0, 181.0, 185.0, 174.0]",4.597167015075684,0.0,-1.645233154296875,-0.0001811981201171875,-27.902694702148438
1743582148.4229734,0.0,1.0356330905210411,"[174.0, 185.0, 180.0, 156.0, 154.0, 154.0, 156.0, 181.0, 185.0, 174.0]",4.726040363311768,0.0,-1.73974609375,-0.0001811981201171875,-27.902847290039062
1743582148.4415345,0.0,1.0356330905210411,"[174.0, 185.0, 180.0, 156.0, 154.0, 154.0, 156.0, 181.0, 185.0, 174.0]",4.850364685058594,0.0,-1.836761474609375,-0.0001811981201171875,-27.902999877929688
1743582148.4606957,0.0,1.0356330905210411,"[174.0, 185.0, 180.0, 156.0, 154.0, 154.0, 156.0, 181.0, 185.0, 174.0]",4.9878830909729,0.0,-1.936492919921875,-0.0001811981201171875,-27.903152465820312
1743582148.4805276,0.0,1.0356330905210411,"[174.0, 185.0, 180.0, 156.0, 154.0, 154.0, 156.0, 181.0, 185.0, 174.0]",5.123749256134033,0.0,-2.038970947265625,-0.0001811981201171875,-27.9033203125
1743582148.4997008,0.0,1.0356330905210411,"[174.0, 185.0, 180.0, 156.0, 154.0, 154.0, 156.0, 181.0, 185.0, 174.0]",5.2252726554870605,0.0,-2.14349365234375,0.000156402587890625,-27.903488159179688
1743582148.520456,0.0,1.0356330905210411,"[174.0, 185.0, 180.0, 156.0, 154.0, 154.0, 156.0, 181.0, 185.0, 174.0]",5.298406600952148,0.0,-2.24945068359375,0.0004425048828125,-27.903671264648438
1743582148.5400212,0.0,1.0356330905210411,"[174.0, 185.0, 180.0, 156.0, 154.0, 154.0, 156.0, 181.0, 185.0, 174.0]",5.242637634277344,0.0,-2.35430908203125,0.0006809234619140625,-27.90380859375
1743582148.5609539,0.0,1.0356330905210411,"[174.0, 185.0, 180.0, 156.0, 154.0, 154.0, 156.0, 181.0, 185.0, 174.0]",5.522947788238525,0.0,-2.464752197265625,0.0008716583251953125,-27.90393829345703
1743582148.5799437,0.0,1.0356330905210411,"[174.0, 185.0, 180.0, 156.0, 154.0, 154.0, 156.0, 181.0, 185.0, 174.0]",5.653609752655029,0.0,-2.577850341796875,0.001018524169921875,-27.904129028320312
1743582148.6007392,0.0,1.0356330905210411,"[174.0, 185.0, 181.0, 156.0, 154.0, 154.0, 156.0, 181.0, 185.0, 174.0]",5.616367340087891,0.0,-2.690155029296875,0.0011272430419921875,-27.90387725830078
1743582148.6227024,0.0,1.0356330905210411,"[174.0, 185.0, 180.0, 156.0, 154.0, 154.0, 156.0, 181.0, 185.0, 174.0]",5.886736869812012,0.0,-2.807891845703125,0.0011997222900390625,-27.905059814453125
1743582148.640726,0.0,1.033777200389737,"[174.0, 185.0, 181.0, 156.0, 154.0, 154.0, 156.0, 181.0, 185.0, 174.0]",6.048067569732666,0.0,-2.9288330078125,0.001239776611328125,-27.903541564941406
1743582148.6599646,0.0,1.033777200389737,"[174.0, 185.0, 179.0, 155.0, 154.0, 155.0, 158.0, 181.0, 185.0, 174.0]",6.216418266296387,0.0,-3.053131103515625,0.001255035400390625,-27.906600952148438
1743582148.6805038,0.0,1.033777200389737,"[174.0, 185.0, 181.0, 156.0, 154.0, 154.0, 156.0, 181.0, 185.0, 174.0]",6.412815570831299,0.0,-3.181396484375,0.001247406005859375,-27.90540313720703
1743582148.6998687,0.0,1.033777200389737,"[174.0, 185.0, 180.0, 156.0, 154.0, 155.0, 158.0, 181.0, 185.0, 174.0]",6.398659706115723,0.0,-3.309326171875,0.0012226104736328125,-27.907516479492188
1743582148.7193956,0.0,1.0321996937781284,"[174.0, 185.0, 181.0, 156.0, 154.0, 154.0, 156.0, 181.0, 185.0, 174.0]",6.732375621795654,0.0,-3.443939208984375,0.00118255615234375,-27.904441833496094
1743582148.739375,0.0,1.0306685844198022,"[174.0, 185.0, 179.0, 156.0, 154.0, 155.0, 158.0, 181.0, 185.0, 174.0]",6.630353927612305,0.0,-3.5765380859375,0.001132965087890625,-27.907241821289062
1743582148.7604136,0.0,1.0283951190089546,"[174.0, 185.0, 181.0, 156.0, 154.0, 154.0, 156.0, 181.0, 185.0, 174.0]",6.781606197357178,0.0,-3.712127685546875,0.00107574462890625,-27.90386962890625
1743582148.7803385,0.0,1.0264928316243678,"[174.0, 185.0, 180.0, 156.0, 154.0, 155.0, 158.0, 181.0, 185.0, 174.0]",6.9036993980407715,0.0,-3.85015869140625,0.00101470947265625,-27.906761169433594
1743582148.8005984,0.0,1.0249153250127592,"[174.0, 185.0, 181.0, 156.0, 154.0, 154.0, 156.0, 181.0, 185.0, 174.0]",6.9393534660339355,0.0,-3.988922119140625,0.0009517669677734375,-27.90367889404297
1743582148.8251877,0.0,1.0249153250127592,"[174.0, 185.0, 180.0, 156.0, 154.0, 154.0, 156.0, 181.0, 185.0, 174.0]",7.067946434020996,0.0,-4.130218505859375,0.000888824462890625,-27.907440185546875
1743582148.840166,0.0,1.0231522293880202,"[174.0, 185.0, 181.0, 156.0, 154.0, 154.0, 156.0, 181.0, 185.0, 174.0]",7.236929893493652,0.0,-4.274932861328125,0.000827789306640625,-27.90435791015625
1743582148.8599944,0.0,1.0231522293880202,"[174.0, 185.0, 180.0, 156.0, 154.0, 154.0, 156.0, 181.0, 185.0, 174.0]",7.40104866027832,0.0,-4.42291259765625,0.00077056884765625,-27.90753173828125
1743582148.8800516,0.0,1.0231522293880202,"[174.0, 185.0, 180.0, 156.0, 154.0, 154.0, 156.0, 181.0, 185.0, 174.0]",7.577653884887695,0.0,-4.574462890625,0.0007171630859375,-27.905845642089844
1743582148.9009132,0.0,1.0231522293880202,"[174.0, 185.0, 180.0, 156.0, 154.0, 154.0, 156.0, 181.0, 185.0, 174.0]",7.530001163482666,0.0,-4.725067138671875,0.0006694793701171875,-27.906768798828125
1743582148.9206674,0.0,1.0214819282698464,"[174.0, 185.0, 181.0, 156.0, 154.0, 154.0, 156.0, 181.0, 185.0, 174.0]",7.680522441864014,0.0,-4.878662109375,0.0006275177001953125,-27.90666961669922
1743582148.9407654,0.0,1.0214819282698464,"[174.0, 185.0, 180.0, 156.0, 154.0, 154.0, 156.0, 181.0, 185.0, 174.0]",7.8234453201293945,0.0,-5.035125732421875,0.000591278076171875,-27.907257080078125
1743582148.9605448,0.0,1.0214819282698464,"[174.0, 185.0, 181.0, 156.0, 154.0, 154.0, 156.0, 181.0, 185.0, 174.0]",8.149432182312012,0.0,-5.1981201171875,0.000560760498046875,-27.90715789794922
1743582148.9804304,0.0,1.0214819282698464,"[174.0, 185.0, 180.0, 156.0, 154.0, 154.0, 156.0, 181.0, 185.0, 174.0]",8.168869018554688,0.0,-5.36151123046875,0.0005340576171875,-27.907623291015625
1743582149.00042,0.0,1.0214819282698464,"[174.0, 185.0, 180.0, 156.0, 154.0, 154.0, 156.0, 181.0, 185.0, 174.0]",8.153938293457031,0.0,-5.524566650390625,0.000514984130859375,-27.907684326171875
1743582149.023562,0.0,1.0214819282698464,"[174.0, 185.0, 181.0, 156.0, 154.0, 154.0, 156.0, 181.0, 185.0, 174.0]",8.343954086303711,0.0,-5.69146728515625,0.0004978179931640625,-27.907943725585938
1743582149.0417037,0.0,1.0214819282698464,"[174.0, 185.0, 180.0, 156.0, 154.0, 154.0, 156.0, 181.0, 185.0, 174.0]",8.5276517868042,0.0,-5.86199951171875,0.00048828125,-27.90833282470703
1743582149.059477,0.0,1.0214819282698464,"[174.0, 185.0, 181.0, 156.0, 154.0, 154.0, 156.0, 181.0, 185.0, 174.0]",8.727373123168945,0.0,-6.03656005859375,0.00048065185546875,-27.908355712890625
1743582149.079602,0.0,1.0214819282698464,"[174.0, 185.0, 180.0, 156.0, 154.0, 154.0, 156.0, 181.0, 185.0, 174.0]",8.57973575592041,0.0,-6.208160400390625,0.000476837158203125,-27.909019470214844
1743582149.101314,0.0,1.0214819282698464,"[174.0, 185.0, 181.0, 156.0, 154.0, 154.0, 156.0, 181.0, 185.0, 174.0]",8.90558910369873,0.0,-6.386260986328125,0.0004749298095703125,-27.90898895263672
1743582149.120573,0.0,1.0214819282698464,"[174.0, 185.0, 180.0, 156.0, 154.0, 154.0, 156.0, 181.0, 185.0, 174.0]",8.87218189239502,0.0,-6.563720703125,0.000476837158203125,-27.90937042236328
1743582149.13989,0.0,1.0214819282698464,"[174.0, 185.0, 180.0, 156.0, 154.0, 154.0, 156.0, 181.0, 185.0, 174.0]",9.057916641235352,0.0,-6.744873046875,0.00048065185546875,-27.909576416015625
1743582149.161203,0.0,1.0214819282698464,"[174.0, 185.0, 181.0, 156.0, 154.0, 154.0, 156.0, 181.0, 185.0, 174.0]",9.234389305114746,0.0,-6.9295654296875,0.000484466552734375,-27.90960693359375
1743582149.1798058,0.0,1.0214819282698464,"[174.0, 185.0, 181.0, 156.0, 154.0, 154.0, 156.0, 181.0, 185.0, 174.0]",9.467716217041016,0.0,-7.118896484375,0.0004901885986328125,-27.909950256347656
1743582149.2005494,0.0,1.0214819282698464,"[174.0, 185.0, 180.0, 156.0, 154.0, 154.0, 156.0, 181.0, 185.0, 174.0]",9.418524742126465,0.0,-7.307281494140625,0.0004978179931640625,-27.910240173339844
1743582149.2247372,0.0,1.0214819282698464,"[174.0, 185.0, 181.0, 156.0, 154.0, 154.0, 156.0, 181.0, 185.0, 174.0]",9.599510192871094,0.0,-7.499267578125,0.0005035400390625,-27.91033172607422
1743582149.2408476,0.0,1.0214819282698464,"[174.0, 185.0, 181.0, 156.0, 154.0, 154.0, 156.0, 181.0, 185.0, 174.0]",9.595902442932129,0.0,-7.691192626953125,0.00051116943359375,-27.910797119140625
1743582149.2598884,0.0,1.0214819282698464,"[174.0, 185.0, 181.0, 156.0, 154.0, 154.0, 156.0, 181.0, 185.0, 174.0]",9.88369369506836,0.0,-7.88885498046875,0.000518798828125,-27.911209106445312
1743582149.2800114,0.0,1.023198626641303,"[174.0, 185.0, 180.0, 156.0, 154.0, 154.0, 156.0, 181.0, 185.0, 174.0]",9.83310604095459,0.0,-8.08551025390625,0.0005245208740234375,-27.911598205566406
1743582149.3004413,0.0,1.0301582146336936,"[174.0, 185.0, 180.0, 156.0, 154.0, 154.0, 156.0, 181.0, 185.0, 174.0]",10.190564155578613,0.0,-8.289337158203125,0.0005321502685546875,-27.911712646484375
1743582149.3216794,0.0,1.0359114740407367,"[174.0, 185.0, 181.0, 156.0, 154.0, 154.0, 156.0, 181.0, 185.0, 174.0]",10.034494400024414,0.0,-8.490020751953125,0.000537872314453125,-27.911842346191406
1743582149.3403542,0.0,1.0359114740407367,"[174.0, 185.0, 181.0, 156.0, 154.0, 154.0, 156.0, 181.0, 185.0, 174.0]",10.402335166931152,0.0,-8.69805908203125,0.00054168701171875,-27.91229248046875
1743582149.3611393,0.0,1.038834500997541,"[174.0, 185.0, 180.0, 156.0, 154.0, 154.0, 156.0, 181.0, 185.0, 174.0]",10.268195152282715,0.0,-8.9034423828125,0.0005474090576171875,-27.912696838378906
1743582149.380362,0.0,1.038834500997541,"[174.0, 185.0, 180.0, 156.0, 154.0, 154.0, 156.0, 181.0, 185.0, 174.0]",10.6255521774292,0.0,-9.115936279296875,0.0005512237548828125,-27.912857055664062
1743582149.3997474,0.0,1.0328028580708022,"[174.0, 185.0, 181.0, 156.0, 154.0, 154.0, 156.0, 181.0, 185.0, 174.0]",10.536012649536133,0.0,-9.32666015625,0.0005550384521484375,-27.913002014160156
1743582149.4226444,0.1611084814320754,1.0229202431216071,"[174.0, 185.0, 181.0, 156.0, 154.0, 154.0, 156.0, 181.0, 185.0, 174.0]",10.624251365661621,0.0,-9.539154052734375,0.00055694580078125,-27.913803100585938
1743582149.4429536,0.18451740608459916,1.0166566139284554,"[174.0, 185.0, 180.0, 156.0, 154.0, 154.0, 156.0, 181.0, 185.0, 174.0]",10.955875396728516,0.08055423945188522,-9.7581787109375,0.0005588531494140625,-27.90752410888672
1743582149.461162,0.23271225095744222,1.008351505590869,"[174.0, 185.0, 179.0, 155.0, 154.0, 155.0, 158.0, 183.0, 185.0, 174.0]",11.118407249450684,0.09225870668888092,-9.98040771484375,0.000560760498046875,-27.90020751953125
1743582149.4805489,0.3545763587073454,0.9764301953324364,"[174.0, 185.0, 179.0, 155.0, 153.0, 155.0, 158.0, 183.0, 185.0, 174.0]",11.143310546875,0.11635611951351166,-10.203033447265625,0.0005626678466796875,-27.889617919921875
1743582149.4995346,0.3562976031670898,0.9678003062218716,"[174.0, 185.0, 178.0, 154.0, 153.0, 156.0, 159.0, 184.0, 185.0, 174.0]",11.113327980041504,0.17728817462921143,-10.4246826171875,0.0005626678466796875,-27.87310791015625
1743582149.5210288,0.3562976031670898,0.9678003062218716,"[174.0, 185.0, 178.0, 154.0, 153.0, 156.0, 159.0, 184.0, 185.0, 174.0]",11.275834083557129,0.1781488060951233,-10.6494140625,0.0005645751953125,-27.854095458984375
1743582149.5404012,0.3562976031670898,0.9639029369461328,"[174.0, 185.0, 176.0, 153.0, 152.0, 157.0, 160.0, 185.0, 185.0, 174.0]",11.457555770874023,0.1781488060951233,-10.87762451171875,0.0005645751953125,-27.833526611328125
1743582149.5594187,0.3562976031670898,0.9639029369461328,"[174.0, 185.0, 176.0, 153.0, 151.0, 157.0, 160.0, 186.0, 185.0, 174.0]",11.50819206237793,0.1781488060951233,-11.106719970703125,0.0005626678466796875,-27.811325073242188
1743582149.5798674,0.2643831490167391,0.988122303159653,"[174.0, 185.0, 175.0, 152.0, 151.0, 158.0, 161.0, 187.0, 185.0, 174.0]",11.691407203674316,0.1781488060951233,-11.339202880859375,0.0005626678466796875,-27.78636932373047
1743582149.6001198,0.0,1.0046397253282606,"[174.0, 185.0, 175.0, 152.0, 150.0, 159.0, 161.0, 187.0, 185.0, 174.0]",11.880179405212402,0.13219156861305237,-11.575653076171875,0.0005626678466796875,-27.762924194335938
1743582149.6226535,0.0,1.0046397253282606,"[174.0, 185.0, 175.0, 152.0, 150.0, 159.0, 161.0, 187.0, 185.0, 174.0]",11.691279411315918,0.0,-11.80908203125,0.0005626678466796875,-27.749435424804688
1743582149.6424894,0.0,1.0046397253282606,"[174.0, 185.0, 175.0, 152.0, 150.0, 159.0, 161.0, 187.0, 185.0, 174.0]",12.052459716796875,0.0,-12.049713134765625,0.000560760498046875,-27.735023498535156
1743582149.6605768,0.0,1.0031086159699345,"[174.0, 185.0, 175.0, 152.0, 150.0, 159.0, 161.0, 187.0, 185.0, 174.0]",12.122407913208008,0.0,-12.291717529296875,0.000560760498046875,-27.720489501953125
1743582149.6795716,0.0,1.0031086159699345,"[174.0, 185.0, 175.0, 152.0, 150.0, 159.0, 161.0, 187.0, 185.0, 174.0]",12.298009872436523,0.0,-12.5372314453125,0.0005588531494140625,-27.705665588378906
