timestamp,steering_input,acceleration_input,raycasts,speed,steering,position_x,position_y,position_z
1743582251.347143,0.0,-0.0,"[174.0, 185.0, 227.0, 295.0, 259.0, 259.0, 295.0, 227.0, 185.0, 174.0]",0.0,0.0,0.0,0.10000038146972656,-27.93000030517578
1743582251.6044216,0.0,-0.0,"[174.0, 185.0, 178.0, 155.0, 154.0, 154.0, 156.0, 179.0, 185.0, 174.0]",0.1431841105222702,0.0,0.0,0.097137451171875,-27.93000030517578
1743582251.6501944,0.0,-0.0,"[174.0, 185.0, 178.0, 155.0, 154.0, 154.0, 156.0, 179.0, 185.0, 174.0]",0.2360968291759491,0.0,0.0,0.09241485595703125,-27.93000030517578
1743582251.6549182,0.0,-0.0,"[174.0, 185.0, 178.0, 155.0, 154.0, 154.0, 156.0, 179.0, 185.0, 174.0]",0.30777978897094727,0.0,0.0,0.08625984191894531,-27.93000030517578
1743582251.6869512,0.0,-0.0,"[174.0, 185.0, 179.0, 155.0, 154.0, 154.0, 156.0, 179.0, 185.0, 174.0]",0.36006540060043335,0.0,0.0,0.07905769348144531,-27.93000030517578
1743582251.693243,0.0,-0.0,"[174.0, 185.0, 179.0, 155.0, 154.0, 154.0, 156.0, 179.0, 185.0, 174.0]",0.3949472904205322,0.0,0.0,0.07115936279296875,-27.93000030517578
1743582251.725843,0.0,-0.0,"[174.0, 185.0, 179.0, 155.0, 154.0, 154.0, 156.0, 180.0, 185.0, 174.0]",0.41450235247612,0.0,0.0,0.06286811828613281,-27.93000030517578
1743582251.7306232,0.0,-0.0,"[174.0, 185.0, 179.0, 155.0, 154.0, 154.0, 156.0, 180.0, 185.0, 174.0]",0.42082807421684265,0.0,0.0,0.05445289611816406,-27.93000030517578
1743582251.7618175,0.0,-0.0,"[174.0, 185.0, 179.0, 155.0, 154.0, 154.0, 156.0, 181.0, 185.0, 174.0]",0.41598936915397644,0.0,0.0,0.04613304138183594,-27.93000030517578
1743582251.7950275,0.0,-0.0,"[174.0, 185.0, 179.0, 155.0, 154.0, 154.0, 156.0, 181.0, 185.0, 174.0]",0.4019714593887329,0.0,0.0,0.03809356689453125,-27.93000030517578
1743582251.8002207,0.0,-0.0,"[174.0, 185.0, 179.0, 155.0, 154.0, 154.0, 156.0, 181.0, 185.0, 174.0]",0.3806484043598175,0.0,0.0,0.03047943115234375,-27.93000030517578
1743582251.8359308,0.0,-0.0,"[174.0, 185.0, 180.0, 156.0, 154.0, 154.0, 156.0, 181.0, 185.0, 174.0]",0.3537571132183075,0.0,0.0,0.023405075073242188,-27.93000030517578
1743582251.841797,0.0,-0.0,"[174.0, 185.0, 180.0, 156.0, 154.0, 154.0, 156.0, 181.0, 185.0, 174.0]",0.3228750228881836,0.0,0.0,0.016946792602539062,-27.92999267578125
1743582251.8738117,0.0,-0.0,"[174.0, 185.0, 180.0, 156.0, 154.0, 154.0, 156.0, 181.0, 185.0, 174.0]",0.28941938281059265,0.0,0.0,0.011159896850585938,-27.930038452148438
1743582251.878371,0.0,-0.0,"[174.0, 185.0, 180.0, 156.0, 154.0, 154.0, 156.0, 181.0, 185.0, 174.0]",0.2562173306941986,0.0,0.0,0.0060672760009765625,-27.929466247558594
1743582251.9109452,0.0,-0.0,"[174.0, 185.0, 181.0, 156.0, 154.0, 154.0, 156.0, 181.0, 185.0, 174.0]",0.34839218854904175,0.0,0.0,0.0016765594482421875,-27.93487548828125
1743582251.917103,0.0,-0.0,"[174.0, 185.0, 181.0, 156.0, 154.0, 154.0, 156.0, 181.0, 185.0, 174.0]",0.255353718996048,0.0,0.0,-0.0020236968994140625,-27.931358337402344
1743582251.9505858,0.0,-0.0,"[174.0, 185.0, 181.0, 156.0, 154.0, 154.0, 156.0, 181.0, 185.0, 174.0]",0.2815416157245636,0.0,0.0,-0.0050601959228515625,-27.926612854003906
1743582251.95583,0.0,-0.0,"[174.0, 185.0, 181.0, 156.0, 154.0, 154.0, 156.0, 181.0, 185.0, 174.0]",0.15634490549564362,0.0,0.0,-0.007472991943359375,-27.928604125976562
1743582251.9883611,0.0,-0.0,"[174.0, 185.0, 181.0, 156.0, 154.0, 154.0, 156.0, 181.0, 185.0, 174.0]",0.27455902099609375,0.0,0.0,-0.009307861328125,-27.923431396484375
1743582251.9924746,0.0,-0.0,"[174.0, 185.0, 181.0, 156.0, 154.0, 154.0, 156.0, 181.0, 185.0, 174.0]",0.2245660424232483,0.0,0.0,-0.010616302490234375,-27.92772674560547
1743582252.0300045,0.0,-0.0,"[174.0, 185.0, 181.0, 156.0, 154.0, 154.0, 156.0, 181.0, 185.0, 174.0]",0.08891011029481888,0.0,0.0,-0.011455535888671875,-27.929290771484375
1743582252.0350773,0.0,-0.0,"[174.0, 185.0, 181.0, 156.0, 154.0, 154.0, 156.0, 181.0, 185.0, 174.0]",0.1896505206823349,0.0,0.0,-0.011884689331054688,-27.925521850585938
1743582252.0755093,0.0,-0.0,"[174.0, 185.0, 181.0, 156.0, 154.0, 154.0, 156.0, 181.0, 185.0, 174.0]",0.2066076397895813,0.0,0.0,-0.011960983276367188,-27.92139434814453
1743582252.0794628,0.0,-0.0,"[174.0, 185.0, 181.0, 156.0, 154.0, 154.0, 156.0, 181.0, 185.0, 174.0]",0.12101753056049347,0.0,0.0,-0.011743545532226562,-27.918983459472656
1743582252.1153076,0.0,-0.0,"[174.0, 185.0, 181.0, 156.0, 154.0, 154.0, 156.0, 181.0, 185.0, 174.0]",0.19259010255336761,0.0,0.0,-0.011285781860351562,-27.922805786132812
1743582252.121914,0.0,-0.0,"[174.0, 185.0, 181.0, 156.0, 154.0, 154.0, 156.0, 181.0, 185.0, 174.0]",0.17800575494766235,0.0,0.0,-0.010637283325195312,-27.926307678222656
1743582252.1566627,0.0,-0.0,"[174.0, 185.0, 181.0, 156.0, 154.0, 154.0, 156.0, 181.0, 185.0, 174.0]",0.16013549268245697,0.0,0.0,-0.009847640991210938,-27.929412841796875
1743582252.1604908,0.0,-0.0,"[174.0, 185.0, 181.0, 156.0, 154.0, 154.0, 156.0, 181.0, 185.0, 174.0]",0.07219173014163971,0.0,0.0,-0.0089569091796875,-27.9305419921875
1743582252.198378,0.0,-0.0,"[174.0, 185.0, 181.0, 156.0, 154.0, 154.0, 156.0, 181.0, 185.0, 174.0]",0.1852148175239563,0.0,0.0,-0.008007049560546875,-27.926963806152344
1743582252.207352,0.0,-0.0,"[174.0, 185.0, 181.0, 156.0, 154.0, 154.0, 156.0, 181.0, 185.0, 174.0]",0.15632963180541992,0.0,0.0,-0.00702667236328125,-27.923995971679688
1743582252.257815,0.0,-0.0,"[174.0, 185.0, 181.0, 156.0, 154.0, 154.0, 156.0, 181.0, 185.0, 174.0]",0.051327187567949295,0.0,0.0,-0.0060482025146484375,-27.923690795898438
1743582252.2660441,0.0,-0.0,"[174.0, 185.0, 181.0, 156.0, 154.0, 154.0, 156.0, 181.0, 185.0, 174.0]",0.15988554060459137,0.0,0.0,-0.0050907135009765625,-27.926742553710938
1743582252.3015575,0.0,-0.0,"[174.0, 185.0, 181.0, 156.0, 154.0, 154.0, 156.0, 181.0, 185.0, 174.0]",0.05791441351175308,0.0,0.0,-0.004177093505859375,-27.927452087402344
1743582252.3061256,0.0,-0.0,"[174.0, 185.0, 181.0, 156.0, 154.0, 154.0, 156.0, 181.0, 185.0, 174.0]",0.19991730153560638,0.0,0.0,-0.0033206939697265625,-27.923545837402344
1743582252.3098788,0.0,-0.0,"[174.0, 185.0, 181.0, 156.0, 154.0, 154.0, 156.0, 181.0, 185.0, 174.0]",0.12208718806505203,0.0,0.0,-0.0025310516357421875,-27.921234130859375
1743582252.341872,0.0,-0.0,"[174.0, 185.0, 181.0, 156.0, 154.0, 154.0, 156.0, 181.0, 185.0, 174.0]",0.18460233509540558,0.0,0.0,-0.0018177032470703125,-27.92485809326172
1743582252.3456006,0.0,-0.0,"[174.0, 185.0, 181.0, 156.0, 154.0, 154.0, 156.0, 181.0, 185.0, 174.0]",0.13353228569030762,0.0,0.0,-0.0011844635009765625,-27.927452087402344
1743582252.3777103,0.0,-0.0,"[174.0, 185.0, 181.0, 156.0, 154.0, 154.0, 156.0, 181.0, 185.0, 174.0]",0.11446059495210648,0.0,3.0517578125e-05,-0.00063323974609375,-27.92523193359375
1743582252.381508,0.0,-0.0,"[174.0, 185.0, 181.0, 156.0, 154.0, 154.0, 156.0, 181.0, 185.0, 174.0]",0.18039268255233765,0.0,3.0517578125e-05,-0.0001621246337890625,-27.928802490234375
1743582252.415789,0.0,-0.0,"[174.0, 185.0, 181.0, 156.0, 154.0, 154.0, 156.0, 181.0, 185.0, 174.0]",0.12967412173748016,0.0,3.0517578125e-05,0.0002288818359375,-27.931365966796875
1743582252.4221241,0.0,-0.0,"[174.0, 185.0, 181.0, 156.0, 154.0, 154.0, 156.0, 181.0, 185.0, 174.0]",0.1237604022026062,0.0,3.0517578125e-05,0.000545501708984375,-27.928909301757812
1743582252.4565337,0.0,-0.0,"[174.0, 185.0, 181.0, 156.0, 154.0, 154.0, 156.0, 181.0, 185.0, 174.0]",0.1935333013534546,0.0,3.0517578125e-05,0.0007915496826171875,-27.932777404785156
1743582252.460961,0.0,-0.0,"[174.0, 185.0, 181.0, 156.0, 154.0, 154.0, 156.0, 181.0, 185.0, 174.0]",0.12180628627538681,0.0,6.103515625e-05,0.000972747802734375,-27.935203552246094
1743582252.498097,0.0,-0.0,"[174.0, 185.0, 181.0, 156.0, 154.0, 154.0, 156.0, 181.0, 185.0, 174.0]",0.16159525513648987,0.0,6.103515625e-05,0.0010967254638671875,-27.931976318359375
1743582252.5017555,0.0,-0.0,"[174.0, 185.0, 181.0, 156.0, 154.0, 154.0, 156.0, 181.0, 185.0, 174.0]",0.0772232785820961,0.0,6.103515625e-05,0.0011692047119140625,-27.930435180664062
1743582252.535012,0.0,-0.0,"[174.0, 185.0, 181.0, 156.0, 154.0, 154.0, 156.0, 181.0, 185.0, 174.0]",0.184142604470253,0.0,6.103515625e-05,0.00119781494140625,-27.934112548828125
1743582252.5393775,0.0,-0.0,"[174.0, 185.0, 181.0, 156.0, 154.0, 154.0, 156.0, 181.0, 185.0, 174.0]",0.1367751508951187,0.0,6.103515625e-05,0.0011882781982421875,-27.936851501464844
1743582252.5714314,0.0,-0.0,"[174.0, 185.0, 181.0, 156.0, 154.0, 154.0, 156.0, 181.0, 185.0, 174.0]",0.06419677287340164,0.0,6.103515625e-05,0.001148223876953125,-27.935569763183594
1743582252.5764813,0.0,-0.0,"[174.0, 185.0, 181.0, 156.0, 154.0, 154.0, 156.0, 181.0, 185.0, 174.0]",0.1747168004512787,0.0,6.103515625e-05,0.0010833740234375,-27.939064025878906
1743582252.608712,0.0,-0.0,"[174.0, 185.0, 181.0, 156.0, 154.0, 154.0, 156.0, 181.0, 185.0, 174.0]",0.1311485320329666,0.0,9.1552734375e-05,0.00099945068359375,-27.941680908203125
1743582252.6145465,0.0,-0.0,"[174.0, 185.0, 181.0, 156.0, 154.0, 154.0, 156.0, 181.0, 185.0, 174.0]",0.11074256151914597,0.0,9.1552734375e-05,0.0009002685546875,-27.939468383789062
1743582252.6476703,0.0,-0.0,"[174.0, 185.0, 181.0, 156.0, 154.0, 154.0, 156.0, 181.0, 185.0, 174.0]",0.1801898330450058,0.0,9.1552734375e-05,0.00079345703125,-27.943069458007812
1743582252.6509755,0.0,-0.0,"[174.0, 185.0, 181.0, 156.0, 154.0, 154.0, 156.0, 181.0, 185.0, 174.0]",0.14138393104076385,0.0,9.1552734375e-05,0.00067901611328125,-27.945899963378906
1743582252.681997,0.0,-0.0,"[174.0, 185.0, 181.0, 156.0, 154.0, 154.0, 156.0, 181.0, 185.0, 174.0]",0.0333004854619503,0.0,9.1552734375e-05,0.0005645751953125,-27.94524383544922
1743582252.7147992,0.0,-0.0,"[174.0, 185.0, 181.0, 156.0, 154.0, 154.0, 156.0, 181.0, 185.0, 174.0]",0.19635771214962006,0.0,9.1552734375e-05,0.0004520416259765625,-27.94916534423828
1743582252.7197797,0.0,-0.0,"[174.0, 185.0, 181.0, 156.0, 154.0, 154.0, 156.0, 181.0, 185.0, 174.0]",0.12271545082330704,0.0,0.0001220703125,0.00034332275390625,-27.951614379882812
1743582252.7546585,0.0,-0.0,"[174.0, 185.0, 181.0, 156.0, 154.0, 154.0, 156.0, 181.0, 185.0, 174.0]",0.15798240900039673,0.0,0.0001220703125,0.0002384185791015625,-27.948455810546875
1743582252.7595963,0.0,-0.0,"[174.0, 185.0, 181.0, 156.0, 154.0, 154.0, 156.0, 181.0, 185.0, 174.0]",0.0622306689620018,0.0,0.0001220703125,0.0001430511474609375,-27.947219848632812
1743582252.791503,0.0,-0.0,"[174.0, 185.0, 181.0, 156.0, 154.0, 154.0, 156.0, 181.0, 185.0, 174.0]",0.17492303252220154,0.0,0.0001220703125,5.53131103515625e-05,-27.950714111328125
1743582252.7958424,0.0,-0.0,"[174.0, 185.0, 181.0, 156.0, 154.0, 154.0, 156.0, 181.0, 185.0, 174.0]",0.13653863966464996,0.0,0.0001220703125,-2.288818359375e-05,-27.953445434570312
1743582252.838085,0.0,-0.0,"[174.0, 185.0, 181.0, 156.0, 154.0, 154.0, 156.0, 181.0, 185.0, 174.0]",0.0718504786491394,0.0,0.0001220703125,-9.34600830078125e-05,-27.952011108398438
1743582252.843306,0.0,-0.0,"[174.0, 185.0, 181.0, 156.0, 154.0, 154.0, 156.0, 181.0, 185.0, 174.0]",0.17569200694561005,0.0,0.0001220703125,-0.000152587890625,-27.955520629882812
1743582252.8746254,0.0,-0.0,"[174.0, 185.0, 181.0, 156.0, 154.0, 154.0, 156.0, 181.0, 185.0, 174.0]",0.13826613128185272,0.0,0.000152587890625,-0.000202178955078125,-27.958290100097656
1743582252.8775368,0.0,-0.0,"[174.0, 185.0, 181.0, 156.0, 154.0, 154.0, 156.0, 181.0, 185.0, 174.0]",0.05745533108711243,0.0,0.000152587890625,-0.000244140625,-27.957138061523438
1743582252.909153,0.0,-0.0,"[174.0, 185.0, 181.0, 156.0, 154.0, 154.0, 156.0, 181.0, 185.0, 174.0]",0.1775936484336853,0.0,0.000152587890625,-0.000278472900390625,-27.960693359375
1743582252.911885,0.0,-0.0,"[174.0, 185.0, 181.0, 156.0, 154.0, 154.0, 156.0, 181.0, 185.0, 174.0]",0.14114311337471008,0.0,0.000152587890625,-0.0003032684326171875,-27.963516235351562
1743582252.9452393,0.0,-0.0,"[174.0, 185.0, 181.0, 156.0, 154.0, 154.0, 156.0, 181.0, 185.0, 174.0]",0.034520473331213,0.0,0.000152587890625,-0.0003204345703125,-27.96282196044922
1743582252.9482727,0.0,-0.0,"[174.0, 185.0, 181.0, 156.0, 154.0, 154.0, 156.0, 181.0, 185.0, 174.0]",0.20195074379444122,0.0,0.00018310546875,-0.000331878662109375,-27.96686553955078
1743582252.97936,0.0,-0.0,"[174.0, 185.0, 181.0, 156.0, 154.0, 154.0, 156.0, 181.0, 185.0, 174.0]",0.09901262819766998,0.0,0.00018310546875,-0.000339508056640625,-27.968841552734375
1743582253.0628903,0.0,-0.0,"[174.0, 185.0, 181.0, 156.0, 154.0, 154.0, 156.0, 181.0, 185.0, 174.0]",0.20315459370613098,0.0,0.00018310546875,-0.000339508056640625,-27.96478271484375
1743582253.065997,0.0,-0.0,"[174.0, 185.0, 181.0, 156.0, 154.0, 154.0, 156.0, 181.0, 185.0, 174.0]",0.09250973165035248,0.0,0.000152587890625,-0.0003376007080078125,-27.962928771972656
1743582253.0688508,0.0,-0.0,"[174.0, 185.0, 181.0, 156.0, 154.0, 154.0, 156.0, 181.0, 185.0, 174.0]",0.21048150956630707,0.0,0.00018310546875,-0.000331878662109375,-27.967140197753906
1743582253.072347,0.0,-0.0,"[174.0, 185.0, 181.0, 156.0, 154.0, 154.0, 156.0, 181.0, 185.0, 174.0]",0.054807256907224655,0.0,0.00018310546875,-0.0003223419189453125,-27.968238830566406
1743582253.0748286,0.0,-0.0,"[174.0, 185.0, 181.0, 156.0, 154.0, 154.0, 156.0, 181.0, 185.0, 174.0]",0.18342110514640808,0.0,0.00018310546875,-0.00031280517578125,-27.964569091796875
1743582253.1057804,0.0,-0.0,"[174.0, 185.0, 181.0, 156.0, 154.0, 154.0, 156.0, 181.0, 185.0, 174.0]",0.14437030255794525,0.0,0.000152587890625,-0.0002994537353515625,-27.961685180664062
1743582253.109368,0.0,-0.0,"[174.0, 185.0, 181.0, 156.0, 154.0, 154.0, 156.0, 181.0, 185.0, 174.0]",0.010325106792151928,0.0,0.000152587890625,-0.0002880096435546875,-27.961883544921875
1743582253.141389,0.0,-0.0,"[174.0, 185.0, 181.0, 156.0, 154.0, 154.0, 156.0, 181.0, 185.0, 174.0]",0.08798801898956299,0.0,0.000152587890625,-0.000274658203125,-27.960128784179688
1743582253.1727085,0.0,-0.0,"[174.0, 185.0, 181.0, 156.0, 154.0, 154.0, 156.0, 181.0, 185.0, 174.0]",0.2099931389093399,0.0,0.00018310546875,-0.0002613067626953125,-27.964324951171875
1743582253.1759639,0.0,-0.0,"[174.0, 185.0, 181.0, 156.0, 154.0, 154.0, 156.0, 181.0, 185.0, 174.0]",0.05686913803219795,0.0,0.00018310546875,-0.000247955322265625,-27.96546173095703
1743582253.2093847,0.0,-0.0,"[174.0, 185.0, 181.0, 156.0, 154.0, 154.0, 156.0, 181.0, 185.0, 174.0]",0.17966091632843018,0.0,0.00018310546875,-0.0002346038818359375,-27.961868286132812
1743582253.2127964,0.0,-0.0,"[174.0, 185.0, 181.0, 156.0, 154.0, 154.0, 156.0, 181.0, 185.0, 174.0]",0.14235873520374298,0.0,0.000152587890625,-0.0002231597900390625,-27.959022521972656
1743582253.2443228,0.0,-0.0,"[174.0, 185.0, 181.0, 156.0, 154.0, 154.0, 156.0, 181.0, 185.0, 174.0]",0.024575751274824142,0.0,0.000152587890625,-0.000213623046875,-27.959518432617188
1743582253.2475767,0.0,-0.0,"[174.0, 185.0, 181.0, 156.0, 154.0, 154.0, 156.0, 181.0, 185.0, 174.0]",0.1880163848400116,0.0,0.000152587890625,-0.0002040863037109375,-27.95575714111328
1743582253.2777953,0.0,-0.0,"[174.0, 185.0, 181.0, 156.0, 154.0, 154.0, 156.0, 181.0, 185.0, 174.0]",0.14146263897418976,0.0,0.000152587890625,-0.000194549560546875,-27.952926635742188
1743582253.3092968,0.0,-0.0,"[174.0, 185.0, 181.0, 156.0, 154.0, 154.0, 156.0, 181.0, 185.0, 174.0]",0.031307123601436615,0.0,0.000152587890625,-0.000186920166015625,-27.95355224609375
1743582253.3123996,0.0,-0.0,"[174.0, 185.0, 181.0, 156.0, 154.0, 154.0, 156.0, 181.0, 185.0, 174.0]",0.19213135540485382,0.0,0.000152587890625,-0.0001811981201171875,-27.94970703125
1743582253.3444176,0.0,-0.0,"[174.0, 185.0, 181.0, 156.0, 154.0, 154.0, 156.0, 181.0, 185.0, 174.0]",0.1337447315454483,0.0,0.0001220703125,-0.00017547607421875,-27.947036743164062
1743582253.3482,0.0,-0.0,"[174.0, 185.0, 181.0, 156.0, 154.0, 154.0, 156.0, 181.0, 185.0, 174.0]",0.09263762831687927,0.0,0.0001220703125,-0.000171661376953125,-27.948883056640625
1743582253.3791366,0.0,-0.0,"[174.0, 185.0, 181.0, 156.0, 154.0, 154.0, 156.0, 181.0, 185.0, 174.0]",0.2106226533651352,0.0,0.0001220703125,-0.0001678466796875,-27.944671630859375
1743582253.4144835,0.0,-0.0,"[174.0, 185.0, 181.0, 156.0, 154.0, 154.0, 156.0, 181.0, 185.0, 174.0]",0.053793199360370636,0.0,0.0001220703125,-0.000164031982421875,-27.94359588623047
1743582253.4190361,0.0,-0.0,"[174.0, 185.0, 181.0, 156.0, 154.0, 154.0, 156.0, 181.0, 185.0, 174.0]",0.18583746254444122,0.0,0.0001220703125,-0.0001621246337890625,-27.947311401367188
1743582253.4510229,0.0,-0.0,"[174.0, 185.0, 181.0, 156.0, 154.0, 154.0, 156.0, 181.0, 185.0, 174.0]",0.1430375576019287,0.0,0.0001220703125,-0.0001621246337890625,-27.950180053710938
1743582253.4538448,0.0,-0.0,"[174.0, 185.0, 181.0, 156.0, 154.0, 154.0, 156.0, 181.0, 185.0, 174.0]",0.019723525270819664,0.0,0.0001220703125,-0.0001621246337890625,-27.949783325195312
1743582253.4847236,0.0,-0.0,"[174.0, 185.0, 181.0, 156.0, 154.0, 154.0, 156.0, 181.0, 185.0, 174.0]",0.18836303055286407,0.0,0.0001220703125,-0.0001621246337890625,-27.95355224609375
1743582253.4894786,0.0,-0.0,"[174.0, 185.0, 181.0, 156.0, 154.0, 154.0, 156.0, 181.0, 185.0, 174.0]",0.14051376283168793,0.0,0.0001220703125,-0.0001621246337890625,-27.95635986328125
1743582253.5205686,0.0,-0.0,"[174.0, 185.0, 181.0, 156.0, 154.0, 154.0, 156.0, 181.0, 185.0, 174.0]",0.038770899176597595,0.0,0.000152587890625,-0.0001621246337890625,-27.955581665039062
1743582253.5537255,0.0,-0.0,"[174.0, 185.0, 181.0, 156.0, 154.0, 154.0, 156.0, 181.0, 185.0, 174.0]",0.20928703248500824,0.0,0.000152587890625,-0.000164031982421875,-27.95977020263672
1743582253.5570452,0.0,-0.0,"[174.0, 185.0, 181.0, 156.0, 154.0, 154.0, 156.0, 181.0, 185.0, 174.0]",0.0603407584130764,0.0,0.000152587890625,-0.000164031982421875,-27.960975646972656
1743582253.5923655,0.0,-0.0,"[174.0, 185.0, 181.0, 156.0, 154.0, 154.0, 156.0, 181.0, 185.0, 174.0]",0.176280215382576,0.0,0.000152587890625,-0.0001659393310546875,-27.95745086669922
1743582253.5955644,0.0,-0.0,"[174.0, 185.0, 181.0, 156.0, 154.0, 154.0, 156.0, 181.0, 185.0, 174.0]",0.13787387311458588,0.0,0.000152587890625,-0.0001678466796875,-27.954696655273438
1743582253.6283014,0.0,-0.0,"[174.0, 185.0, 181.0, 156.0, 154.0, 154.0, 156.0, 181.0, 185.0, 174.0]",0.059169523417949677,0.0,0.0001220703125,-0.0001697540283203125,-27.95587158203125
1743582253.631735,0.0,-0.0,"[174.0, 185.0, 181.0, 156.0, 154.0, 154.0, 156.0, 181.0, 185.0, 174.0]",0.17614339292049408,0.0,0.0001220703125,-0.000171661376953125,-27.952354431152344
1743582253.663052,0.0,-0.0,"[174.0, 185.0, 181.0, 156.0, 154.0, 154.0, 156.0, 181.0, 185.0, 174.0]",0.13753186166286469,0.0,0.0001220703125,-0.000171661376953125,-27.949600219726562
1743582253.6657555,0.0,-0.0,"[174.0, 185.0, 181.0, 156.0, 154.0, 154.0, 156.0, 181.0, 185.0, 174.0]",0.06201857328414917,0.0,0.0001220703125,-0.0001735687255859375,-27.950843811035156
1743582253.696429,0.0,-0.0,"[174.0, 185.0, 181.0, 156.0, 154.0, 154.0, 156.0, 181.0, 185.0, 174.0]",0.17492681741714478,0.0,0.0001220703125,-0.00017547607421875,-27.947341918945312
1743582253.7393987,0.0,-0.0,"[174.0, 185.0, 227.0, 295.0, 259.0, 160.0, 295.0, 190.0, 185.0, 174.0]",0.0,0.0,0.0,0.10000038146972656,-27.93000030517578
1743582253.7437649,0.0,-0.0,"[174.0, 185.0, 227.0, 295.0, 259.0, 160.0, 295.0, 190.0, 185.0, 174.0]",0.8975897431373596,0.0,0.0,0.08204841613769531,-27.92999267578125
1743582253.7754796,0.0,-0.0,"[174.0, 185.0, 179.0, 155.0, 154.0, 154.0, 156.0, 180.0, 185.0, 174.0]",0.846060037612915,0.0,0.0,0.06512832641601562,-27.930099487304688
1743582253.778788,0.0,-0.0,"[174.0, 185.0, 179.0, 155.0, 154.0, 154.0, 156.0, 180.0, 185.0, 174.0]",0.8197997212409973,0.0,0.0,0.04947090148925781,-27.92522430419922
1743582253.8122594,0.0,-0.0,"[174.0, 185.0, 179.0, 156.0, 154.0, 154.0, 156.0, 181.0, 185.0, 174.0]",0.7591379880905151,0.0,-3.0517578125e-05,0.035243988037109375,-27.930526733398438
1743582253.8161795,0.0,-0.0,"[174.0, 185.0, 179.0, 156.0, 154.0, 154.0, 156.0, 181.0, 185.0, 174.0]",0.6656800508499146,0.0,-3.0517578125e-05,0.022548675537109375,-27.92652130126953
1743582253.8475924,0.0,-0.0,"[174.0, 185.0, 180.0, 156.0, 154.0, 154.0, 156.0, 181.0, 185.0, 174.0]",0.610633373260498,0.0,0.0,0.011432647705078125,-27.921463012695312
1743582253.8504834,0.0,-0.0,"[174.0, 185.0, 180.0, 156.0, 154.0, 154.0, 156.0, 181.0, 185.0, 174.0]",0.5142473578453064,0.0,0.0,0.0018978118896484375,-27.925315856933594
1743582253.8817031,0.0,-0.0,"[174.0, 185.0, 181.0, 156.0, 154.0, 154.0, 156.0, 181.0, 185.0, 174.0]",0.4507129192352295,0.0,-3.0517578125e-05,-0.0060901641845703125,-27.92949676513672
1743582253.9178245,0.0,-0.0,"[174.0, 185.0, 181.0, 156.0, 154.0, 154.0, 158.0, 181.0, 185.0, 174.0]",0.3921508193016052,0.0,0.0,-0.012599945068359375,-27.933868408203125
1743582253.9207737,0.0,-0.0,"[174.0, 185.0, 181.0, 156.0, 154.0, 154.0, 158.0, 181.0, 185.0, 174.0]",0.3278566300868988,0.0,0.0,-0.017721176147460938,-27.937965393066406
1743582253.9508984,0.0,-0.0,"[174.0, 185.0, 181.0, 156.0, 154.0, 154.0, 158.0, 181.0, 185.0, 174.0]",0.3611292839050293,0.0,0.0,-0.021566390991210938,-27.944076538085938
1743582253.9542398,0.0,-0.0,"[174.0, 185.0, 181.0, 156.0, 154.0, 154.0, 158.0, 181.0, 185.0, 174.0]",0.2970069646835327,0.0,0.0,-0.02425384521484375,-27.93878173828125
1743582253.984725,0.0,-0.0,"[174.0, 185.0, 181.0, 156.0, 154.0, 154.0, 158.0, 183.0, 185.0, 174.0]",0.18015681207180023,0.0,0.0,-0.025913238525390625,-27.941986083984375
1743582253.9876413,0.0,-0.0,"[174.0, 185.0, 181.0, 156.0, 154.0, 154.0, 158.0, 183.0, 185.0, 174.0]",0.19558687508106232,0.0,3.0517578125e-05,-0.026678085327148438,-27.945816040039062
1743582254.0208163,0.0,-0.0,"[174.0, 185.0, 181.0, 156.0, 154.0, 154.0, 156.0, 181.0, 185.0, 174.0]",0.2568000257015228,0.0,0.0,-0.02667999267578125,-27.950958251953125
1743582254.0522192,0.0,-0.0,"[174.0, 185.0, 181.0, 156.0, 154.0, 154.0, 156.0, 181.0, 185.0, 174.0]",0.21895632147789001,0.0,0.0,-0.0260467529296875,-27.946624755859375
1743582254.0554235,0.0,-0.0,"[174.0, 185.0, 181.0, 156.0, 154.0, 154.0, 156.0, 181.0, 185.0, 174.0]",0.08975812792778015,0.0,0.0,-0.024898529052734375,-27.945236206054688
1743582254.0848753,0.0,-0.0,"[174.0, 185.0, 181.0, 156.0, 154.0, 154.0, 156.0, 181.0, 185.0, 174.0]",0.18743792176246643,0.0,0.0,-0.023349761962890625,-27.948654174804688
1743582254.088874,0.0,-0.0,"[174.0, 185.0, 181.0, 156.0, 154.0, 154.0, 156.0, 181.0, 185.0, 174.0]",0.20199990272521973,0.0,0.0,-0.021505355834960938,-27.952247619628906
1743582254.1193142,0.0,-0.0,"[174.0, 185.0, 181.0, 156.0, 154.0, 154.0, 156.0, 181.0, 185.0, 174.0]",0.20574384927749634,0.0,0.0,-0.019458770751953125,-27.95581817626953
1743582254.153344,0.0,-0.0,"[174.0, 185.0, 181.0, 156.0, 154.0, 154.0, 156.0, 181.0, 185.0, 174.0]",0.1944844275712967,0.0,3.0517578125e-05,-0.017292022705078125,-27.95904541015625
1743582254.1564915,0.0,-0.0,"[174.0, 185.0, 181.0, 156.0, 154.0, 154.0, 156.0, 181.0, 185.0, 174.0]",0.13977497816085815,0.0,3.0517578125e-05,-0.015077590942382812,-27.96075439453125
1743582254.1893678,0.0,-0.0,"[174.0, 185.0, 181.0, 156.0, 154.0, 154.0, 156.0, 181.0, 185.0, 174.0]",0.22725674510002136,0.0,3.0517578125e-05,-0.012876510620117188,-27.95677947998047
1743582254.1924,0.0,-0.0,"[174.0, 185.0, 181.0, 156.0, 154.0, 154.0, 156.0, 181.0, 185.0, 174.0]",0.14920757710933685,0.0,3.0517578125e-05,-0.010740280151367188,-27.954696655273438
1743582254.225235,0.0,-0.0,"[174.0, 185.0, 181.0, 156.0, 154.0, 154.0, 156.0, 181.0, 185.0, 174.0]",0.2146904021501541,0.0,3.0517578125e-05,-0.008707046508789062,-27.958480834960938
1743582254.2288728,0.0,-0.0,"[174.0, 185.0, 181.0, 156.0, 154.0, 154.0, 156.0, 181.0, 185.0, 174.0]",0.15150871872901917,0.0,3.0517578125e-05,-0.0068111419677734375,-27.960838317871094
1743582254.2595208,0.0,-0.0,"[174.0, 185.0, 181.0, 156.0, 154.0, 154.0, 156.0, 181.0, 185.0, 174.0]",0.18585312366485596,0.0,3.0517578125e-05,-0.00507354736328125,-27.957550048828125
1743582254.289993,0.0,-0.0,"[174.0, 185.0, 181.0, 156.0, 154.0, 154.0, 156.0, 181.0, 185.0, 174.0]",0.10971185564994812,0.0,3.0517578125e-05,-0.0035076141357421875,-27.956016540527344
1743582254.2931423,0.0,-0.0,"[174.0, 185.0, 181.0, 156.0, 154.0, 154.0, 156.0, 181.0, 185.0, 174.0]",0.1930309236049652,0.0,3.0517578125e-05,-0.0021266937255859375,-27.959617614746094
1743582254.3236048,0.0,-0.0,"[174.0, 185.0, 181.0, 156.0, 154.0, 154.0, 156.0, 181.0, 185.0, 174.0]",0.12759768962860107,0.0,3.0517578125e-05,-0.0009288787841796875,-27.961868286132812
1743582254.3270335,0.0,-0.0,"[174.0, 185.0, 181.0, 156.0, 154.0, 154.0, 156.0, 181.0, 185.0, 174.0]",0.18612366914749146,0.0,3.0517578125e-05,8.7738037109375e-05,-27.958290100097656
1743582254.3578515,0.0,-0.0,"[174.0, 185.0, 181.0, 156.0, 154.0, 154.0, 156.0, 181.0, 185.0, 174.0]",0.12030942738056183,0.0,3.0517578125e-05,0.000926971435546875,-27.956039428710938
1743582254.3882334,0.0,-0.0,"[174.0, 185.0, 181.0, 156.0, 154.0, 154.0, 156.0, 181.0, 185.0, 174.0]",0.18382585048675537,0.0,3.0517578125e-05,0.0016002655029296875,-27.95964813232422
1743582254.3918014,0.0,-0.0,"[174.0, 185.0, 181.0, 156.0, 154.0, 154.0, 156.0, 181.0, 185.0, 174.0]",0.11980784684419632,0.0,3.0517578125e-05,0.002117156982421875,-27.961990356445312
1743582254.4281797,0.0,-0.0,"[174.0, 185.0, 181.0, 156.0, 154.0, 154.0, 156.0, 181.0, 185.0, 174.0]",0.17360720038414001,0.0,3.0517578125e-05,0.0024929046630859375,-27.958541870117188
1743582254.4333682,0.0,-0.0,"[174.0, 185.0, 181.0, 156.0, 154.0, 154.0, 156.0, 181.0, 185.0, 174.0]",0.11064331233501434,0.0,3.0517578125e-05,0.002742767333984375,-27.956336975097656
1743582254.4651642,0.0,-0.0,"[174.0, 185.0, 181.0, 156.0, 154.0, 154.0, 156.0, 181.0, 185.0, 174.0]",0.18679890036582947,0.0,3.0517578125e-05,0.002880096435546875,-27.960067749023438
1743582254.468144,0.0,-0.0,"[174.0, 185.0, 181.0, 156.0, 154.0, 154.0, 156.0, 181.0, 185.0, 174.0]",0.1256546825170517,0.0,3.0517578125e-05,0.00292205810546875,-27.96258544921875
1743582254.4986656,0.0,-0.0,"[174.0, 185.0, 181.0, 156.0, 154.0, 154.0, 156.0, 181.0, 185.0, 174.0]",0.13775034248828888,0.0,3.0517578125e-05,0.0028820037841796875,-27.95983123779297
1743582254.5305653,0.0,-0.0,"[174.0, 185.0, 181.0, 156.0, 154.0, 154.0, 156.0, 181.0, 185.0, 174.0]",0.038943544030189514,0.0,3.0517578125e-05,0.002777099609375,-27.960601806640625
1743582254.5344934,0.0,-0.0,"[174.0, 185.0, 181.0, 156.0, 154.0, 154.0, 156.0, 181.0, 185.0, 174.0]",0.20563149452209473,0.0,3.0517578125e-05,0.00261688232421875,-27.95648956298828
1743582254.5658555,0.0,-0.0,"[174.0, 185.0, 181.0, 156.0, 154.0, 154.0, 156.0, 181.0, 185.0, 174.0]",0.07594281435012817,0.0,3.0517578125e-05,0.00241851806640625,-27.954986572265625
1743582254.5697396,0.0,-0.0,"[174.0, 185.0, 181.0, 156.0, 154.0, 154.0, 156.0, 181.0, 185.0, 174.0]",0.18217846751213074,0.0,3.0517578125e-05,0.00218963623046875,-27.95862579345703
1743582254.6048815,0.0,-0.0,"[174.0, 185.0, 181.0, 156.0, 154.0, 154.0, 156.0, 181.0, 185.0, 174.0]",0.13989076018333435,0.0,3.0517578125e-05,0.0019435882568359375,-27.961410522460938
1743582254.6131663,0.0,-0.0,"[174.0, 185.0, 181.0, 156.0, 154.0, 154.0, 156.0, 181.0, 185.0, 174.0]",0.04862406849861145,0.0,6.103515625e-05,0.0016880035400390625,-27.960472106933594
1743582254.6161203,0.0,-0.0,"[174.0, 185.0, 181.0, 156.0, 154.0, 154.0, 156.0, 181.0, 185.0, 174.0]",0.20398592948913574,0.0,6.103515625e-05,0.001430511474609375,-27.96454620361328
1743582254.6215582,0.0,-0.0,"[174.0, 185.0, 181.0, 156.0, 154.0, 154.0, 156.0, 181.0, 185.0, 174.0]",0.09163553267717361,0.0,6.103515625e-05,0.0011768341064453125,-27.96636199951172
1743582254.6372027,0.0,-0.0,"[174.0, 185.0, 181.0, 156.0, 154.0, 154.0, 156.0, 181.0, 185.0, 174.0]",0.2112942636013031,0.0,6.103515625e-05,0.000934600830078125,-27.962142944335938
1743582254.6590838,0.0,-0.0,"[174.0, 185.0, 181.0, 156.0, 154.0, 154.0, 156.0, 181.0, 185.0, 174.0]",0.055033013224601746,0.0,6.103515625e-05,0.000705718994140625,-27.96106719970703
1743582254.6773438,0.0,-0.0,"[174.0, 185.0, 181.0, 156.0, 154.0, 154.0, 156.0, 181.0, 185.0, 174.0]",0.18610838055610657,0.0,6.103515625e-05,0.0004940032958984375,-27.96478271484375
1743582254.6977692,0.0,-0.0,"[174.0, 185.0, 181.0, 156.0, 154.0, 154.0, 156.0, 181.0, 185.0, 174.0]",0.14651942253112793,0.0,6.103515625e-05,0.000301361083984375,-27.96770477294922
1743582254.7171826,0.0,-0.0,"[174.0, 185.0, 181.0, 156.0, 154.0, 154.0, 156.0, 181.0, 185.0, 174.0]",0.008726338855922222,0.0,6.103515625e-05,0.00012969970703125,-27.967735290527344
1743582254.7372463,0.0,-0.0,"[174.0, 185.0, 181.0, 156.0, 154.0, 154.0, 156.0, 181.0, 185.0, 174.0]",0.010873078368604183,0.0,6.103515625e-05,-2.09808349609375e-05,-27.967575073242188
1743582254.760399,0.0,-0.0,"[174.0, 185.0, 181.0, 156.0, 154.0, 154.0, 156.0, 181.0, 185.0, 174.0]",0.056508053094148636,0.0,6.103515625e-05,-0.0001506805419921875,-27.968704223632812
1743582254.7777202,0.0,-0.0,"[174.0, 185.0, 181.0, 156.0, 154.0, 154.0, 156.0, 181.0, 185.0, 174.0]",0.1776466816663742,0.0,6.103515625e-05,-0.0002593994140625,-27.96514892578125
1743582254.7970335,0.0,-0.0,"[174.0, 185.0, 181.0, 156.0, 154.0, 154.0, 156.0, 181.0, 185.0, 174.0]",0.14345844089984894,0.0,6.103515625e-05,-0.000347137451171875,-27.9622802734375
1743582254.8176625,0.0,-0.0,"[174.0, 185.0, 181.0, 156.0, 154.0, 154.0, 156.0, 181.0, 185.0, 174.0]",0.018523063510656357,0.0,6.103515625e-05,-0.000415802001953125,-27.962646484375
1743582254.83671,0.0,-0.0,"[174.0, 185.0, 181.0, 156.0, 154.0, 154.0, 156.0, 181.0, 185.0, 174.0]",0.18327465653419495,0.0,6.103515625e-05,-0.000469207763671875,-27.958984375
1743582254.857666,0.0,-0.0,"[174.0, 185.0, 181.0, 156.0, 154.0, 154.0, 156.0, 181.0, 185.0, 174.0]",0.14679953455924988,0.0,6.103515625e-05,-0.0005054473876953125,-27.95604705810547
1743582254.876767,0.0,-0.0,"[174.0, 185.0, 181.0, 156.0, 154.0, 154.0, 156.0, 181.0, 185.0, 174.0]",0.005619840230792761,0.0,3.0517578125e-05,-0.0005283355712890625,-27.9559326171875
1743582254.8967316,0.0,-0.0,"[174.0, 185.0, 181.0, 156.0, 154.0, 154.0, 156.0, 181.0, 185.0, 174.0]",0.03341551497578621,0.0,6.103515625e-05,-0.000537872314453125,-27.95660400390625
1743582254.9176242,0.0,-0.0,"[174.0, 185.0, 181.0, 156.0, 154.0, 154.0, 156.0, 181.0, 185.0, 174.0]",0.20027005672454834,0.0,6.103515625e-05,-0.0005397796630859375,-27.952598571777344
1743582254.9371727,0.0,-0.0,"[174.0, 185.0, 181.0, 156.0, 154.0, 154.0, 156.0, 181.0, 185.0, 174.0]",0.10868415981531143,0.0,3.0517578125e-05,-0.000530242919921875,-27.950424194335938
1743582254.9591248,0.0,-0.0,"[174.0, 185.0, 181.0, 156.0, 154.0, 154.0, 156.0, 181.0, 185.0, 174.0]",0.19266803562641144,0.0,3.0517578125e-05,-0.000514984130859375,-27.95427703857422
1743582254.9776907,0.0,-0.0,"[174.0, 185.0, 181.0, 156.0, 154.0, 154.0, 156.0, 181.0, 185.0, 174.0]",0.1341090351343155,0.0,6.103515625e-05,-0.00049591064453125,-27.956954956054688
1743582254.9972236,0.0,-0.0,"[174.0, 185.0, 181.0, 156.0, 154.0, 154.0, 156.0, 181.0, 185.0, 174.0]",0.09054012596607208,0.0,6.103515625e-05,-0.0004711151123046875,-27.95514678955078
1743582255.0171382,0.0,-0.0,"[174.0, 185.0, 181.0, 156.0, 154.0, 154.0, 156.0, 181.0, 185.0, 174.0]",0.21057042479515076,0.0,6.103515625e-05,-0.0004425048828125,-27.95935821533203
1743582255.038481,0.0,-0.0,"[174.0, 185.0, 181.0, 156.0, 154.0, 154.0, 156.0, 181.0, 185.0, 174.0]",0.054165393114089966,0.0,6.103515625e-05,-0.0004138946533203125,-27.96044158935547
1743582255.0575237,0.0,-0.0,"[174.0, 185.0, 181.0, 156.0, 154.0, 154.0, 156.0, 181.0, 185.0, 174.0]",0.18488809466362,0.0,6.103515625e-05,-0.0003833770751953125,-27.956741333007812
1743582255.0771403,0.0,-0.0,"[174.0, 185.0, 181.0, 156.0, 154.0, 154.0, 156.0, 181.0, 185.0, 174.0]",0.14394092559814453,0.0,6.103515625e-05,-0.000354766845703125,-27.95386505126953
1743582255.0967913,0.0,-0.0,"[174.0, 185.0, 181.0, 156.0, 154.0, 154.0, 156.0, 181.0, 185.0, 174.0]",0.013386350125074387,0.0,6.103515625e-05,-0.0003261566162109375,-27.954132080078125
1743582255.1170185,0.0,-0.0,"[174.0, 185.0, 181.0, 156.0, 154.0, 154.0, 156.0, 181.0, 185.0, 174.0]",0.13083763420581818,0.0,6.103515625e-05,-0.00029754638671875,-27.951515197753906
1743582255.1373305,0.0,-0.0,"[174.0, 185.0, 181.0, 156.0, 154.0, 154.0, 156.0, 181.0, 185.0, 174.0]",0.13018326461315155,0.0,6.103515625e-05,-0.0002727508544921875,-27.954116821289062
1743582255.1588857,0.0,-0.0,"[174.0, 185.0, 181.0, 156.0, 154.0, 154.0, 156.0, 181.0, 185.0, 174.0]",0.12684199213981628,0.0,6.103515625e-05,-0.000247955322265625,-27.951583862304688
1743582255.1784542,0.0,-0.0,"[174.0, 185.0, 181.0, 156.0, 154.0, 154.0, 156.0, 181.0, 185.0, 174.0]",0.18253077566623688,0.0,6.103515625e-05,-0.0002269744873046875,-27.955230712890625
1743582255.1979363,0.0,-0.0,"[174.0, 185.0, 181.0, 156.0, 154.0, 154.0, 156.0, 181.0, 185.0, 174.0]",0.14365339279174805,0.0,6.103515625e-05,-0.0002079010009765625,-27.958106994628906
1743582255.2172468,0.0,-0.0,"[174.0, 185.0, 181.0, 156.0, 154.0, 154.0, 156.0, 181.0, 185.0, 174.0]",0.015195328742265701,0.0,9.1552734375e-05,-0.0001926422119140625,-27.957801818847656
1743582255.2382584,0.0,-0.0,"[174.0, 185.0, 181.0, 156.0, 154.0, 154.0, 156.0, 181.0, 185.0, 174.0]",0.15519288182258606,0.0,6.103515625e-05,-0.0001773834228515625,-27.960906982421875
1743582255.2574937,0.0,-0.0,"[174.0, 185.0, 181.0, 156.0, 154.0, 154.0, 156.0, 181.0, 185.0, 174.0]",0.04401727393269539,0.0,9.1552734375e-05,-0.0001659393310546875,-27.96178436279297
1743582255.2772126,0.0,-0.0,"[174.0, 185.0, 181.0, 156.0, 154.0, 154.0, 156.0, 181.0, 185.0, 174.0]",0.209318608045578,0.0,6.103515625e-05,-0.000156402587890625,-27.957595825195312
1743582255.2977538,0.0,-0.0,"[174.0, 185.0, 181.0, 156.0, 154.0, 154.0, 156.0, 181.0, 185.0, 174.0]",0.06004728749394417,0.0,6.103515625e-05,-0.0001506805419921875,-27.956398010253906
1743582255.3175044,0.0,-0.0,"[174.0, 185.0, 181.0, 156.0, 154.0, 154.0, 156.0, 181.0, 185.0, 174.0]",0.17649373412132263,0.0,6.103515625e-05,-0.00014495849609375,-27.959930419921875
1743582255.337259,0.0,-0.0,"[174.0, 185.0, 181.0, 156.0, 154.0, 154.0, 156.0, 181.0, 185.0, 174.0]",0.13786271214485168,0.0,9.1552734375e-05,-0.000141143798828125,-27.962684631347656
1743582255.3608787,0.0,-0.0,"[174.0, 185.0, 181.0, 156.0, 154.0, 154.0, 156.0, 181.0, 185.0, 174.0]",0.05911995843052864,0.0,9.1552734375e-05,-0.0001392364501953125,-27.961502075195312
1743582255.3784764,0.0,-0.0,"[174.0, 185.0, 181.0, 156.0, 154.0, 154.0, 156.0, 181.0, 185.0, 174.0]",0.1761787086725235,0.0,9.1552734375e-05,-0.0001373291015625,-27.96502685546875
1743582255.3970504,0.0,-0.0,"[174.0, 185.0, 181.0, 156.0, 154.0, 154.0, 156.0, 181.0, 185.0, 174.0]",0.1373090296983719,0.0,9.1552734375e-05,-0.0001392364501953125,-27.9677734375
1743582255.4180286,0.0,-0.0,"[174.0, 185.0, 181.0, 156.0, 154.0, 154.0, 156.0, 181.0, 185.0, 174.0]",0.06369751691818237,0.0,9.1552734375e-05,-0.0001392364501953125,-27.96649932861328
1743582255.4369261,0.0,-0.0,"[174.0, 185.0, 181.0, 156.0, 154.0, 154.0, 156.0, 181.0, 185.0, 174.0]",0.17457692325115204,0.0,9.1552734375e-05,-0.000141143798828125,-27.969993591308594
1743582255.4578567,0.0,-0.0,"[174.0, 185.0, 181.0, 156.0, 154.0, 154.0, 156.0, 181.0, 185.0, 174.0]",0.1343022733926773,0.0,0.0001220703125,-0.00014495849609375,-27.972679138183594
1743582255.477597,0.0,-0.0,"[174.0, 185.0, 181.0, 156.0, 154.0, 154.0, 156.0, 181.0, 185.0, 174.0]",0.08797740936279297,0.0,0.0001220703125,-0.0001468658447265625,-27.970916748046875
1743582255.4973798,0.0,-0.0,"[174.0, 185.0, 181.0, 156.0, 154.0, 154.0, 156.0, 181.0, 185.0, 174.0]",0.20866119861602783,0.0,0.0001220703125,-0.0001506805419921875,-27.97509002685547
1743582255.5177574,0.0,-0.0,"[174.0, 185.0, 181.0, 156.0, 154.0, 154.0, 156.0, 181.0, 185.0, 174.0]",0.06355102360248566,0.0,0.0001220703125,-0.0001544952392578125,-27.976364135742188
1743582255.537863,0.0,-0.0,"[174.0, 185.0, 181.0, 156.0, 154.0, 154.0, 156.0, 181.0, 185.0, 174.0]",0.1748741865158081,0.0,0.0001220703125,-0.000156402587890625,-27.972862243652344
1743582255.5597517,0.0,-0.0,"[174.0, 185.0, 181.0, 156.0, 154.0, 154.0, 156.0, 181.0, 185.0, 174.0]",0.13504409790039062,0.0,0.0001220703125,-0.00016021728515625,-27.97016143798828
1743582255.5780897,0.0,-0.0,"[174.0, 185.0, 181.0, 156.0, 154.0, 154.0, 156.0, 181.0, 185.0, 174.0]",0.08203012496232986,0.0,0.0001220703125,-0.000164031982421875,-27.9718017578125
1743582255.597732,0.0,-0.0,"[174.0, 185.0, 181.0, 156.0, 154.0, 154.0, 156.0, 181.0, 185.0, 174.0]",0.19754302501678467,0.0,0.0001220703125,-0.0001659393310546875,-27.967849731445312
1743582255.617193,0.0,-0.0,"[174.0, 185.0, 181.0, 156.0, 154.0, 154.0, 156.0, 181.0, 185.0, 174.0]",0.11780411005020142,0.0,9.1552734375e-05,-0.0001697540283203125,-27.965499877929688
1743582255.6382594,0.0,-0.0,"[174.0, 185.0, 181.0, 156.0, 154.0, 154.0, 156.0, 181.0, 185.0, 174.0]",0.1798170953989029,0.0,9.1552734375e-05,-0.000171661376953125,-27.969093322753906
1743582255.6571987,0.0,-0.0,"[174.0, 185.0, 181.0, 156.0, 154.0, 154.0, 156.0, 181.0, 185.0, 174.0]",0.1422376185655594,0.0,0.0001220703125,-0.00017547607421875,-27.971939086914062
1743582255.677106,0.0,-0.0,"[174.0, 185.0, 181.0, 156.0, 154.0, 154.0, 156.0, 181.0, 185.0, 174.0]",0.025686556473374367,0.0,0.0001220703125,-0.0001773834228515625,-27.97142791748047
1743582255.6975505,0.0,-0.0,"[174.0, 185.0, 181.0, 156.0, 154.0, 154.0, 156.0, 181.0, 185.0, 174.0]",0.18616214394569397,0.0,0.0001220703125,-0.000179290771484375,-27.97515106201172
1743582255.7166512,0.0,-0.0,"[174.0, 185.0, 181.0, 156.0, 154.0, 154.0, 156.0, 181.0, 185.0, 174.0]",0.14309506118297577,0.0,0.0001220703125,-0.000179290771484375,-27.978012084960938
1743582255.7376583,0.0,-0.0,"[174.0, 185.0, 181.0, 156.0, 154.0, 154.0, 156.0, 181.0, 185.0, 174.0]",0.019396411255002022,0.0,0.000152587890625,-0.0001811981201171875,-27.977622985839844
1743582255.7614746,0.0,-0.0,"[174.0, 185.0, 181.0, 156.0, 154.0, 154.0, 156.0, 181.0, 185.0, 174.0]",0.18736080825328827,0.0,0.000152587890625,-0.00018310546875,-27.981369018554688
1743582255.7783823,0.0,-0.0,"[174.0, 185.0, 181.0, 156.0, 154.0, 154.0, 156.0, 181.0, 185.0, 174.0]",0.14178858697414398,0.0,0.000152587890625,-0.00018310546875,-27.984207153320312
1743582255.7977417,0.0,-0.0,"[174.0, 185.0, 181.0, 156.0, 154.0, 154.0, 156.0, 181.0, 185.0, 174.0]",0.029063668102025986,0.0,0.000152587890625,-0.00018310546875,-27.983627319335938
1743582255.8169262,0.0,-0.0,"[174.0, 185.0, 181.0, 156.0, 154.0, 154.0, 156.0, 181.0, 185.0, 174.0]",0.18674378097057343,0.0,0.000152587890625,-0.0001850128173828125,-27.98735809326172
1743582255.8370697,0.0,-0.0,"[174.0, 185.0, 181.0, 156.0, 154.0, 154.0, 156.0, 181.0, 185.0, 174.0]",0.14258873462677002,0.0,0.000152587890625,-0.0001850128173828125,-27.990211486816406
1743582255.857876,0.0,-0.0,"[174.0, 185.0, 181.0, 156.0, 154.0, 154.0, 156.0, 181.0, 185.0, 174.0]",0.02307492308318615,0.0,0.00018310546875,-0.0001850128173828125,-27.98974609375
1743582255.8776903,0.0,-0.0,"[174.0, 185.0, 181.0, 156.0, 154.0, 154.0, 156.0, 181.0, 185.0, 174.0]",0.1900855153799057,0.0,0.00018310546875,-0.0001850128173828125,-27.993553161621094
1743582255.8993683,0.0,-0.0,"[174.0, 185.0, 181.0, 156.0, 154.0, 154.0, 156.0, 181.0, 185.0, 174.0]",0.13905145227909088,0.0,0.00018310546875,-0.0001850128173828125,-27.99633026123047
1743582255.9181764,0.0,-0.0,"[174.0, 185.0, 181.0, 156.0, 154.0, 154.0, 156.0, 181.0, 185.0, 174.0]",0.04994054138660431,0.0,0.00018310546875,-0.00018310546875,-27.995330810546875
1743582255.9397173,0.0,-0.0,"[174.0, 185.0, 181.0, 156.0, 154.0, 154.0, 156.0, 181.0, 185.0, 174.0]",0.19472846388816833,0.0,0.00018310546875,-0.00018310546875,-27.999229431152344
1743582255.9621084,0.0,-0.0,"[174.0, 185.0, 181.0, 156.0, 154.0, 154.0, 156.0, 181.0, 185.0, 174.0]",0.12847186625003815,0.0,0.000213623046875,-0.00018310546875,-28.001800537109375
1743582255.979895,0.0,-0.0,"[174.0, 185.0, 181.0, 156.0, 154.0, 154.0, 156.0, 181.0, 185.0, 174.0]",0.13031108677387238,0.0,0.000213623046875,-0.00018310546875,-27.999191284179688
1743582255.999129,0.0,0.3385607572031736,"[174.0, 185.0, 181.0, 156.0, 154.0, 154.0, 156.0, 181.0, 185.0, 174.0]",0.13635636866092682,0.0,0.000213623046875,-0.00018310546875,-28.001922607421875
1743582256.0183442,0.0,0.5248921263861179,"[174.0, 185.0, 181.0, 156.0, 154.0, 154.0, 156.0, 181.0, 185.0, 174.0]",0.06499745696783066,0.0,0.000213623046875,-0.0001811981201171875,-28.00061798095703
1743582256.0394692,0.0,0.7921403052939266,"[174.0, 185.0, 181.0, 156.0, 154.0, 154.0, 156.0, 181.0, 185.0, 174.0]",0.17430318892002106,0.0,0.000213623046875,-0.0001811981201171875,-28.004104614257812
1743582256.0584035,0.0,1.0296942421008677,"[174.0, 185.0, 181.0, 156.0, 154.0, 154.0, 156.0, 181.0, 185.0, 174.0]",0.1337314248085022,0.0,0.000244140625,-0.0001811981201171875,-28.00677490234375
1743582256.0796032,0.0,1.0296942421008677,"[174.0, 185.0, 181.0, 156.0, 154.0, 154.0, 156.0, 181.0, 185.0, 174.0]",0.09259463846683502,0.0,0.000244140625,-0.0001811981201171875,-28.004928588867188
1743582256.0992804,0.0,1.0296942421008677,"[174.0, 185.0, 181.0, 156.0, 154.0, 154.0, 156.0, 181.0, 185.0, 174.0]",0.21072831749916077,0.0,0.000244140625,-0.0001811981201171875,-28.009140014648438
1743582256.1189876,0.0,1.0296942421008677,"[174.0, 185.0, 181.0, 156.0, 154.0, 154.0, 156.0, 181.0, 185.0, 174.0]",0.08135238289833069,0.0,-0.00115966796875,-0.0001811981201171875,-28.00994110107422
1743582256.1397622,0.0,1.0296942421008677,"[174.0, 185.0, 181.0, 156.0, 154.0, 154.0, 156.0, 181.0, 185.0, 174.0]",0.2566233277320862,0.0,-0.006256103515625,-0.000179290771484375,-28.009201049804688
1743582256.1623065,0.0,1.0296942421008677,"[174.0, 185.0, 181.0, 156.0, 154.0, 154.0, 156.0, 181.0, 185.0, 174.0]",0.3829704225063324,0.0,-0.013885498046875,-0.000179290771484375,-28.008819580078125
1743582256.1808028,0.0,1.0296942421008677,"[174.0, 185.0, 181.0, 156.0, 154.0, 154.0, 156.0, 181.0, 185.0, 174.0]",0.5086779594421387,0.0,-0.024078369140625,-0.000179290771484375,-28.008956909179688
1743582256.1989233,0.0,1.0296942421008677,"[174.0, 185.0, 181.0, 156.0, 154.0, 154.0, 156.0, 181.0, 185.0, 174.0]",0.6623057723045349,0.0,-0.037322998046875,-0.000179290771484375,-28.008949279785156
1743582256.2192643,0.0,1.0296942421008677,"[174.0, 185.0, 181.0, 156.0, 154.0, 154.0, 156.0, 181.0, 185.0, 174.0]",0.7962977886199951,0.0,-0.053253173828125,-0.000179290771484375,-28.00896453857422
1743582256.2400923,0.0,1.0296942421008677,"[174.0, 185.0, 181.0, 156.0, 154.0, 154.0, 156.0, 181.0, 185.0, 174.0]",0.9202850461006165,0.0,-0.0716552734375,-0.000179290771484375,-28.00897216796875
1743582256.2587492,0.0,1.0296942421008677,"[174.0, 185.0, 181.0, 156.0, 154.0, 154.0, 156.0, 181.0, 185.0, 174.0]",1.0331084728240967,0.0,-0.092315673828125,-0.000179290771484375,-28.008987426757812
1743582256.2797737,0.0,1.0296942421008677,"[174.0, 185.0, 181.0, 156.0, 154.0, 154.0, 156.0, 181.0, 185.0, 174.0]",1.1713292598724365,0.0,-0.115753173828125,-0.000179290771484375,-28.009010314941406
1743582256.2997508,0.0,1.0296942421008677,"[174.0, 185.0, 181.0, 156.0, 154.0, 154.0, 156.0, 181.0, 185.0, 174.0]",1.345455288887024,0.0,-0.14263916015625,-0.000179290771484375,-28.00904083251953
1743582256.3200054,0.0,1.0296942421008677,"[174.0, 185.0, 181.0, 156.0, 154.0, 154.0, 156.0, 181.0, 185.0, 174.0]",1.4541027545928955,0.0,-0.171722412109375,-0.000179290771484375,-28.009078979492188
1743582256.3392394,0.0,1.0296942421008677,"[174.0, 185.0, 181.0, 156.0, 154.0, 154.0, 156.0, 181.0, 185.0, 174.0]",1.5860240459442139,0.0,-0.203460693359375,-0.000179290771484375,-28.009109497070312
1743582256.3620772,0.0,1.0313645432190415,"[174.0, 185.0, 181.0, 156.0, 154.0, 154.0, 156.0, 181.0, 185.0, 174.0]",1.729231357574463,0.0,-0.238037109375,-0.000179290771484375,-28.0091552734375
1743582256.3793485,0.0,1.0313645432190415,"[174.0, 185.0, 181.0, 156.0, 154.0, 154.0, 156.0, 181.0, 185.0, 174.0]",1.842366337776184,0.0,-0.274871826171875,-0.000179290771484375,-28.009193420410156
1743582256.3999155,0.0,1.0313645432190415,"[174.0, 185.0, 181.0, 156.0, 154.0, 154.0, 156.0, 181.0, 185.0, 174.0]",2.0039401054382324,0.0,-0.314971923828125,-0.000179290771484375,-28.009239196777344
1743582256.419244,0.0,1.0313645432190415,"[174.0, 185.0, 181.0, 156.0, 154.0, 154.0, 156.0, 181.0, 185.0, 174.0]",2.118455171585083,0.0,-0.357330322265625,-0.000179290771484375,-28.00928497314453
1743582256.4387925,0.0,1.0313645432190415,"[174.0, 185.0, 181.0, 156.0, 154.0, 154.0, 156.0, 181.0, 185.0, 174.0]",2.277225971221924,0.0,-0.402862548828125,-0.0001811981201171875,-28.009315490722656
1743582256.4581432,0.0,1.0313645432190415,"[174.0, 185.0, 181.0, 156.0, 154.0, 154.0, 156.0, 181.0, 185.0, 174.0]",2.3652870655059814,0.0,-0.450164794921875,-0.0001811981201171875,-28.00933837890625
1743582256.4792259,0.0,1.0313645432190415,"[174.0, 185.0, 181.0, 156.0, 154.0, 154.0, 156.0, 181.0, 185.0, 174.0]",2.5413105487823486,0.0,-0.501007080078125,-0.0001811981201171875,-28.009368896484375
1743582256.4982305,0.0,1.0313645432190415,"[174.0, 185.0, 181.0, 156.0, 154.0, 154.0, 156.0, 181.0, 185.0, 174.0]",2.6342854499816895,0.0,-0.553680419921875,-0.0001811981201171875,-28.0093994140625
1743582256.5181227,0.0,1.0313645432190415,"[174.0, 185.0, 181.0, 156.0, 154.0, 154.0, 156.0, 181.0, 185.0, 174.0]",2.798905372619629,0.0,-0.60968017578125,-0.0001811981201171875,-28.009429931640625
1743582256.5392041,0.0,1.0313645432190415,"[174.0, 185.0, 181.0, 156.0, 154.0, 154.0, 156.0, 181.0, 185.0, 174.0]",2.8907291889190674,0.0,-0.66748046875,-0.0001811981201171875,-28.00946807861328
1743582256.5614483,0.0,1.0313645432190415,"[174.0, 185.0, 181.0, 156.0, 154.0, 154.0, 156.0, 181.0, 185.0, 174.0]",3.0545918941497803,0.0,-0.72857666015625,-0.0001811981201171875,-28.009498596191406
1743582256.5800884,0.0,1.0313645432190415,"[174.0, 185.0, 181.0, 156.0, 154.0, 154.0, 156.0, 181.0, 185.0, 174.0]",3.193605899810791,0.0,-0.792449951171875,-0.0001811981201171875,-28.009536743164062
1743582256.6005688,0.0,1.0313645432190415,"[174.0, 185.0, 181.0, 156.0, 154.0, 154.0, 156.0, 181.0, 185.0, 174.0]",3.326725482940674,0.0,-0.858978271484375,-0.0001811981201171875,-28.00959014892578
1743582256.619171,0.0,1.0313645432190415,"[174.0, 185.0, 181.0, 156.0, 154.0, 154.0, 156.0, 181.0, 185.0, 174.0]",3.4434823989868164,0.0,-0.9278564453125,-0.0001811981201171875,-28.0096435546875
1743582256.638482,0.0,1.0313645432190415,"[174.0, 185.0, 181.0, 156.0, 154.0, 154.0, 156.0, 181.0, 185.0, 174.0]",3.587217330932617,0.0,-0.999603271484375,-0.0001811981201171875,-28.00971221923828
1743582256.66005,0.0,1.0313645432190415,"[174.0, 185.0, 181.0, 156.0, 154.0, 154.0, 156.0, 181.0, 185.0, 174.0]",3.7289175987243652,0.0,-1.074188232421875,-0.0001811981201171875,-28.009765625
1743582256.6797328,0.0,1.0313645432190415,"[174.0, 185.0, 181.0, 156.0, 154.0, 154.0, 156.0, 181.0, 185.0, 174.0]",3.825519561767578,0.0,-1.15069580078125,-0.0001811981201171875,-28.00982666015625
1743582256.699113,0.0,1.0313645432190415,"[174.0, 185.0, 181.0, 156.0, 154.0, 154.0, 156.0, 181.0, 185.0, 174.0]",3.978131055831909,0.0,-1.230255126953125,-0.0001811981201171875,-28.0098876953125
1743582256.7196887,0.0,1.0313645432190415,"[174.0, 185.0, 181.0, 156.0, 154.0, 154.0, 156.0, 181.0, 185.0, 174.0]",4.102234840393066,0.0,-1.312286376953125,-0.0001811981201171875,-28.00995635986328
1743582256.7396116,0.0,1.0313645432190415,"[174.0, 185.0, 181.0, 156.0, 154.0, 154.0, 156.0, 181.0, 185.0, 174.0]",4.242100238800049,0.0,-1.397125244140625,-0.0001811981201171875,-28.010032653808594
1743582256.7621877,0.0,1.0313645432190415,"[174.0, 185.0, 181.0, 156.0, 154.0, 154.0, 156.0, 181.0, 185.0, 174.0]",4.370917797088623,0.0,-1.48455810546875,-0.0001811981201171875,-28.010108947753906
1743582256.7791424,0.0,1.0313645432190415,"[174.0, 185.0, 181.0, 156.0, 154.0, 154.0, 156.0, 181.0, 185.0, 174.0]",4.492498397827148,0.0,-1.57440185546875,-0.0001811981201171875,-28.01020050048828
1743582256.7993846,0.0,1.0313645432190415,"[174.0, 185.0, 181.0, 156.0, 154.0, 154.0, 156.0, 181.0, 185.0, 174.0]",4.623939514160156,0.0,-1.6668701171875,-0.0001811981201171875,-28.010284423828125
1743582256.8191895,0.0,1.0313645432190415,"[174.0, 185.0, 181.0, 156.0, 154.0, 154.0, 156.0, 181.0, 185.0, 174.0]",4.7553582191467285,0.0,-1.761993408203125,-0.0001811981201171875,-28.0103759765625
1743582256.8388534,0.0,1.0313645432190415,"[174.0, 185.0, 181.0, 156.0, 154.0, 154.0, 156.0, 181.0, 185.0, 174.0]",4.885191917419434,0.0,-1.85968017578125,-0.0001811981201171875,-28.010467529296875
1743582256.8601327,0.0,1.0313645432190415,"[174.0, 185.0, 181.0, 156.0, 154.0, 154.0, 156.0, 181.0, 185.0, 174.0]",5.010229587554932,0.0,-1.95989990234375,-0.0001811981201171875,-28.01056671142578
1743582256.8794808,0.0,1.0313645432190415,"[174.0, 185.0, 181.0, 156.0, 154.0, 154.0, 156.0, 181.0, 185.0, 174.0]",5.226027011871338,0.0,-2.064422607421875,0.000156402587890625,-28.010658264160156
1743582256.898848,0.0,1.0313645432190415,"[174.0, 185.0, 181.0, 156.0, 154.0, 154.0, 156.0, 181.0, 185.0, 174.0]",5.220244407653809,0.0,-2.1688232421875,0.0004425048828125,-28.01074981689453
1743582256.9194417,0.0,1.0313645432190415,"[174.0, 185.0, 181.0, 156.0, 154.0, 154.0, 156.0, 181.0, 185.0, 174.0]",5.422947883605957,0.0,-2.27728271484375,0.0006809234619140625,-28.010704040527344
1743582256.939266,0.0,1.0313645432190415,"[174.0, 185.0, 181.0, 156.0, 154.0, 154.0, 156.0, 181.0, 185.0, 174.0]",5.504792213439941,0.0,-2.387359619140625,0.0008716583251953125,-28.011192321777344
1743582256.9621081,0.0,1.0313645432190415,"[174.0, 185.0, 181.0, 156.0, 154.0, 154.0, 156.0, 181.0, 185.0, 174.0]",5.509068489074707,0.0,-2.49755859375,0.001018524169921875,-28.010726928710938
1743582256.9794865,0.0,1.0339163921495846,"[174.0, 185.0, 181.0, 156.0, 154.0, 154.0, 156.0, 181.0, 185.0, 174.0]",5.73567008972168,0.0,-2.612274169921875,0.0011272430419921875,-28.011802673339844
1743582257.0004106,0.0,1.0339163921495846,"[174.0, 185.0, 181.0, 156.0, 154.0, 154.0, 156.0, 181.0, 185.0, 174.0]",5.726110458374023,0.0,-2.726776123046875,0.0011997222900390625,-28.010467529296875
1743582257.0181077,0.0,1.0377209669187584,"[174.0, 185.0, 181.0, 156.0, 154.0, 154.0, 156.0, 181.0, 185.0, 174.0]",5.924325942993164,0.0,-2.845245361328125,0.001239776611328125,-28.01280975341797
1743582257.039129,0.0,1.0377209669187584,"[174.0, 185.0, 181.0, 156.0, 155.0, 154.0, 156.0, 181.0, 185.0, 174.0]",6.063014507293701,0.0,-2.966461181640625,0.001255035400390625,-28.010284423828125
1743582257.058101,0.0,1.0398088433164756,"[174.0, 185.0, 181.0, 156.0, 154.0, 155.0, 156.0, 181.0, 185.0, 174.0]",6.1379570960998535,0.0,-3.08917236328125,0.001247406005859375,-28.014251708984375
1743582257.0790884,0.0,1.0398088433164756,"[174.0, 185.0, 181.0, 156.0, 155.0, 154.0, 156.0, 180.0, 185.0, 174.0]",6.284955024719238,0.0,-3.21484375,0.0012226104736328125,-28.01166534423828
1743582257.1002653,0.0,1.0413863499280842,"[174.0, 185.0, 181.0, 156.0, 154.0, 155.0, 156.0, 181.0, 185.0, 174.0]",6.326748847961426,0.0,-3.34136962890625,0.00118255615234375,-28.013763427734375
1743582257.1192713,0.0,1.0413863499280842,"[174.0, 185.0, 181.0, 156.0, 154.0, 154.0, 156.0, 181.0, 185.0, 174.0]",6.593560218811035,0.0,-3.473236083984375,0.001132965087890625,-28.014068603515625
1743582257.1384525,0.0,1.0413863499280842,"[174.0, 185.0, 181.0, 156.0, 154.0, 155.0, 156.0, 181.0, 185.0, 174.0]",6.79863977432251,0.0,-3.60919189453125,0.00107574462890625,-28.01397705078125
1743582257.162104,0.0,1.0413863499280842,"[174.0, 185.0, 181.0, 156.0, 155.0, 154.0, 156.0, 181.0, 185.0, 174.0]",6.76088285446167,0.0,-3.744415283203125,0.00101470947265625,-28.012367248535156
1743582257.1812963,0.0,1.0413863499280842,"[174.0, 185.0, 181.0, 156.0, 154.0, 155.0, 156.0, 181.0, 185.0, 174.0]",7.047990322113037,0.0,-3.8853759765625,0.0009517669677734375,-28.01323699951172
1743582257.201718,0.0,1.0413863499280842,"[174.0, 185.0, 181.0, 156.0, 154.0, 154.0, 156.0, 181.0, 185.0, 174.0]",7.114791393280029,0.0,-4.02764892578125,0.000888824462890625,-28.011627197265625
1743582257.2194078,0.0,1.0413863499280842,"[174.0, 185.0, 181.0, 156.0, 154.0, 154.0, 156.0, 181.0, 185.0, 174.0]",7.106355667114258,0.0,-4.169769287109375,0.000827789306640625,-28.013282775878906
1743582257.23873,0.0,1.0413863499280842,"[174.0, 185.0, 181.0, 156.0, 154.0, 154.0, 156.0, 181.0, 185.0, 174.0]",7.344988822937012,0.0,-4.316650390625,0.00077056884765625,-28.011825561523438
1743582257.2600596,0.0,1.0413863499280842,"[174.0, 185.0, 181.0, 156.0, 154.0, 154.0, 156.0, 181.0, 185.0, 174.0]",7.313032627105713,0.0,-4.462921142578125,0.0007190704345703125,-28.012802124023438
1743582257.2788544,0.0,1.0413863499280842,"[174.0, 185.0, 181.0, 156.0, 154.0, 154.0, 156.0, 181.0, 185.0, 174.0]",7.633832931518555,0.0,-4.6156005859375,0.0006694793701171875,-28.011306762695312
1743582257.2992535,0.0,1.0413863499280842,"[174.0, 185.0, 181.0, 156.0, 154.0, 154.0, 156.0, 181.0, 185.0, 174.0]",7.683536529541016,0.0,-4.769256591796875,0.0006275177001953125,-28.01190185546875
1743582257.3195367,0.0,1.0413863499280842,"[174.0, 185.0, 181.0, 156.0, 154.0, 154.0, 156.0, 181.0, 185.0, 174.0]",7.864063739776611,0.0,-4.926544189453125,0.000591278076171875,-28.011642456054688
1743582257.3391597,0.0,1.0413863499280842,"[174.0, 185.0, 181.0, 156.0, 154.0, 154.0, 156.0, 181.0, 185.0, 174.0]",7.946722984313965,0.0,-5.085479736328125,0.000560760498046875,-28.0113525390625
1743582257.3605924,0.0,1.0413863499280842,"[174.0, 185.0, 181.0, 156.0, 154.0, 154.0, 156.0, 181.0, 185.0, 174.0]",7.938111782073975,0.0,-5.244232177734375,0.0005340576171875,-28.011871337890625
1743582257.3787603,0.0,1.0413863499280842,"[174.0, 185.0, 181.0, 156.0, 154.0, 154.0, 156.0, 181.0, 185.0, 174.0]",8.069815635681152,0.0,-5.4056396484375,0.000514984130859375,-28.010787963867188
1743582257.4006827,0.0,1.0413863499280842,"[174.0, 185.0, 181.0, 156.0, 154.0, 154.0, 156.0, 181.0, 185.0, 174.0]",8.335000038146973,0.0,-5.57232666015625,0.0004978179931640625,-28.01165771484375
1743582257.4200122,0.0,1.0413863499280842,"[174.0, 185.0, 181.0, 156.0, 154.0, 154.0, 156.0, 181.0, 185.0, 174.0]",8.316526412963867,0.0,-5.7386474609375,0.00048828125,-28.010826110839844
1743582257.439088,0.0,1.0413863499280842,"[174.0, 185.0, 181.0, 156.0, 154.0, 154.0, 156.0, 181.0, 185.0, 174.0]",8.439645767211914,0.0,-5.907440185546875,0.00048065185546875,-28.010986328125
1743582257.4603038,0.0,1.0413863499280842,"[174.0, 185.0, 181.0, 156.0, 154.0, 154.0, 156.0, 181.0, 185.0, 174.0]",8.575194358825684,0.0,-6.078948974609375,0.000476837158203125,-28.011032104492188
1743582257.4789615,0.0,1.0413863499280842,"[174.0, 185.0, 181.0, 156.0, 154.0, 154.0, 156.0, 181.0, 185.0, 174.0]",8.93227767944336,0.0,-6.257598876953125,0.0004749298095703125,-28.010826110839844
1743582257.4995866,0.0,1.0413863499280842,"[174.0, 185.0, 181.0, 156.0, 154.0, 154.0, 156.0, 181.0, 185.0, 174.0]",8.942785263061523,0.0,-6.43646240234375,0.000476837158203125,-28.010826110839844
1743582257.5192766,0.0,1.0413863499280842,"[174.0, 185.0, 181.0, 156.0, 154.0, 154.0, 156.0, 181.0, 185.0, 174.0]",8.976990699768066,0.0,-6.615997314453125,0.00048065185546875,-28.010818481445312
1743582257.539125,0.0,1.0413863499280842,"[174.0, 185.0, 181.0, 156.0, 154.0, 154.0, 156.0, 181.0, 185.0, 174.0]",9.106550216674805,0.0,-6.798126220703125,0.000484466552734375,-28.010894775390625
1743582257.5609388,0.0,1.0413863499280842,"[174.0, 185.0, 181.0, 156.0, 154.0, 154.0, 156.0, 181.0, 185.0, 174.0]",9.23116397857666,0.0,-6.982757568359375,0.0004901885986328125,-28.010665893554688
1743582257.5797544,0.0,1.0413863499280842,"[174.0, 185.0, 181.0, 156.0, 154.0, 154.0, 156.0, 181.0, 185.0, 174.0]",9.410428047180176,0.0,-7.17095947265625,0.0004978179931640625,-28.010208129882812
1743582257.6000881,0.0,1.0413863499280842,"[174.0, 185.0, 181.0, 156.0, 154.0, 154.0, 156.0, 181.0, 185.0, 174.0]",9.620184898376465,0.0,-7.363372802734375,0.0005035400390625,-28.01000213623047
1743582257.6217813,0.0,1.0413863499280842,"[174.0, 185.0, 181.0, 156.0, 154.0, 154.0, 156.0, 181.0, 185.0, 174.0]",9.640135765075684,0.0,-7.55615234375,0.00051116943359375,-28.009933471679688
1743582257.638731,0.0,1.0413863499280842,"[174.0, 185.0, 181.0, 156.0, 154.0, 154.0, 156.0, 181.0, 185.0, 174.0]",9.793418884277344,0.0,-7.75201416015625,0.000518798828125,-28.009849548339844
1743582257.6586509,0.0,1.0413863499280842,"[174.0, 185.0, 181.0, 156.0, 154.0, 154.0, 156.0, 181.0, 185.0, 174.0]",9.733784675598145,0.0,-7.94671630859375,0.0005245208740234375,-28.010040283203125
1743582257.679382,0.0,1.0413863499280842,"[174.0, 185.0, 181.0, 156.0, 154.0, 154.0, 156.0, 181.0, 185.0, 174.0]",9.817014694213867,0.0,-8.143035888671875,0.0005321502685546875,-28.009414672851562
1743582257.6998086,0.0,1.0413863499280842,"[174.0, 185.0, 181.0, 156.0, 154.0, 154.0, 156.0, 181.0, 185.0, 174.0]",10.050771713256836,0.0,-8.34405517578125,0.000537872314453125,-28.00945281982422
1743582257.7185473,0.0,1.0413863499280842,"[174.0, 185.0, 181.0, 156.0, 154.0, 154.0, 156.0, 181.0, 185.0, 174.0]",10.289989471435547,0.0,-8.54986572265625,0.00054168701171875,-28.009323120117188
1743582257.73975,0.0,1.0413863499280842,"[174.0, 185.0, 181.0, 156.0, 154.0, 154.0, 156.0, 181.0, 185.0, 174.0]",10.475164413452148,0.0,-8.759368896484375,0.0005474090576171875,-28.009429931640625
1743582257.7615583,0.0,1.0413863499280842,"[174.0, 185.0, 181.0, 156.0, 154.0, 154.0, 156.0, 181.0, 185.0, 174.0]",10.49704360961914,0.0,-8.96929931640625,0.0005512237548828125,-28.009109497070312
1743582257.7795398,0.0,1.0413863499280842,"[174.0, 185.0, 181.0, 156.0, 154.0, 154.0, 156.0, 181.0, 185.0, 174.0]",10.531343460083008,0.0,-9.179931640625,0.0005550384521484375,-28.009414672851562
1743582257.799562,0.0,1.0413863499280842,"[174.0, 185.0, 181.0, 156.0, 154.0, 154.0, 156.0, 181.0, 185.0, 174.0]",10.856460571289062,0.0,-9.397064208984375,0.00055694580078125,-28.008995056152344
1743582257.8202405,0.0,1.0413863499280842,"[174.0, 185.0, 181.0, 156.0, 154.0, 154.0, 156.0, 181.0, 185.0, 174.0]",10.632963180541992,0.0,-9.609710693359375,0.0005588531494140625,-28.0087890625
1743582257.8389096,0.0,1.0413863499280842,"[174.0, 185.0, 181.0, 156.0, 154.0, 154.0, 156.0, 181.0, 185.0, 174.0]",10.941048622131348,0.0,-9.82855224609375,0.000560760498046875,-28.00890350341797
1743582257.8581967,0.0,1.0413863499280842,"[174.0, 185.0, 181.0, 156.0, 154.0, 154.0, 156.0, 181.0, 185.0, 174.0]",11.118127822875977,0.0,-10.0509033203125,0.0005626678466796875,-28.00904083251953
1743582257.8785112,0.0,1.0413863499280842,"[174.0, 185.0, 181.0, 156.0, 154.0, 154.0, 156.0, 181.0, 185.0, 174.0]",11.30843448638916,0.0,-10.277069091796875,0.0005626678466796875,-28.00890350341797
1743582257.8989682,0.0,1.0413863499280842,"[174.0, 185.0, 181.0, 156.0, 154.0, 154.0, 156.0, 181.0, 185.0, 174.0]",11.363260269165039,0.0,-10.50433349609375,0.0005626678466796875,-28.008460998535156
1743582257.9186182,0.0,1.0413863499280842,"[174.0, 185.0, 181.0, 156.0, 154.0, 154.0, 156.0, 181.0, 185.0, 174.0]",11.579122543334961,0.0,-10.735931396484375,0.0005645751953125,-28.008628845214844
1743582257.938942,0.0,1.0413863499280842,"[174.0, 185.0, 181.0, 156.0, 154.0, 154.0, 156.0, 181.0, 185.0, 174.0]",11.484081268310547,0.0,-10.965606689453125,0.0005626678466796875,-28.008384704589844
1743582257.9615698,0.0,1.0413863499280842,"[174.0, 185.0, 181.0, 156.0, 154.0, 154.0, 156.0, 181.0, 185.0, 174.0]",11.867156028747559,0.0,-11.20294189453125,0.0005626678466796875,-28.00836944580078
1743582257.9786236,0.0,1.0413863499280842,"[174.0, 185.0, 181.0, 156.0, 154.0, 154.0, 156.0, 181.0, 185.0, 174.0]",11.798016548156738,0.0,-11.43890380859375,0.0005626678466796875,-28.008392333984375
