timestamp,steering_input,acceleration_input,raycasts,speed,steering,position_x,position_y,position_z
1743581368.9258232,0.0,-0.0,"[174.0, 185.0, 227.0, 295.0, 259.0, 259.0, 295.0, 227.0, 185.0, 174.0]",0.0,0.0,0.0,0.10000038146972656,-27.93000030517578
1743581369.1329076,0.0,-0.0,"[174.0, 185.0, 178.0, 155.0, 154.0, 154.0, 156.0, 179.0, 185.0, 174.0]",0.1431841105222702,0.0,0.0,0.097137451171875,-27.93000030517578
1743581369.179444,0.0,-0.0,"[174.0, 185.0, 178.0, 155.0, 154.0, 154.0, 156.0, 179.0, 185.0, 174.0]",0.2360968291759491,0.0,0.0,0.09241485595703125,-27.93000030517578
1743581369.2162607,0.0,-0.0,"[174.0, 185.0, 179.0, 155.0, 154.0, 154.0, 156.0, 179.0, 185.0, 174.0]",0.30777978897094727,0.0,0.0,0.08625984191894531,-27.93000030517578
1743581369.2208548,0.0,-0.0,"[174.0, 185.0, 179.0, 155.0, 154.0, 154.0, 156.0, 179.0, 185.0, 174.0]",0.36006540060043335,0.0,0.0,0.07905769348144531,-27.93000030517578
1743581369.255906,0.0,-0.0,"[174.0, 185.0, 179.0, 155.0, 154.0, 154.0, 156.0, 179.0, 185.0, 174.0]",0.3949472904205322,0.0,0.0,0.07115936279296875,-27.93000030517578
1743581369.2598522,0.0,-0.0,"[174.0, 185.0, 179.0, 155.0, 154.0, 154.0, 156.0, 179.0, 185.0, 174.0]",0.41450235247612,0.0,0.0,0.06286811828613281,-27.93000030517578
1743581369.2917416,0.0,-0.0,"[174.0, 185.0, 179.0, 155.0, 154.0, 154.0, 156.0, 180.0, 185.0, 174.0]",0.42082807421684265,0.0,0.0,0.05445289611816406,-27.93000030517578
1743581369.2950752,0.0,-0.0,"[174.0, 185.0, 179.0, 155.0, 154.0, 154.0, 156.0, 180.0, 185.0, 174.0]",0.41598936915397644,0.0,0.0,0.04613304138183594,-27.93000030517578
1743581369.325992,0.0,-0.0,"[174.0, 185.0, 179.0, 155.0, 154.0, 154.0, 156.0, 181.0, 185.0, 174.0]",0.4019714593887329,0.0,0.0,0.03809356689453125,-27.93000030517578
1743581369.3288004,0.0,-0.0,"[174.0, 185.0, 179.0, 155.0, 154.0, 154.0, 156.0, 181.0, 185.0, 174.0]",0.3806484043598175,0.0,0.0,0.03047943115234375,-27.93000030517578
1743581369.3629322,0.0,-0.0,"[174.0, 185.0, 180.0, 156.0, 154.0, 154.0, 156.0, 181.0, 185.0, 174.0]",0.3537571132183075,0.0,0.0,0.023405075073242188,-27.93000030517578
1743581369.366344,0.0,-0.0,"[174.0, 185.0, 180.0, 156.0, 154.0, 154.0, 156.0, 181.0, 185.0, 174.0]",0.3228750228881836,0.0,0.0,0.016946792602539062,-27.92999267578125
1743581369.4010866,0.0,-0.0,"[174.0, 185.0, 180.0, 156.0, 154.0, 154.0, 156.0, 181.0, 185.0, 174.0]",0.28941938281059265,0.0,0.0,0.011159896850585938,-27.930038452148438
1743581369.4042718,0.0,-0.0,"[174.0, 185.0, 180.0, 156.0, 154.0, 154.0, 156.0, 181.0, 185.0, 174.0]",0.2562173306941986,0.0,0.0,0.0060672760009765625,-27.929466247558594
1743581369.4351895,0.0,-0.0,"[174.0, 185.0, 181.0, 156.0, 154.0, 154.0, 156.0, 181.0, 185.0, 174.0]",0.34839218854904175,0.0,0.0,0.0016765594482421875,-27.93487548828125
1743581369.4664273,0.0,-0.0,"[174.0, 185.0, 181.0, 156.0, 154.0, 154.0, 156.0, 181.0, 185.0, 174.0]",0.255353718996048,0.0,0.0,-0.0020236968994140625,-27.931358337402344
1743581369.4698098,0.0,-0.0,"[174.0, 185.0, 181.0, 156.0, 154.0, 154.0, 156.0, 181.0, 185.0, 174.0]",0.2815416157245636,0.0,0.0,-0.0050601959228515625,-27.926612854003906
1743581369.5017986,0.0,-0.0,"[174.0, 185.0, 181.0, 156.0, 154.0, 154.0, 156.0, 181.0, 185.0, 174.0]",0.15634490549564362,0.0,0.0,-0.007472991943359375,-27.928604125976562
1743581369.505417,0.0,-0.0,"[174.0, 185.0, 181.0, 156.0, 154.0, 154.0, 156.0, 181.0, 185.0, 174.0]",0.27455902099609375,0.0,0.0,-0.009307861328125,-27.923431396484375
1743581369.5416996,0.0,-0.0,"[174.0, 185.0, 181.0, 156.0, 154.0, 154.0, 156.0, 181.0, 185.0, 174.0]",0.2245660424232483,0.0,0.0,-0.010616302490234375,-27.92772674560547
1743581369.573791,0.0,-0.0,"[174.0, 185.0, 181.0, 156.0, 154.0, 154.0, 156.0, 181.0, 185.0, 174.0]",0.08891011029481888,0.0,0.0,-0.011455535888671875,-27.929290771484375
1743581369.576977,0.0,-0.0,"[174.0, 185.0, 181.0, 156.0, 154.0, 154.0, 156.0, 181.0, 185.0, 174.0]",0.1896505206823349,0.0,0.0,-0.011884689331054688,-27.925521850585938
1743581369.6120062,0.0,-0.0,"[174.0, 185.0, 181.0, 156.0, 154.0, 154.0, 156.0, 181.0, 185.0, 174.0]",0.2066076397895813,0.0,0.0,-0.011960983276367188,-27.92139434814453
1743581369.6181276,0.0,-0.0,"[174.0, 185.0, 181.0, 156.0, 154.0, 154.0, 156.0, 181.0, 185.0, 174.0]",0.12101753056049347,0.0,0.0,-0.011743545532226562,-27.918983459472656
1743581369.6515715,0.0,-0.0,"[174.0, 185.0, 181.0, 156.0, 154.0, 154.0, 156.0, 181.0, 185.0, 174.0]",0.19259010255336761,0.0,0.0,-0.011285781860351562,-27.922805786132812
1743581369.655609,0.0,-0.0,"[174.0, 185.0, 181.0, 156.0, 154.0, 154.0, 156.0, 181.0, 185.0, 174.0]",0.17800575494766235,0.0,0.0,-0.010637283325195312,-27.926307678222656
1743581369.6905406,0.0,-0.0,"[174.0, 185.0, 181.0, 156.0, 154.0, 154.0, 156.0, 181.0, 185.0, 174.0]",0.16013549268245697,0.0,0.0,-0.009847640991210938,-27.929412841796875
1743581369.6955144,0.0,-0.0,"[174.0, 185.0, 181.0, 156.0, 154.0, 154.0, 156.0, 181.0, 185.0, 174.0]",0.07219173014163971,0.0,0.0,-0.0089569091796875,-27.9305419921875
1743581369.7282434,0.0,-0.0,"[174.0, 185.0, 181.0, 156.0, 154.0, 154.0, 156.0, 181.0, 185.0, 174.0]",0.1852148175239563,0.0,0.0,-0.008007049560546875,-27.926963806152344
1743581369.7337308,0.0,-0.0,"[174.0, 185.0, 181.0, 156.0, 154.0, 154.0, 156.0, 181.0, 185.0, 174.0]",0.15632963180541992,0.0,0.0,-0.00702667236328125,-27.923995971679688
1743581369.7732806,0.0,-0.0,"[174.0, 185.0, 181.0, 156.0, 154.0, 154.0, 156.0, 181.0, 185.0, 174.0]",0.051327187567949295,0.0,0.0,-0.0060482025146484375,-27.923690795898438
1743581369.780172,0.0,-0.0,"[174.0, 185.0, 181.0, 156.0, 154.0, 154.0, 156.0, 181.0, 185.0, 174.0]",0.15988554060459137,0.0,0.0,-0.0050907135009765625,-27.926742553710938
1743581369.8203163,0.0,-0.0,"[174.0, 185.0, 181.0, 156.0, 154.0, 154.0, 156.0, 181.0, 185.0, 174.0]",0.05791441351175308,0.0,0.0,-0.004177093505859375,-27.927452087402344
1743581369.827816,0.0,-0.0,"[174.0, 185.0, 181.0, 156.0, 154.0, 154.0, 156.0, 181.0, 185.0, 174.0]",0.19991730153560638,0.0,0.0,-0.0033206939697265625,-27.923545837402344
1743581369.8305361,0.0,-0.0,"[174.0, 185.0, 181.0, 156.0, 154.0, 154.0, 156.0, 181.0, 185.0, 174.0]",0.12208718806505203,0.0,0.0,-0.0025310516357421875,-27.921234130859375
1743581369.8621883,0.0,-0.0,"[174.0, 185.0, 181.0, 156.0, 154.0, 154.0, 156.0, 181.0, 185.0, 174.0]",0.18460233509540558,0.0,0.0,-0.0018177032470703125,-27.92485809326172
1743581369.866493,0.0,-0.0,"[174.0, 185.0, 181.0, 156.0, 154.0, 154.0, 156.0, 181.0, 185.0, 174.0]",0.13353228569030762,0.0,0.0,-0.0011844635009765625,-27.927452087402344
1743581369.899055,0.0,-0.0,"[174.0, 185.0, 181.0, 156.0, 154.0, 154.0, 156.0, 181.0, 185.0, 174.0]",0.11446059495210648,0.0,3.0517578125e-05,-0.00063323974609375,-27.92523193359375
1743581369.9342473,0.0,-0.0,"[174.0, 185.0, 181.0, 156.0, 154.0, 154.0, 156.0, 181.0, 185.0, 174.0]",0.18039268255233765,0.0,3.0517578125e-05,-0.0001621246337890625,-27.928802490234375
1743581369.938606,0.0,-0.0,"[174.0, 185.0, 181.0, 156.0, 154.0, 154.0, 156.0, 181.0, 185.0, 174.0]",0.12967412173748016,0.0,3.0517578125e-05,0.0002288818359375,-27.931365966796875
1743581369.9746137,0.0,-0.0,"[174.0, 185.0, 181.0, 156.0, 154.0, 154.0, 156.0, 181.0, 185.0, 174.0]",0.1237604022026062,0.0,3.0517578125e-05,0.000545501708984375,-27.928909301757812
1743581369.9787757,0.0,-0.0,"[174.0, 185.0, 181.0, 156.0, 154.0, 154.0, 156.0, 181.0, 185.0, 174.0]",0.1935333013534546,0.0,3.0517578125e-05,0.0007915496826171875,-27.932777404785156
1743581370.011138,0.0,-0.0,"[174.0, 185.0, 181.0, 156.0, 154.0, 154.0, 156.0, 181.0, 185.0, 174.0]",0.12180628627538681,0.0,6.103515625e-05,0.000972747802734375,-27.935203552246094
1743581370.0159912,0.0,-0.0,"[174.0, 185.0, 181.0, 156.0, 154.0, 154.0, 156.0, 181.0, 185.0, 174.0]",0.16159525513648987,0.0,6.103515625e-05,0.0010967254638671875,-27.931976318359375
1743581370.051679,0.0,-0.0,"[174.0, 185.0, 181.0, 156.0, 154.0, 154.0, 156.0, 181.0, 185.0, 174.0]",0.0772232785820961,0.0,6.103515625e-05,0.0011692047119140625,-27.930435180664062
1743581370.0548754,0.0,-0.0,"[174.0, 185.0, 181.0, 156.0, 154.0, 154.0, 156.0, 181.0, 185.0, 174.0]",0.184142604470253,0.0,6.103515625e-05,0.00119781494140625,-27.934112548828125
1743581370.0904484,0.0,-0.0,"[174.0, 185.0, 181.0, 156.0, 154.0, 154.0, 156.0, 181.0, 185.0, 174.0]",0.1367751508951187,0.0,6.103515625e-05,0.0011882781982421875,-27.936851501464844
1743581370.0960102,0.0,-0.0,"[174.0, 185.0, 181.0, 156.0, 154.0, 154.0, 156.0, 181.0, 185.0, 174.0]",0.06419677287340164,0.0,6.103515625e-05,0.001148223876953125,-27.935569763183594
1743581370.19073,0.0,-0.0,"[174.0, 185.0, 181.0, 156.0, 154.0, 154.0, 156.0, 181.0, 185.0, 174.0]",0.1747168004512787,0.0,6.103515625e-05,0.0010833740234375,-27.939064025878906
1743581370.197034,0.0,-0.0,"[174.0, 185.0, 181.0, 156.0, 154.0, 154.0, 156.0, 181.0, 185.0, 174.0]",0.1311485320329666,0.0,9.1552734375e-05,0.00099945068359375,-27.941680908203125
1743581370.1998234,0.0,-0.0,"[174.0, 185.0, 181.0, 156.0, 154.0, 154.0, 156.0, 181.0, 185.0, 174.0]",0.11074256151914597,0.0,9.1552734375e-05,0.0009002685546875,-27.939468383789062
1743581370.2024004,0.0,-0.0,"[174.0, 185.0, 181.0, 156.0, 154.0, 154.0, 156.0, 181.0, 185.0, 174.0]",0.1801898330450058,0.0,9.1552734375e-05,0.00079345703125,-27.943069458007812
1743581370.2055204,0.0,-0.0,"[174.0, 185.0, 181.0, 156.0, 154.0, 154.0, 156.0, 181.0, 185.0, 174.0]",0.14138393104076385,0.0,9.1552734375e-05,0.00067901611328125,-27.945899963378906
1743581370.24201,0.0,-0.0,"[174.0, 185.0, 181.0, 156.0, 154.0, 154.0, 156.0, 181.0, 185.0, 174.0]",0.0333004854619503,0.0,9.1552734375e-05,0.0005645751953125,-27.94524383544922
1743581370.2461827,0.0,-0.0,"[174.0, 185.0, 181.0, 156.0, 154.0, 154.0, 156.0, 181.0, 185.0, 174.0]",0.19635771214962006,0.0,9.1552734375e-05,0.0004520416259765625,-27.94916534423828
1743581370.2491102,0.0,-0.0,"[174.0, 185.0, 181.0, 156.0, 154.0, 154.0, 156.0, 181.0, 185.0, 174.0]",0.12271545082330704,0.0,0.0001220703125,0.00034332275390625,-27.951614379882812
1743581370.2807527,0.0,-0.0,"[174.0, 185.0, 181.0, 156.0, 154.0, 154.0, 156.0, 181.0, 185.0, 174.0]",0.15798240900039673,0.0,0.0001220703125,0.0002384185791015625,-27.948455810546875
1743581370.2860734,0.0,-0.0,"[174.0, 185.0, 181.0, 156.0, 154.0, 154.0, 156.0, 181.0, 185.0, 174.0]",0.0622306689620018,0.0,0.0001220703125,0.0001430511474609375,-27.947219848632812
1743581370.3212574,0.0,-0.0,"[174.0, 185.0, 181.0, 156.0, 154.0, 154.0, 156.0, 181.0, 185.0, 174.0]",0.17492303252220154,0.0,0.0001220703125,5.53131103515625e-05,-27.950714111328125
1743581370.3578238,0.0,-0.0,"[174.0, 185.0, 181.0, 156.0, 154.0, 154.0, 156.0, 181.0, 185.0, 174.0]",0.13653863966464996,0.0,0.0001220703125,-2.288818359375e-05,-27.953445434570312
1743581370.3619514,0.0,-0.0,"[174.0, 185.0, 181.0, 156.0, 154.0, 154.0, 156.0, 181.0, 185.0, 174.0]",0.0718504786491394,0.0,0.0001220703125,-9.34600830078125e-05,-27.952011108398438
1743581370.3937287,0.0,-0.0,"[174.0, 185.0, 181.0, 156.0, 154.0, 154.0, 156.0, 181.0, 185.0, 174.0]",0.17569200694561005,0.0,0.0001220703125,-0.000152587890625,-27.955520629882812
1743581370.3974192,0.0,-0.0,"[174.0, 185.0, 181.0, 156.0, 154.0, 154.0, 156.0, 181.0, 185.0, 174.0]",0.13826613128185272,0.0,0.000152587890625,-0.000202178955078125,-27.958290100097656
1743581370.4326248,0.0,-0.0,"[174.0, 185.0, 181.0, 156.0, 154.0, 154.0, 156.0, 181.0, 185.0, 174.0]",0.05745533108711243,0.0,0.000152587890625,-0.000244140625,-27.957138061523438
1743581370.435562,0.0,-0.0,"[174.0, 185.0, 181.0, 156.0, 154.0, 154.0, 156.0, 181.0, 185.0, 174.0]",0.1775936484336853,0.0,0.000152587890625,-0.000278472900390625,-27.960693359375
1743581370.4663002,0.0,-0.0,"[174.0, 185.0, 181.0, 156.0, 154.0, 154.0, 156.0, 181.0, 185.0, 174.0]",0.14114311337471008,0.0,0.000152587890625,-0.0003032684326171875,-27.963516235351562
1743581370.4697456,0.0,-0.0,"[174.0, 185.0, 181.0, 156.0, 154.0, 154.0, 156.0, 181.0, 185.0, 174.0]",0.034520473331213,0.0,0.000152587890625,-0.0003204345703125,-27.96282196044922
1743581370.500046,0.0,-0.0,"[174.0, 185.0, 181.0, 156.0, 154.0, 154.0, 156.0, 181.0, 185.0, 174.0]",0.20195074379444122,0.0,0.00018310546875,-0.000331878662109375,-27.96686553955078
1743581370.502718,0.0,-0.0,"[174.0, 185.0, 181.0, 156.0, 154.0, 154.0, 156.0, 181.0, 185.0, 174.0]",0.09901262819766998,0.0,0.00018310546875,-0.000339508056640625,-27.968841552734375
1743581370.5374095,0.0,-0.0,"[174.0, 185.0, 181.0, 156.0, 154.0, 154.0, 156.0, 181.0, 185.0, 174.0]",0.20315459370613098,0.0,0.00018310546875,-0.000339508056640625,-27.96478271484375
1743581370.5709798,0.0,-0.0,"[174.0, 185.0, 181.0, 156.0, 154.0, 154.0, 156.0, 181.0, 185.0, 174.0]",0.09250973165035248,0.0,0.000152587890625,-0.0003376007080078125,-27.962928771972656
1743581370.574864,0.0,-0.0,"[174.0, 185.0, 181.0, 156.0, 154.0, 154.0, 156.0, 181.0, 185.0, 174.0]",0.21048150956630707,0.0,0.00018310546875,-0.000331878662109375,-27.967140197753906
1743581370.604405,0.0,-0.0,"[174.0, 185.0, 181.0, 156.0, 154.0, 154.0, 156.0, 181.0, 185.0, 174.0]",0.054807256907224655,0.0,0.00018310546875,-0.0003223419189453125,-27.968238830566406
1743581370.6084757,0.0,-0.0,"[174.0, 185.0, 181.0, 156.0, 154.0, 154.0, 156.0, 181.0, 185.0, 174.0]",0.18342110514640808,0.0,0.00018310546875,-0.00031280517578125,-27.964569091796875
1743581370.6399765,0.0,-0.0,"[174.0, 185.0, 181.0, 156.0, 154.0, 154.0, 156.0, 181.0, 185.0, 174.0]",0.14437030255794525,0.0,0.000152587890625,-0.0002994537353515625,-27.961685180664062
1743581370.6427782,0.0,-0.0,"[174.0, 185.0, 181.0, 156.0, 154.0, 154.0, 156.0, 181.0, 185.0, 174.0]",0.010325106792151928,0.0,0.000152587890625,-0.0002880096435546875,-27.961883544921875
1743581370.6759326,0.0,-0.0,"[174.0, 185.0, 181.0, 156.0, 154.0, 154.0, 156.0, 181.0, 185.0, 174.0]",0.08798801898956299,0.0,0.000152587890625,-0.000274658203125,-27.960128784179688
1743581370.7050798,0.0,-0.0,"[174.0, 185.0, 181.0, 156.0, 154.0, 154.0, 156.0, 181.0, 185.0, 174.0]",0.2099931389093399,0.0,0.00018310546875,-0.0002613067626953125,-27.964324951171875
1743581370.7088714,0.0,-0.0,"[174.0, 185.0, 181.0, 156.0, 154.0, 154.0, 156.0, 181.0, 185.0, 174.0]",0.05686913803219795,0.0,0.00018310546875,-0.000247955322265625,-27.96546173095703
1743581370.741892,0.0,-0.0,"[174.0, 185.0, 181.0, 156.0, 154.0, 154.0, 156.0, 181.0, 185.0, 174.0]",0.17966091632843018,0.0,0.00018310546875,-0.0002346038818359375,-27.961868286132812
1743581370.7459795,0.0,-0.0,"[174.0, 185.0, 181.0, 156.0, 154.0, 154.0, 156.0, 181.0, 185.0, 174.0]",0.14235873520374298,0.0,0.000152587890625,-0.0002231597900390625,-27.959022521972656
1743581370.7772353,0.0,-0.0,"[174.0, 185.0, 181.0, 156.0, 154.0, 154.0, 156.0, 181.0, 185.0, 174.0]",0.024575751274824142,0.0,0.000152587890625,-0.000213623046875,-27.959518432617188
1743581370.8073835,0.0,-0.0,"[174.0, 185.0, 181.0, 156.0, 154.0, 154.0, 156.0, 181.0, 185.0, 174.0]",0.1880163848400116,0.0,0.000152587890625,-0.0002040863037109375,-27.95575714111328
1743581370.810198,0.0,-0.0,"[174.0, 185.0, 181.0, 156.0, 154.0, 154.0, 156.0, 181.0, 185.0, 174.0]",0.14146263897418976,0.0,0.000152587890625,-0.000194549560546875,-27.952926635742188
1743581370.8405945,0.0,-0.0,"[174.0, 185.0, 181.0, 156.0, 154.0, 154.0, 156.0, 181.0, 185.0, 174.0]",0.031307123601436615,0.0,0.000152587890625,-0.000186920166015625,-27.95355224609375
1743581370.8437076,0.0,-0.0,"[174.0, 185.0, 181.0, 156.0, 154.0, 154.0, 156.0, 181.0, 185.0, 174.0]",0.19213135540485382,0.0,0.000152587890625,-0.0001811981201171875,-27.94970703125
1743581370.874325,0.0,-0.0,"[174.0, 185.0, 181.0, 156.0, 154.0, 154.0, 156.0, 181.0, 185.0, 174.0]",0.1337447315454483,0.0,0.0001220703125,-0.00017547607421875,-27.947036743164062
1743581370.9210289,0.0,-0.0,"[174.0, 185.0, 227.0, 295.0, 259.0, 160.0, 295.0, 190.0, 185.0, 174.0]",0.0,0.0,0.0,0.10000038146972656,-27.93000030517578
1743581370.9251294,0.0,-0.0,"[174.0, 185.0, 227.0, 295.0, 259.0, 160.0, 295.0, 190.0, 185.0, 174.0]",0.8975496888160706,0.0,0.0,0.08205032348632812,-27.92999267578125
1743581370.9289324,0.0,-0.0,"[174.0, 185.0, 227.0, 295.0, 259.0, 160.0, 295.0, 190.0, 185.0, 174.0]",0.8460349440574646,0.0,0.0,0.06512832641601562,-27.93011474609375
1743581370.9624624,0.0,-0.0,"[174.0, 185.0, 179.0, 155.0, 154.0, 154.0, 156.0, 181.0, 185.0, 174.0]",0.8358036279678345,0.0,0.0,0.049472808837890625,-27.92425537109375
1743581370.9664106,0.0,-0.0,"[174.0, 185.0, 179.0, 155.0, 154.0, 154.0, 156.0, 181.0, 185.0, 174.0]",0.7877044081687927,0.0,0.0,0.03524589538574219,-27.93102264404297
1743581370.9975777,0.0,-0.0,"[174.0, 185.0, 180.0, 156.0, 154.0, 154.0, 156.0, 181.0, 185.0, 174.0]",0.7010328769683838,0.0,0.0,0.022550582885742188,-27.925079345703125
1743581371.02801,0.0,-0.0,"[174.0, 185.0, 180.0, 156.0, 154.0, 154.0, 156.0, 181.0, 185.0, 174.0]",0.631865382194519,0.0,0.0,0.011434555053710938,-27.93108367919922
1743581371.0310073,0.0,-0.0,"[174.0, 185.0, 180.0, 156.0, 154.0, 154.0, 156.0, 181.0, 185.0, 174.0]",0.5477734208106995,0.0,0.0,0.00189971923828125,-27.925689697265625
1743581371.0609305,0.0,-0.0,"[174.0, 185.0, 181.0, 156.0, 154.0, 154.0, 156.0, 181.0, 185.0, 174.0]",0.4243452847003937,0.0,0.0,-0.0060882568359375,-27.928558349609375
1743581371.0637145,0.0,-0.0,"[174.0, 185.0, 181.0, 156.0, 154.0, 154.0, 156.0, 181.0, 185.0, 174.0]",0.33756157755851746,0.0,0.0,-0.012598037719726562,-27.92676544189453
1743581371.0973008,0.0,-0.0,"[174.0, 185.0, 181.0, 156.0, 154.0, 154.0, 158.0, 183.0, 185.0, 174.0]",0.4037489891052246,0.0,0.0,-0.017719268798828125,-27.933006286621094
1743581371.1273274,0.0,-0.0,"[174.0, 185.0, 181.0, 156.0, 154.0, 154.0, 158.0, 183.0, 185.0, 174.0]",0.331490695476532,0.0,0.0,-0.021562576293945312,-27.92760467529297
1743581371.1304677,0.0,-0.0,"[174.0, 185.0, 181.0, 156.0, 154.0, 154.0, 158.0, 183.0, 185.0, 174.0]",0.21510659158229828,0.0,0.0,-0.024251937866210938,-27.93096923828125
1743581371.1631463,0.0,-0.0,"[174.0, 185.0, 181.0, 156.0, 154.0, 154.0, 158.0, 183.0, 185.0, 174.0]",0.28988727927207947,0.0,0.0,-0.025911331176757812,-27.9365234375
1743581371.1670232,0.0,-0.0,"[174.0, 185.0, 181.0, 156.0, 154.0, 154.0, 158.0, 183.0, 185.0, 174.0]",0.2166464626789093,0.0,0.0,-0.026678085327148438,-27.9322509765625
1743581371.197714,0.0,-0.0,"[174.0, 185.0, 181.0, 156.0, 154.0, 154.0, 158.0, 183.0, 185.0, 174.0]",0.14103707671165466,0.0,-3.0517578125e-05,-0.02667999267578125,-27.92943572998047
1743581371.2009428,0.0,-0.0,"[174.0, 185.0, 181.0, 156.0, 154.0, 154.0, 158.0, 183.0, 185.0, 174.0]",0.11043636500835419,0.0,-3.0517578125e-05,-0.026044845581054688,-27.931549072265625
1743581371.2311833,0.0,-0.0,"[174.0, 185.0, 181.0, 156.0, 154.0, 154.0, 158.0, 183.0, 185.0, 174.0]",0.23484131693840027,0.0,-3.0517578125e-05,-0.024898529052734375,-27.92699432373047
1743581371.261888,0.0,-0.0,"[174.0, 185.0, 181.0, 156.0, 154.0, 154.0, 156.0, 181.0, 185.0, 174.0]",0.07833953946828842,0.0,-6.103515625e-05,-0.023349761962890625,-27.927230834960938
1743581371.2652586,0.0,-0.0,"[174.0, 185.0, 181.0, 156.0, 154.0, 154.0, 156.0, 181.0, 185.0, 174.0]",0.20538800954818726,0.0,-3.0517578125e-05,-0.021505355834960938,-27.923568725585938
1743581371.2951965,0.0,-0.0,"[174.0, 185.0, 181.0, 156.0, 154.0, 154.0, 156.0, 181.0, 185.0, 174.0]",0.21239463984966278,0.0,-3.0517578125e-05,-0.019456863403320312,-27.919845581054688
1743581371.3252285,0.0,-0.0,"[174.0, 185.0, 181.0, 156.0, 154.0, 154.0, 156.0, 181.0, 185.0, 174.0]",0.20063361525535583,0.0,-6.103515625e-05,-0.017290115356445312,-27.916465759277344
1743581371.327986,0.0,-0.0,"[174.0, 185.0, 181.0, 156.0, 154.0, 154.0, 156.0, 181.0, 185.0, 174.0]",0.16396304965019226,0.0,-6.103515625e-05,-0.015077590942382812,-27.914047241210938
1743581371.3617594,0.0,-0.0,"[174.0, 185.0, 181.0, 156.0, 154.0, 154.0, 156.0, 181.0, 185.0, 174.0]",0.19241812825202942,0.0,-6.103515625e-05,-0.012876510620117188,-27.917205810546875
1743581371.3653593,0.0,-0.0,"[174.0, 185.0, 181.0, 156.0, 154.0, 154.0, 156.0, 181.0, 185.0, 174.0]",0.12085697799921036,0.0,-6.103515625e-05,-0.010740280151367188,-27.9183349609375
1743581371.3957813,0.0,-0.0,"[174.0, 185.0, 180.0, 156.0, 154.0, 154.0, 156.0, 181.0, 185.0, 174.0]",0.20522430539131165,0.0,-6.103515625e-05,-0.008707046508789062,-27.914764404296875
1743581371.430163,0.0,-0.0,"[174.0, 185.0, 180.0, 156.0, 154.0, 154.0, 156.0, 181.0, 185.0, 174.0]",0.15267956256866455,0.0,-6.103515625e-05,-0.0068111419677734375,-27.912376403808594
1743581371.4333463,0.0,-0.0,"[174.0, 185.0, 180.0, 156.0, 154.0, 154.0, 156.0, 181.0, 185.0, 174.0]",0.18144308030605316,0.0,-6.103515625e-05,-0.00507354736328125,-27.915557861328125
1743581371.4635632,0.0,-0.0,"[174.0, 185.0, 180.0, 156.0, 154.0, 154.0, 156.0, 181.0, 185.0, 174.0]",0.0955348014831543,0.0,-6.103515625e-05,-0.0035076141357421875,-27.916656494140625
1743581371.466695,0.0,-0.0,"[174.0, 185.0, 180.0, 156.0, 154.0, 154.0, 156.0, 181.0, 185.0, 174.0]",0.19505129754543304,0.0,-6.103515625e-05,-0.0021266937255859375,-27.913009643554688
1743581371.4966319,0.0,-0.0,"[174.0, 185.0, 180.0, 156.0, 154.0, 154.0, 156.0, 181.0, 185.0, 174.0]",0.12840956449508667,0.0,-6.103515625e-05,-0.0009288787841796875,-27.910736083984375
1743581371.527127,0.0,-0.0,"[174.0, 185.0, 180.0, 156.0, 154.0, 154.0, 156.0, 181.0, 185.0, 174.0]",0.1845015287399292,0.0,-6.103515625e-05,8.7738037109375e-05,-27.914283752441406
1743581371.5306716,0.0,-0.0,"[174.0, 185.0, 180.0, 156.0, 154.0, 154.0, 156.0, 181.0, 185.0, 174.0]",0.11874236911535263,0.0,-6.103515625e-05,0.000926971435546875,-27.91650390625
1743581371.5637674,0.0,-0.0,"[174.0, 185.0, 180.0, 156.0, 154.0, 154.0, 156.0, 181.0, 185.0, 174.0]",0.18592366576194763,0.0,-6.103515625e-05,0.001598358154296875,-27.91284942626953
1743581371.5676823,0.0,-0.0,"[174.0, 185.0, 180.0, 156.0, 154.0, 154.0, 156.0, 181.0, 185.0, 174.0]",0.1204414814710617,0.0,-6.103515625e-05,0.002117156982421875,-27.910499572753906
1743581371.5984151,0.0,-0.0,"[174.0, 185.0, 180.0, 156.0, 154.0, 154.0, 156.0, 181.0, 185.0, 174.0]",0.17139072716236115,0.0,-6.103515625e-05,0.0024929046630859375,-27.913902282714844
1743581371.602069,0.0,-0.0,"[174.0, 185.0, 180.0, 156.0, 154.0, 154.0, 156.0, 181.0, 185.0, 174.0]",0.10478153079748154,0.0,-6.103515625e-05,0.002742767333984375,-27.915985107421875
1743581371.6323838,0.0,-0.0,"[174.0, 185.0, 180.0, 156.0, 154.0, 154.0, 156.0, 181.0, 185.0, 174.0]",0.18753047287464142,0.0,-6.103515625e-05,0.002880096435546875,-27.91223907470703
1743581371.6635456,0.0,-0.0,"[174.0, 185.0, 180.0, 156.0, 154.0, 154.0, 156.0, 181.0, 185.0, 174.0]",0.1248098686337471,0.0,-6.103515625e-05,0.00292205810546875,-27.909744262695312
1743581371.6675818,0.0,-0.0,"[174.0, 185.0, 180.0, 156.0, 154.0, 154.0, 156.0, 181.0, 185.0, 174.0]",0.14252029359340668,0.0,-9.1552734375e-05,0.0028820037841796875,-27.91259002685547
1743581371.699186,0.0,-0.0,"[174.0, 185.0, 180.0, 156.0, 154.0, 154.0, 156.0, 181.0, 185.0, 174.0]",0.011167923919856548,0.0,-6.103515625e-05,0.0027751922607421875,-27.912391662597656
1743581371.7024405,0.0,-0.0,"[174.0, 185.0, 180.0, 156.0, 154.0, 154.0, 156.0, 181.0, 185.0, 174.0]",0.07286728918552399,0.0,-6.103515625e-05,0.00261688232421875,-27.913841247558594
1743581371.7358873,0.0,-0.0,"[174.0, 185.0, 180.0, 156.0, 154.0, 154.0, 156.0, 181.0, 185.0, 174.0]",0.1758141964673996,0.0,-6.103515625e-05,0.00241851806640625,-27.91033172607422
1743581371.7677865,0.0,-0.0,"[174.0, 185.0, 180.0, 156.0, 154.0, 154.0, 156.0, 181.0, 185.0, 174.0]",0.13141421973705292,0.0,-9.1552734375e-05,0.00218963623046875,-27.90771484375
1743581371.7706518,0.0,-0.0,"[174.0, 185.0, 180.0, 156.0, 154.0, 154.0, 156.0, 181.0, 185.0, 174.0]",0.11175039410591125,0.0,-9.1552734375e-05,0.0019435882568359375,-27.909934997558594
1743581371.8010664,0.0,-0.0,"[174.0, 185.0, 180.0, 156.0, 154.0, 154.0, 156.0, 181.0, 185.0, 174.0]",0.18066321313381195,0.0,-9.1552734375e-05,0.0016880035400390625,-27.906326293945312
1743581371.8043563,0.0,-0.0,"[174.0, 185.0, 180.0, 156.0, 154.0, 154.0, 156.0, 181.0, 185.0, 174.0]",0.1422390192747116,0.0,-9.1552734375e-05,0.001430511474609375,-27.90349578857422
1743581371.835681,0.0,-0.0,"[174.0, 185.0, 180.0, 156.0, 154.0, 154.0, 156.0, 181.0, 185.0, 174.0]",0.032983146607875824,0.0,-0.0001220703125,0.0011768341064453125,-27.90410614013672
1743581371.8676004,0.0,-0.0,"[174.0, 185.0, 180.0, 156.0, 154.0, 154.0, 156.0, 181.0, 185.0, 174.0]",0.1908603310585022,0.0,-9.1552734375e-05,0.000934600830078125,-27.900299072265625
1743581371.8728595,0.0,-0.0,"[174.0, 185.0, 180.0, 156.0, 154.0, 154.0, 156.0, 181.0, 185.0, 174.0]",0.1396794319152832,0.0,-0.0001220703125,0.000705718994140625,-27.89751434326172
1743581371.9030905,0.0,-0.0,"[174.0, 185.0, 180.0, 156.0, 154.0, 154.0, 156.0, 181.0, 185.0, 174.0]",0.05234551429748535,0.0,-0.0001220703125,0.0004940032958984375,-27.898536682128906
1743581371.9068363,0.0,-0.0,"[174.0, 185.0, 180.0, 156.0, 154.0, 154.0, 156.0, 181.0, 185.0, 174.0]",0.19151028990745544,0.0,-0.0001220703125,0.000301361083984375,-27.89471435546875
1743581371.9400952,0.0,-0.0,"[174.0, 185.0, 180.0, 156.0, 154.0, 154.0, 156.0, 181.0, 185.0, 174.0]",0.14048707485198975,0.0,-0.0001220703125,0.00012969970703125,-27.89190673828125
1743581371.9436288,0.0,-0.0,"[174.0, 185.0, 180.0, 156.0, 154.0, 154.0, 156.0, 181.0, 185.0, 174.0]",0.043788034468889236,0.0,-0.0001220703125,-2.09808349609375e-05,-27.89276885986328
1743581371.9744954,0.0,-0.0,"[174.0, 185.0, 180.0, 156.0, 154.0, 154.0, 156.0, 181.0, 185.0, 174.0]",0.2111971378326416,0.0,-0.0001220703125,-0.0001506805419921875,-27.8885498046875
1743581372.0054526,0.0,-0.0,"[174.0, 185.0, 180.0, 156.0, 154.0, 154.0, 158.0, 181.0, 185.0, 174.0]",0.053728919476270676,0.0,-0.0001220703125,-0.0002593994140625,-27.887481689453125
1743581372.0091443,0.0,-0.0,"[174.0, 185.0, 180.0, 156.0, 154.0, 154.0, 158.0, 181.0, 185.0, 174.0]",0.18643052875995636,0.0,-0.000152587890625,-0.000347137451171875,-27.891204833984375
1743581372.0383637,0.0,-0.0,"[174.0, 185.0, 180.0, 156.0, 154.0, 154.0, 156.0, 181.0, 185.0, 174.0]",0.14617864787578583,0.0,-0.0001220703125,-0.000415802001953125,-27.894126892089844
1743581372.042821,0.0,-0.0,"[174.0, 185.0, 180.0, 156.0, 154.0, 154.0, 156.0, 181.0, 185.0, 174.0]",0.002841939451172948,0.0,-0.0001220703125,-0.000469207763671875,-27.894149780273438
1743581372.0722368,0.0,-0.0,"[174.0, 185.0, 180.0, 156.0, 154.0, 154.0, 156.0, 181.0, 185.0, 174.0]",0.0056639546528458595,0.0,-0.0001220703125,-0.0005054473876953125,-27.89404296875
1743581372.1020796,0.0,-0.0,"[174.0, 185.0, 180.0, 156.0, 154.0, 154.0, 156.0, 181.0, 185.0, 174.0]",0.02900075726211071,0.0,-0.0001220703125,-0.0005283355712890625,-27.894622802734375
1743581372.1062675,0.0,-0.0,"[174.0, 185.0, 180.0, 156.0, 154.0, 154.0, 156.0, 181.0, 185.0, 174.0]",0.18123210966587067,0.0,-0.0001220703125,-0.000537872314453125,-27.89099884033203
1743581372.1403353,0.0,-0.0,"[174.0, 185.0, 180.0, 156.0, 154.0, 154.0, 156.0, 181.0, 185.0, 174.0]",0.14535705745220184,0.0,-0.0001220703125,-0.0005397796630859375,-27.888092041015625
1743581372.1671817,0.0,-0.0,"[174.0, 185.0, 180.0, 156.0, 154.0, 154.0, 156.0, 181.0, 185.0, 174.0]",0.003935768269002438,0.0,-0.000152587890625,-0.000530242919921875,-27.888168334960938
1743581372.1698763,0.0,-0.0,"[174.0, 185.0, 180.0, 156.0, 154.0, 154.0, 156.0, 181.0, 185.0, 174.0]",0.02143142931163311,0.0,-0.0001220703125,-0.000514984130859375,-27.887741088867188
1743581372.197682,0.0,-0.0,"[174.0, 185.0, 180.0, 156.0, 154.0, 154.0, 156.0, 181.0, 185.0, 174.0]",0.19956541061401367,0.0,-0.000152587890625,-0.00049591064453125,-27.89173126220703
1743581372.200829,0.0,-0.0,"[174.0, 185.0, 180.0, 156.0, 154.0, 154.0, 156.0, 181.0, 185.0, 174.0]",0.11114755272865295,0.0,-0.0001220703125,-0.0004711151123046875,-27.893951416015625
1743581372.229556,0.0,-0.0,"[174.0, 185.0, 180.0, 156.0, 154.0, 154.0, 156.0, 181.0, 185.0, 174.0]",0.19210568070411682,0.0,-0.0001220703125,-0.0004425048828125,-27.890113830566406
1743581372.254455,0.0,-0.0,"[174.0, 185.0, 180.0, 156.0, 154.0, 154.0, 156.0, 181.0, 185.0, 174.0]",0.13551387190818787,0.0,-0.0001220703125,-0.0004138946533203125,-27.887405395507812
1743581372.2577841,0.0,-0.0,"[174.0, 185.0, 180.0, 156.0, 154.0, 154.0, 156.0, 181.0, 185.0, 174.0]",0.07858056575059891,0.0,-0.000152587890625,-0.0003833770751953125,-27.88897705078125
1743581372.2816849,0.0,-0.0,"[174.0, 185.0, 180.0, 156.0, 154.0, 154.0, 156.0, 181.0, 185.0, 174.0]",0.18800044059753418,0.0,-0.000152587890625,-0.000354766845703125,-27.885215759277344
1743581372.305918,0.0,-0.0,"[174.0, 185.0, 180.0, 156.0, 154.0, 154.0, 156.0, 181.0, 185.0, 174.0]",0.14133502542972565,0.0,-0.000152587890625,-0.0003261566162109375,-27.88238525390625
1743581372.3329875,0.0,-0.0,"[174.0, 185.0, 180.0, 156.0, 154.0, 154.0, 156.0, 181.0, 185.0, 174.0]",0.03240367770195007,0.0,-0.000152587890625,-0.00029754638671875,-27.883033752441406
1743581372.3588955,0.0,-0.0,"[174.0, 185.0, 179.0, 156.0, 154.0, 154.0, 156.0, 181.0, 185.0, 174.0]",0.19485650956630707,0.0,-0.000152587890625,-0.0002727508544921875,-27.879135131835938
1743581372.3627577,0.0,-0.0,"[174.0, 185.0, 179.0, 156.0, 154.0, 154.0, 156.0, 181.0, 185.0, 174.0]",0.12639330327510834,0.0,-0.000152587890625,-0.000247955322265625,-27.876609802246094
1743581372.3885145,0.0,-0.0,"[174.0, 185.0, 179.0, 156.0, 154.0, 154.0, 158.0, 181.0, 185.0, 174.0]",0.14055228233337402,0.0,-0.00018310546875,-0.0002269744873046875,-27.879425048828125
1743581372.420378,0.0,-0.0,"[174.0, 185.0, 179.0, 156.0, 154.0, 154.0, 158.0, 181.0, 185.0, 174.0]",0.02312365733087063,0.0,-0.00018310546875,-0.0002079010009765625,-27.87895965576172
1743581372.4265652,0.0,-0.0,"[174.0, 185.0, 179.0, 156.0, 154.0, 154.0, 158.0, 181.0, 185.0, 174.0]",0.18924473226070404,0.0,-0.00018310546875,-0.0001926422119140625,-27.88274383544922
1743581372.4621527,0.0,-0.0,"[174.0, 185.0, 180.0, 156.0, 154.0, 154.0, 156.0, 181.0, 185.0, 174.0]",0.13927589356899261,0.0,-0.00018310546875,-0.0001773834228515625,-27.885528564453125
1743581372.4651053,0.0,-0.0,"[174.0, 185.0, 180.0, 156.0, 154.0, 154.0, 156.0, 181.0, 185.0, 174.0]",0.048148803412914276,0.0,-0.000152587890625,-0.0001659393310546875,-27.884567260742188
1743581372.488565,0.0,-0.0,"[174.0, 185.0, 180.0, 156.0, 154.0, 154.0, 156.0, 181.0, 185.0, 174.0]",0.19971467554569244,0.0,-0.000152587890625,-0.000156402587890625,-27.88855743408203
1743581372.512398,0.0,-0.0,"[174.0, 185.0, 180.0, 156.0, 154.0, 154.0, 156.0, 181.0, 185.0, 174.0]",0.1094244047999382,0.0,-0.000152587890625,-0.0001506805419921875,-27.8907470703125
1743581372.5153644,0.0,-0.0,"[174.0, 185.0, 180.0, 156.0, 154.0, 154.0, 156.0, 181.0, 185.0, 174.0]",0.19191984832286835,0.0,-0.000152587890625,-0.00014495849609375,-27.88690948486328
1743581372.542235,0.0,-0.0,"[174.0, 185.0, 180.0, 156.0, 154.0, 154.0, 156.0, 181.0, 185.0, 174.0]",0.1346525102853775,0.0,-0.000152587890625,-0.000141143798828125,-27.88421630859375
1743581372.5688362,0.0,-0.0,"[174.0, 185.0, 180.0, 156.0, 154.0, 154.0, 156.0, 181.0, 185.0, 174.0]",0.08525389432907104,0.0,-0.00018310546875,-0.0001392364501953125,-27.88592529296875
1743581372.594898,0.0,-0.0,"[174.0, 185.0, 180.0, 156.0, 154.0, 154.0, 156.0, 181.0, 185.0, 174.0]",0.20485877990722656,0.0,-0.00018310546875,-0.0001373291015625,-27.881820678710938
1743581372.598512,0.0,-0.0,"[174.0, 185.0, 180.0, 156.0, 154.0, 154.0, 156.0, 181.0, 185.0, 174.0]",0.0830632895231247,0.0,-0.00018310546875,-0.0001392364501953125,-27.880165100097656
1743581372.6236606,0.0,-0.0,"[174.0, 185.0, 180.0, 156.0, 154.0, 154.0, 156.0, 181.0, 185.0, 174.0]",0.19811411201953888,0.0,-0.00018310546875,-0.0001392364501953125,-27.884124755859375
1743581372.648008,0.0,-0.0,"[174.0, 185.0, 180.0, 156.0, 154.0, 154.0, 156.0, 181.0, 185.0, 174.0]",0.11645853519439697,0.0,-0.00018310546875,-0.000141143798828125,-27.886451721191406
1743581372.656256,0.0,-0.0,"[174.0, 185.0, 180.0, 156.0, 154.0, 154.0, 156.0, 181.0, 185.0, 174.0]",0.18527525663375854,0.0,-0.00018310546875,-0.00014495849609375,-27.88275146484375
1743581372.6598585,0.0,-0.0,"[174.0, 185.0, 180.0, 156.0, 154.0, 154.0, 156.0, 181.0, 185.0, 174.0]",0.1432972252368927,0.0,-0.00018310546875,-0.0001468658447265625,-27.8798828125
1743581372.6749077,0.0,-0.0,"[174.0, 185.0, 180.0, 156.0, 154.0, 154.0, 158.0, 181.0, 185.0, 174.0]",0.01791730523109436,0.0,-0.00018310546875,-0.0001506805419921875,-27.88024139404297
1743581372.697504,0.0,-0.0,"[174.0, 185.0, 179.0, 156.0, 154.0, 154.0, 158.0, 181.0, 185.0, 174.0]",0.18077042698860168,0.0,-0.00018310546875,-0.0001544952392578125,-27.876625061035156
1743581372.7155492,0.0,-0.0,"[174.0, 185.0, 179.0, 156.0, 154.0, 154.0, 158.0, 181.0, 185.0, 174.0]",0.14347140491008759,0.0,-0.00018310546875,-0.000156402587890625,-27.873756408691406
1743581372.734842,0.0,-0.0,"[174.0, 185.0, 179.0, 156.0, 154.0, 154.0, 158.0, 181.0, 185.0, 174.0]",0.01628316007554531,0.0,-0.00018310546875,-0.00016021728515625,-27.87408447265625
1743581372.7542744,0.0,-0.0,"[174.0, 185.0, 179.0, 156.0, 154.0, 154.0, 158.0, 181.0, 185.0, 174.0]",0.16855169832706451,0.0,-0.00018310546875,-0.000164031982421875,-27.870712280273438
1743581372.7736354,0.0,-0.0,"[174.0, 185.0, 179.0, 156.0, 154.0, 154.0, 158.0, 183.0, 185.0, 174.0]",0.11779389530420303,0.0,-0.00018310546875,-0.0001678466796875,-27.86835479736328
1743581372.793982,0.0,-0.0,"[174.0, 185.0, 179.0, 156.0, 154.0, 154.0, 158.0, 181.0, 185.0, 174.0]",0.1852644830942154,0.0,-0.00018310546875,-0.0001697540283203125,-27.87206268310547
1743581372.8141627,0.0,-0.0,"[174.0, 185.0, 179.0, 156.0, 154.0, 154.0, 158.0, 181.0, 185.0, 174.0]",0.14353562891483307,0.0,-0.00018310546875,-0.000171661376953125,-27.87493133544922
1743581372.834209,0.0,-0.0,"[174.0, 185.0, 179.0, 156.0, 154.0, 154.0, 158.0, 181.0, 185.0, 174.0]",0.01619534008204937,0.0,-0.00018310546875,-0.00017547607421875,-27.874603271484375
1743581372.8541458,0.0,-0.0,"[174.0, 185.0, 179.0, 156.0, 154.0, 154.0, 158.0, 181.0, 185.0, 174.0]",0.1667691171169281,0.0,-0.00018310546875,-0.0001773834228515625,-27.877944946289062
1743581372.8737984,0.0,0.17227300143831487,"[174.0, 185.0, 180.0, 156.0, 154.0, 154.0, 158.0, 181.0, 185.0, 174.0]",0.11020399630069733,0.0,-0.00018310546875,-0.000179290771484375,-27.880149841308594
1743581372.8977559,0.0,0.4855472556024683,"[174.0, 185.0, 179.0, 156.0, 154.0, 154.0, 158.0, 181.0, 185.0, 174.0]",0.18740198016166687,0.0,-0.00018310546875,-0.000179290771484375,-27.87640380859375
1743581372.916707,0.0,0.7223588363568877,"[174.0, 185.0, 179.0, 156.0, 154.0, 154.0, 158.0, 181.0, 185.0, 174.0]",0.1422216296195984,0.0,-0.00018310546875,-0.0001811981201171875,-27.873558044433594
1743581372.9334953,0.0,1.038602514731128,"[174.0, 185.0, 179.0, 155.0, 154.0, 155.0, 158.0, 183.0, 185.0, 174.0]",0.08039668947458267,0.0,-0.001739501953125,-0.00018310546875,-27.87396240234375
1743581372.952747,0.0,1.038602514731128,"[174.0, 185.0, 180.0, 156.0, 154.0, 154.0, 156.0, 181.0, 185.0, 174.0]",0.19764085114002228,0.0,-0.00567626953125,-0.00018310546875,-27.873924255371094
1743581372.9737887,0.0,1.038602514731128,"[174.0, 185.0, 180.0, 156.0, 154.0, 154.0, 156.0, 181.0, 185.0, 174.0]",0.3362176716327667,0.0,-0.012420654296875,-0.00018310546875,-27.87407684326172
1743581372.9937625,0.0,1.038602514731128,"[174.0, 185.0, 179.0, 156.0, 154.0, 154.0, 156.0, 181.0, 185.0, 174.0]",0.512031614780426,0.0,-0.02264404296875,-0.0001850128173828125,-27.874130249023438
1743581373.0136461,0.0,1.038602514731128,"[174.0, 185.0, 180.0, 156.0, 154.0, 154.0, 156.0, 181.0, 185.0, 174.0]",0.6075522303581238,0.0,-0.0347900390625,-0.0001850128173828125,-27.8740234375
1743581373.0336854,0.0,1.038602514731128,"[174.0, 185.0, 180.0, 156.0, 154.0, 154.0, 156.0, 181.0, 185.0, 174.0]",0.7730551958084106,0.0,-0.050262451171875,-0.0001850128173828125,-27.8740234375
1743581373.0528557,0.0,1.038602514731128,"[174.0, 185.0, 180.0, 156.0, 154.0, 154.0, 156.0, 181.0, 185.0, 174.0]",0.8864973783493042,0.0,-0.0679931640625,-0.0001850128173828125,-27.874038696289062
1743581373.0743184,0.0,1.038602514731128,"[174.0, 185.0, 180.0, 156.0, 154.0, 154.0, 156.0, 181.0, 185.0, 174.0]",1.0174012184143066,0.0,-0.088348388671875,-0.0001850128173828125,-27.874046325683594
1743581373.0972168,0.0,1.038602514731128,"[174.0, 185.0, 180.0, 156.0, 154.0, 154.0, 156.0, 181.0, 185.0, 174.0]",1.1343125104904175,0.0,-0.11102294921875,-0.0001850128173828125,-27.874061584472656
1743581373.115132,0.0,1.038602514731128,"[174.0, 185.0, 180.0, 156.0, 154.0, 154.0, 156.0, 181.0, 185.0, 174.0]",1.3076138496398926,0.0,-0.137176513671875,-0.0001850128173828125,-27.87407684326172
1743581373.1346567,0.0,1.038602514731128,"[174.0, 185.0, 180.0, 156.0, 154.0, 154.0, 156.0, 181.0, 185.0, 174.0]",1.425662875175476,0.0,-0.165679931640625,-0.00018310546875,-27.874099731445312
1743581373.1539705,0.0,1.038602514731128,"[174.0, 185.0, 180.0, 156.0, 154.0, 154.0, 156.0, 181.0, 185.0, 174.0]",1.5629037618637085,0.0,-0.19696044921875,-0.00018310546875,-27.874114990234375
1743581373.1745017,0.0,1.038602514731128,"[174.0, 185.0, 180.0, 156.0, 154.0, 154.0, 156.0, 181.0, 185.0, 174.0]",1.6757493019104004,0.0,-0.23046875,-0.00018310546875,-27.874130249023438
1743581373.1943746,0.0,1.038602514731128,"[174.0, 185.0, 180.0, 156.0, 154.0, 154.0, 156.0, 181.0, 185.0, 174.0]",1.8397741317749023,0.0,-0.26727294921875,-0.00018310546875,-27.8741455078125
1743581373.2137797,0.0,1.038602514731128,"[174.0, 185.0, 180.0, 156.0, 154.0, 154.0, 156.0, 181.0, 185.0, 174.0]",1.989384412765503,0.0,-0.307037353515625,-0.00018310546875,-27.874160766601562
1743581373.233143,0.0,1.038602514731128,"[174.0, 185.0, 179.0, 156.0, 154.0, 154.0, 156.0, 181.0, 185.0, 174.0]",2.077301263809204,0.0,-0.348602294921875,-0.00018310546875,-27.874160766601562
1743581373.254112,0.0,1.038602514731128,"[174.0, 185.0, 179.0, 156.0, 154.0, 154.0, 156.0, 181.0, 185.0, 174.0]",2.253819465637207,0.0,-0.3936767578125,-0.00018310546875,-27.8741455078125
1743581373.2742352,0.0,1.038602514731128,"[174.0, 185.0, 179.0, 156.0, 154.0, 154.0, 158.0, 181.0, 185.0, 174.0]",2.3755383491516113,0.0,-0.441192626953125,-0.0001811981201171875,-27.874114990234375
1743581373.297213,0.0,1.038602514731128,"[174.0, 185.0, 179.0, 156.0, 154.0, 154.0, 156.0, 181.0, 185.0, 174.0]",2.490812301635742,0.0,-0.490997314453125,-0.0001811981201171875,-27.87409210205078
1743581373.31541,0.0,1.038602514731128,"[174.0, 185.0, 179.0, 156.0, 154.0, 154.0, 156.0, 181.0, 185.0, 174.0]",2.6201024055480957,0.0,-0.54339599609375,-0.0001811981201171875,-27.874069213867188
1743581373.3330414,0.0,1.038602514731128,"[174.0, 185.0, 179.0, 156.0, 154.0, 154.0, 156.0, 181.0, 185.0, 174.0]",2.7674763202667236,0.0,-0.5987548828125,-0.0001811981201171875,-27.874038696289062
1743581373.3537753,0.0,1.038602514731128,"[174.0, 185.0, 180.0, 156.0, 154.0, 154.0, 156.0, 181.0, 185.0, 174.0]",2.9064929485321045,0.0,-0.656890869140625,-0.0001811981201171875,-27.8740234375
1743581373.374322,0.0,1.038602514731128,"[174.0, 185.0, 180.0, 156.0, 154.0, 154.0, 156.0, 181.0, 185.0, 174.0]",3.0332906246185303,0.0,-0.717529296875,-0.0001811981201171875,-27.874008178710938
1743581373.3945684,0.0,1.038602514731128,"[174.0, 185.0, 180.0, 156.0, 154.0, 154.0, 156.0, 181.0, 185.0, 174.0]",3.185960531234741,0.0,-0.78125,-0.0001811981201171875,-27.873992919921875
1743581373.4147313,0.0,1.038602514731128,"[174.0, 185.0, 180.0, 156.0, 154.0, 154.0, 156.0, 181.0, 185.0, 174.0]",3.2724215984344482,0.0,-0.846710205078125,-0.0001811981201171875,-27.873977661132812
1743581373.4345675,0.0,1.038602514731128,"[174.0, 185.0, 179.0, 156.0, 154.0, 154.0, 156.0, 181.0, 185.0, 174.0]",3.4276018142700195,0.0,-0.915252685546875,-0.0001811981201171875,-27.87396240234375
1743581373.4545097,0.0,1.038602514731128,"[174.0, 185.0, 179.0, 156.0, 154.0, 154.0, 156.0, 181.0, 185.0, 174.0]",3.5746302604675293,0.0,-0.98675537109375,-0.0001811981201171875,-27.873931884765625
1743581373.4738011,0.0,1.038602514731128,"[174.0, 185.0, 179.0, 156.0, 154.0, 154.0, 156.0, 181.0, 185.0, 174.0]",3.6993958950042725,0.0,-1.06072998046875,-0.0001811981201171875,-27.87390899658203
1743581373.505877,0.0,1.038602514731128,"[174.0, 185.0, 179.0, 156.0, 154.0, 154.0, 156.0, 181.0, 185.0, 174.0]",3.849100351333618,0.0,-1.137725830078125,-0.0001811981201171875,-27.873878479003906
1743581373.516397,0.0,1.038602514731128,"[174.0, 185.0, 179.0, 156.0, 154.0, 154.0, 156.0, 181.0, 185.0, 174.0]",3.957603693008423,0.0,-1.216888427734375,-0.0001811981201171875,-27.87384796142578
1743581373.5371225,0.0,1.038602514731128,"[174.0, 185.0, 179.0, 156.0, 154.0, 154.0, 156.0, 181.0, 185.0, 174.0]",4.079493045806885,0.0,-1.2984619140625,-0.0001811981201171875,-27.873817443847656
1743581373.5597594,0.0,1.038602514731128,"[174.0, 185.0, 179.0, 156.0, 154.0, 154.0, 156.0, 181.0, 185.0, 174.0]",4.242106914520264,0.0,-1.38330078125,-0.0001811981201171875,-27.873779296875
1743581373.5738988,0.0,1.038602514731128,"[174.0, 185.0, 179.0, 156.0, 154.0, 154.0, 156.0, 181.0, 185.0, 174.0]",4.34350061416626,0.0,-1.470184326171875,-0.0001811981201171875,-27.873748779296875
1743581373.5945725,0.0,1.038602514731128,"[174.0, 185.0, 179.0, 156.0, 154.0, 154.0, 156.0, 181.0, 185.0, 174.0]",4.485322952270508,0.0,-1.55987548828125,-0.0001811981201171875,-27.87371063232422
1743581373.6144762,0.0,1.038602514731128,"[174.0, 185.0, 179.0, 156.0, 154.0, 154.0, 156.0, 181.0, 185.0, 174.0]",4.616103649139404,0.0,-1.6522216796875,-0.0001811981201171875,-27.873672485351562
1743581373.6345856,0.0,1.038602514731128,"[174.0, 185.0, 179.0, 156.0, 154.0, 154.0, 156.0, 181.0, 185.0, 174.0]",4.757835388183594,0.0,-1.74737548828125,-0.0001811981201171875,-27.873634338378906
1743581373.65357,0.0,1.038602514731128,"[174.0, 185.0, 179.0, 156.0, 154.0, 154.0, 156.0, 181.0, 185.0, 174.0]",4.875661849975586,0.0,-1.844879150390625,-0.0001811981201171875,-27.87359619140625
1743581373.6744444,0.0,1.038602514731128,"[174.0, 185.0, 179.0, 156.0, 154.0, 154.0, 156.0, 181.0, 185.0, 174.0]",5.017465114593506,0.0,-1.945220947265625,-0.0001811981201171875,-27.873550415039062
1743581373.6970549,0.0,1.038602514731128,"[174.0, 185.0, 179.0, 156.0, 154.0, 154.0, 158.0, 181.0, 185.0, 174.0]",5.1348466873168945,0.0,-2.04791259765625,0.000156402587890625,-27.873512268066406
1743581373.7162092,0.0,1.038602514731128,"[174.0, 185.0, 179.0, 156.0, 154.0, 154.0, 158.0, 181.0, 185.0, 174.0]",5.149324893951416,0.0,-2.150909423828125,0.0004425048828125,-27.873382568359375
1743581373.733947,0.0,1.038602514731128,"[174.0, 185.0, 179.0, 156.0, 154.0, 154.0, 156.0, 181.0, 185.0, 174.0]",5.201460838317871,0.0,-2.25494384765625,0.0006809234619140625,-27.873321533203125
1743581373.754324,0.0,1.038602514731128,"[174.0, 185.0, 179.0, 156.0, 154.0, 154.0, 158.0, 181.0, 185.0, 174.0]",5.525049209594727,0.0,-2.365447998046875,0.0008716583251953125,-27.873252868652344
1743581373.7742016,0.0,1.038602514731128,"[174.0, 185.0, 180.0, 156.0, 154.0, 154.0, 156.0, 181.0, 185.0, 174.0]",5.315598964691162,0.0,-2.47174072265625,0.001018524169921875,-27.873046875
1743581373.7939484,0.0,1.038602514731128,"[174.0, 185.0, 179.0, 155.0, 154.0, 155.0, 158.0, 183.0, 185.0, 174.0]",5.5685553550720215,0.0,-2.5831298828125,0.0011272430419921875,-27.873329162597656
1743581373.8143685,0.0,1.038602514731128,"[174.0, 185.0, 180.0, 156.0, 154.0, 154.0, 156.0, 181.0, 185.0, 174.0]",5.649406909942627,0.0,-2.69610595703125,0.0011997222900390625,-27.87261962890625
1743581373.833267,0.0,1.038602514731128,"[174.0, 185.0, 179.0, 155.0, 154.0, 155.0, 158.0, 183.0, 185.0, 174.0]",5.774320125579834,0.0,-2.81158447265625,0.001239776611328125,-27.873947143554688
1743581373.8528275,0.0,1.038602514731128,"[174.0, 185.0, 180.0, 156.0, 154.0, 154.0, 156.0, 181.0, 185.0, 174.0]",6.034956455230713,0.0,-2.9322509765625,0.001255035400390625,-27.87151336669922
1743581373.8747263,0.0,1.038602514731128,"[174.0, 185.0, 179.0, 155.0, 154.0, 155.0, 158.0, 183.0, 185.0, 174.0]",6.192626953125,0.0,-3.056060791015625,0.001247406005859375,-27.875015258789062
1743581373.8976831,0.0,1.038602514731128,"[174.0, 185.0, 180.0, 156.0, 154.0, 154.0, 156.0, 181.0, 185.0, 174.0]",6.351364612579346,0.0,-3.18304443359375,0.0012226104736328125,-27.872085571289062
1743581373.9152095,0.0,1.038602514731128,"[174.0, 185.0, 179.0, 155.0, 154.0, 155.0, 158.0, 183.0, 185.0, 174.0]",6.345702171325684,0.0,-3.309967041015625,0.00118255615234375,-27.873260498046875
1743581373.934411,0.0,1.038602514731128,"[174.0, 185.0, 180.0, 156.0, 154.0, 154.0, 156.0, 181.0, 185.0, 174.0]",6.640686511993408,0.0,-3.4427490234375,0.001132965087890625,-27.871063232421875
1743581373.953773,0.0,1.038602514731128,"[174.0, 185.0, 179.0, 155.0, 154.0, 155.0, 158.0, 183.0, 185.0, 174.0]",6.672902584075928,0.0,-3.576202392578125,0.00107574462890625,-27.87372589111328
1743581373.9732432,0.0,1.038602514731128,"[174.0, 185.0, 180.0, 156.0, 154.0, 154.0, 156.0, 181.0, 185.0, 174.0]",6.887114524841309,0.0,-3.71392822265625,0.00101470947265625,-27.87274932861328
1743581373.994877,0.0,1.038602514731128,"[174.0, 185.0, 179.0, 155.0, 154.0, 155.0, 158.0, 183.0, 185.0, 174.0]",6.935598373413086,0.0,-3.852630615234375,0.0009517669677734375,-27.873321533203125
1743581374.0131028,0.0,1.038602514731128,"[174.0, 185.0, 180.0, 156.0, 154.0, 154.0, 156.0, 181.0, 185.0, 174.0]",7.046400547027588,0.0,-3.993560791015625,0.000888824462890625,-27.872108459472656
1743581374.0330946,0.0,1.038602514731128,"[174.0, 185.0, 179.0, 156.0, 154.0, 154.0, 158.0, 181.0, 185.0, 174.0]",7.227575778961182,0.0,-4.13812255859375,0.000827789306640625,-27.873138427734375
1743581374.0550098,0.0,1.038602514731128,"[174.0, 185.0, 179.0, 156.0, 154.0, 154.0, 158.0, 181.0, 185.0, 174.0]",7.437326431274414,0.0,-4.286865234375,0.00077056884765625,-27.872390747070312
1743581374.0741835,0.0,1.038602514731128,"[174.0, 185.0, 179.0, 155.0, 154.0, 154.0, 158.0, 183.0, 185.0, 174.0]",7.604716777801514,0.0,-4.43896484375,0.0007190704345703125,-27.87249755859375
1743581374.0992465,0.0,1.038602514731128,"[174.0, 185.0, 179.0, 156.0, 154.0, 154.0, 158.0, 181.0, 185.0, 174.0]",7.666484832763672,0.0,-4.59228515625,0.0006694793701171875,-27.87212371826172
1743581374.1161082,0.0,1.038602514731128,"[174.0, 185.0, 179.0, 155.0, 154.0, 154.0, 158.0, 183.0, 185.0, 174.0]",7.731011390686035,0.0,-4.74688720703125,0.0006275177001953125,-27.87207794189453
1743581374.1332624,0.0,1.038602514731128,"[174.0, 185.0, 180.0, 156.0, 154.0, 154.0, 156.0, 181.0, 185.0, 174.0]",7.946524620056152,0.0,-4.90582275390625,0.000591278076171875,-27.87177276611328
1743581374.1545012,0.0,1.038602514731128,"[174.0, 185.0, 179.0, 155.0, 154.0, 155.0, 158.0, 183.0, 185.0, 174.0]",7.932354927062988,0.0,-5.064483642578125,0.000560760498046875,-27.87194061279297
1743581374.1736712,0.0,1.038602514731128,"[174.0, 185.0, 180.0, 156.0, 154.0, 154.0, 156.0, 181.0, 185.0, 174.0]",7.901101112365723,0.0,-5.222503662109375,0.0005340576171875,-27.871047973632812
1743581374.1945975,0.0,1.038602514731128,"[174.0, 185.0, 179.0, 155.0, 154.0, 155.0, 158.0, 183.0, 185.0, 174.0]",8.01596736907959,0.0,-5.3828125,0.000514984130859375,-27.871963500976562
1743581374.2136955,0.0,1.038602514731128,"[174.0, 185.0, 179.0, 156.0, 154.0, 154.0, 156.0, 181.0, 185.0, 174.0]",8.31438159942627,0.0,-5.549102783203125,0.0004978179931640625,-27.870758056640625
1743581374.2342796,0.0,1.038602514731128,"[174.0, 185.0, 180.0, 156.0, 154.0, 154.0, 156.0, 181.0, 185.0, 174.0]",8.502735137939453,0.0,-5.719146728515625,0.00048828125,-27.87120819091797
1743581374.2549672,0.0,1.038602514731128,"[174.0, 185.0, 179.0, 155.0, 154.0, 155.0, 158.0, 183.0, 185.0, 174.0]",8.55031681060791,0.0,-5.890167236328125,0.00048065185546875,-27.871192932128906
1743581374.2739456,0.0,1.038602514731128,"[174.0, 185.0, 180.0, 156.0, 154.0, 154.0, 156.0, 181.0, 185.0, 174.0]",8.748136520385742,0.0,-6.06512451171875,0.000476837158203125,-27.8707275390625
1743581374.297697,0.0,1.038602514731128,"[174.0, 185.0, 179.0, 155.0, 154.0, 155.0, 158.0, 183.0, 185.0, 174.0]",8.7537202835083,0.0,-6.240203857421875,0.0004749298095703125,-27.871063232421875
1743581374.314799,0.0,1.038602514731128,"[174.0, 185.0, 179.0, 156.0, 154.0, 154.0, 158.0, 181.0, 185.0, 174.0]",8.93112850189209,0.0,-6.4188232421875,0.000476837158203125,-27.870094299316406
1743581374.3359265,0.0,1.0371178026260846,"[174.0, 185.0, 179.0, 156.0, 154.0, 154.0, 158.0, 181.0, 185.0, 174.0]",9.120177268981934,0.0,-6.601226806640625,0.00048065185546875,-27.870262145996094
1743581374.3544571,0.0,1.0371178026260846,"[174.0, 185.0, 179.0, 156.0, 154.0, 154.0, 158.0, 181.0, 185.0, 174.0]",9.115979194641113,0.0,-6.783538818359375,0.000484466552734375,-27.87005615234375
1743581374.374538,0.0,1.0371178026260846,"[174.0, 185.0, 180.0, 156.0, 154.0, 154.0, 156.0, 181.0, 185.0, 174.0]",9.293463706970215,0.0,-6.969390869140625,0.0004901885986328125,-27.869964599609375
1743581374.3944368,0.0,1.0371178026260846,"[174.0, 185.0, 179.0, 155.0, 154.0, 155.0, 158.0, 183.0, 185.0, 174.0]",9.258977890014648,0.0,-7.154571533203125,0.0004978179931640625,-27.870223999023438
1743581374.4151478,0.0,1.0371178026260846,"[174.0, 185.0, 179.0, 156.0, 154.0, 154.0, 158.0, 181.0, 185.0, 174.0]",9.60622501373291,0.0,-7.346710205078125,0.0005035400390625,-27.869720458984375
1743581374.433679,0.0,1.0371178026260846,"[174.0, 185.0, 179.0, 156.0, 154.0, 154.0, 158.0, 181.0, 185.0, 174.0]",9.558629035949707,0.0,-7.537872314453125,0.00051116943359375,-27.86957550048828
1743581374.45324,0.0,1.0356330905210411,"[174.0, 185.0, 180.0, 156.0, 154.0, 154.0, 156.0, 181.0, 185.0, 174.0]",9.67004680633545,0.0,-7.731292724609375,0.000518798828125,-27.869361877441406
1743581374.4738472,0.0,1.0356330905210411,"[174.0, 185.0, 179.0, 156.0, 154.0, 154.0, 158.0, 181.0, 185.0, 174.0]",9.872700691223145,0.0,-7.928741455078125,0.0005245208740234375,-27.869529724121094
1743581374.4959836,0.0,1.0356330905210411,"[174.0, 185.0, 179.0, 156.0, 154.0, 154.0, 158.0, 181.0, 185.0, 174.0]",10.010921478271484,0.0,-8.12896728515625,0.0005321502685546875,-27.869384765625
1743581374.5162303,0.0,1.0356330905210411,"[174.0, 185.0, 179.0, 155.0, 154.0, 154.0, 158.0, 183.0, 185.0, 174.0]",10.207308769226074,0.0,-8.333099365234375,0.000537872314453125,-27.86920166015625
1743581374.535724,0.0,1.0356330905210411,"[174.0, 185.0, 180.0, 156.0, 154.0, 154.0, 156.0, 181.0, 185.0, 174.0]",10.419562339782715,0.0,-8.54150390625,0.0005435943603515625,-27.868942260742188
1743581374.55324,0.0,1.0356330905210411,"[174.0, 185.0, 179.0, 156.0, 154.0, 154.0, 158.0, 181.0, 185.0, 174.0]",10.291898727416992,0.0,-8.747344970703125,0.0005474090576171875,-27.86907958984375
1743581374.5747178,0.0,1.0356330905210411,"[174.0, 185.0, 179.0, 156.0, 154.0, 154.0, 158.0, 181.0, 185.0, 174.0]",10.687799453735352,0.0,-8.961090087890625,0.0005512237548828125,-27.868850708007812
1743581374.5935903,0.0,1.0356330905210411,"[174.0, 185.0, 179.0, 156.0, 154.0, 154.0, 156.0, 181.0, 185.0, 174.0]",10.634028434753418,0.0,-9.17376708984375,0.0005550384521484375,-27.868682861328125
1743581374.6147304,0.0,1.0356330905210411,"[174.0, 185.0, 179.0, 155.0, 154.0, 154.0, 158.0, 183.0, 185.0, 174.0]",10.868922233581543,0.0,-9.391143798828125,0.00055694580078125,-27.868675231933594
1743581374.6343791,0.0,1.0356330905210411,"[174.0, 185.0, 179.0, 156.0, 154.0, 154.0, 156.0, 181.0, 185.0, 174.0]",10.636114120483398,0.0,-9.603851318359375,0.0005588531494140625,-27.868331909179688
1743581374.6545684,0.0,1.0356330905210411,"[174.0, 185.0, 179.0, 156.0, 154.0, 154.0, 156.0, 181.0, 185.0, 174.0]",10.942339897155762,0.0,-9.822723388671875,0.000560760498046875,-27.868301391601562
1743581374.674389,0.0,1.0341483784159977,"[174.0, 185.0, 179.0, 155.0, 154.0, 154.0, 158.0, 183.0, 185.0, 174.0]",11.09005355834961,0.0,-10.044525146484375,0.0005626678466796875,-27.86823272705078
1743581374.697073,0.0,1.0341483784159977,"[174.0, 185.0, 179.0, 156.0, 154.0, 154.0, 156.0, 181.0, 185.0, 174.0]",11.316149711608887,0.0,-10.270843505859375,0.0005626678466796875,-27.867958068847656
1743581374.7163458,0.0,1.0341483784159977,"[174.0, 185.0, 179.0, 155.0, 154.0, 154.0, 158.0, 183.0, 185.0, 174.0]",11.05922794342041,0.0,-10.492034912109375,0.0005626678466796875,-27.868026733398438
1743581374.7358656,0.0,1.0341483784159977,"[174.0, 185.0, 179.0, 155.0, 154.0, 155.0, 158.0, 183.0, 185.0, 174.0]",11.354621887207031,0.0,-10.7191162109375,0.0005645751953125,-27.867691040039062
1743581374.7546904,0.0,1.0341483784159977,"[174.0, 185.0, 179.0, 155.0, 154.0, 155.0, 158.0, 183.0, 185.0, 174.0]",11.682177543640137,0.0,-10.9527587890625,0.0005626678466796875,-27.86731719970703
1743581374.7743795,0.0,1.0341483784159977,"[174.0, 185.0, 180.0, 156.0, 154.0, 154.0, 156.0, 181.0, 185.0, 174.0]",11.727747917175293,0.0,-11.18731689453125,0.0005626678466796875,-27.866920471191406
1743581374.7934997,0.0,1.0341483784159977,"[174.0, 185.0, 179.0, 155.0, 154.0, 154.0, 158.0, 183.0, 185.0, 174.0]",11.745574951171875,0.0,-11.422210693359375,0.0005626678466796875,-27.86724090576172
1743581374.815576,0.0,1.0341483784159977,"[174.0, 185.0, 179.0, 156.0, 154.0, 154.0, 156.0, 181.0, 185.0, 174.0]",11.932222366333008,0.0,-11.660858154296875,0.0005626678466796875,-27.866867065429688
1743581374.8333354,0.0,1.0341483784159977,"[174.0, 185.0, 179.0, 155.0, 154.0, 155.0, 158.0, 183.0, 185.0, 174.0]",12.114909172058105,0.0,-11.903167724609375,0.000560760498046875,-27.86687469482422
1743581374.8544784,0.0,1.0341483784159977,"[174.0, 185.0, 179.0, 155.0, 154.0, 154.0, 158.0, 183.0, 185.0, 174.0]",12.023625373840332,0.0,-12.143646240234375,0.000560760498046875,-27.86650848388672
1743581374.8749077,0.0,1.0341483784159977,"[174.0, 185.0, 179.0, 155.0, 154.0, 154.0, 158.0, 183.0, 185.0, 174.0]",12.401455879211426,0.0,-12.39166259765625,0.0005588531494140625,-27.866226196289062
1743581374.896799,0.0,1.0341483784159977,"[174.0, 185.0, 179.0, 156.0, 154.0, 154.0, 156.0, 181.0, 185.0, 174.0]",12.481950759887695,0.0,-12.64129638671875,0.0005588531494140625,-27.865890502929688
1743581374.9166777,0.0,1.0341483784159977,"[174.0, 185.0, 179.0, 155.0, 154.0, 155.0, 158.0, 183.0, 185.0, 174.0]",12.54057788848877,0.0,-12.892120361328125,0.0005588531494140625,-27.865997314453125
1743581374.9360313,0.0,1.0341483784159977,"[174.0, 185.0, 179.0, 156.0, 154.0, 154.0, 156.0, 181.0, 185.0, 174.0]",12.517106056213379,0.0,-13.1424560546875,0.00055694580078125,-27.865463256835938
1743581374.9545896,0.0,1.0341483784159977,"[174.0, 185.0, 179.0, 156.0, 154.0, 154.0, 158.0, 181.0, 185.0, 174.0]",12.654850959777832,0.0,-13.395538330078125,0.00055694580078125,-27.865623474121094
1743581374.9740243,0.0,1.0341483784159977,"[174.0, 185.0, 179.0, 155.0, 154.0, 155.0, 158.0, 183.0, 185.0, 174.0]",12.854899406433105,0.0,-13.65264892578125,0.0005550384521484375,-27.865501403808594
1743581374.9940825,0.0,1.0341483784159977,"[174.0, 185.0, 179.0, 156.0, 154.0, 154.0, 158.0, 181.0, 185.0, 174.0]",13.03801155090332,0.0,-13.913421630859375,0.0005550384521484375,-27.865081787109375
1743581375.0137959,0.0,1.0341483784159977,"[174.0, 185.0, 179.0, 156.0, 154.0, 154.0, 158.0, 181.0, 185.0, 174.0]",12.998987197875977,0.0,-14.17340087890625,0.0005550384521484375,-27.864959716796875
1743581375.0335765,0.0,1.0341483784159977,"[174.0, 185.0, 179.0, 156.0, 154.0, 154.0, 156.0, 181.0, 185.0, 174.0]",13.392337799072266,0.0,-14.44122314453125,0.0005550384521484375,-27.864891052246094
1743581375.0543587,0.0,1.0341483784159977,"[174.0, 185.0, 179.0, 155.0, 154.0, 155.0, 158.0, 183.0, 185.0, 174.0]",13.219805717468262,0.0,-14.70562744140625,0.0005550384521484375,-27.8648681640625
1743581375.0738153,0.0,1.0341483784159977,"[174.0, 185.0, 179.0, 156.0, 154.0, 154.0, 158.0, 181.0, 185.0, 174.0]",13.385461807250977,0.0,-14.97332763671875,0.0005550384521484375,-27.864463806152344
1743581375.0968058,0.0,1.0341483784159977,"[174.0, 185.0, 180.0, 156.0, 154.0, 154.0, 156.0, 181.0, 185.0, 174.0]",13.550559043884277,0.0,-15.244354248046875,0.000553131103515625,-27.86426544189453
1743581375.1137967,0.0,1.0341483784159977,"[174.0, 185.0, 179.0, 155.0, 154.0, 154.0, 158.0, 183.0, 185.0, 174.0]",13.506961822509766,0.0,-15.514495849609375,0.000553131103515625,-27.86455535888672
1743581375.1365063,0.0,1.0341483784159977,"[174.0, 185.0, 179.0, 155.0, 154.0, 154.0, 158.0, 183.0, 185.0, 174.0]",13.808490753173828,0.0,-15.7906494140625,0.000553131103515625,-27.864273071289062
1743581375.154687,0.0,1.0341483784159977,"[174.0, 185.0, 179.0, 156.0, 154.0, 154.0, 156.0, 181.0, 185.0, 174.0]",14.010465621948242,0.0,-16.07086181640625,0.000553131103515625,-27.863914489746094
1743581375.1739821,0.0,1.0341483784159977,"[174.0, 185.0, 179.0, 155.0, 154.0, 155.0, 158.0, 183.0, 185.0, 174.0]",14.002901077270508,0.0,-16.350921630859375,0.000553131103515625,-27.86395263671875
1743581375.1938715,0.0,1.0341483784159977,"[174.0, 185.0, 179.0, 156.0, 154.0, 154.0, 158.0, 181.0, 185.0, 174.0]",13.967697143554688,0.0,-16.630279541015625,0.000553131103515625,-27.86334228515625
1743581375.215278,0.0,1.0341483784159977,"[174.0, 185.0, 179.0, 156.0, 154.0, 154.0, 156.0, 181.0, 185.0, 174.0]",14.315096855163574,0.0,-16.916595458984375,0.000553131103515625,-27.86322784423828
1743581375.235025,0.0,1.0341483784159977,"[174.0, 185.0, 179.0, 155.0, 154.0, 155.0, 158.0, 183.0, 185.0, 174.0]",14.361352920532227,0.0,-17.203826904296875,0.000553131103515625,-27.863235473632812
1743581375.2542474,0.0,1.0341483784159977,"[174.0, 185.0, 179.0, 156.0, 154.0, 154.0, 158.0, 181.0, 185.0, 174.0]",14.353500366210938,0.0,-17.490875244140625,0.000553131103515625,-27.862869262695312
1743581375.2742805,0.0,1.0341483784159977,"[174.0, 185.0, 179.0, 156.0, 154.0, 154.0, 158.0, 181.0, 185.0, 174.0]",14.652097702026367,0.0,-17.783935546875,0.000553131103515625,-27.862754821777344
1743581375.2969627,0.0,1.0341483784159977,"[174.0, 185.0, 179.0, 156.0, 154.0, 154.0, 156.0, 181.0, 185.0, 174.0]",14.676786422729492,0.0,-18.07745361328125,0.0005550384521484375,-27.862655639648438
1743581375.316098,0.0,1.0341483784159977,"[174.0, 185.0, 179.0, 156.0, 154.0, 154.0, 156.0, 181.0, 185.0, 174.0]",14.892152786254883,0.0,-18.37530517578125,0.0005550384521484375,-27.862625122070312
1743581375.334843,0.0,1.0341483784159977,"[174.0, 185.0, 179.0, 155.0, 154.0, 155.0, 158.0, 183.0, 185.0, 174.0]",14.98088264465332,0.0,-18.6749267578125,0.0005550384521484375,-27.862655639648438
1743581375.3553765,0.0,1.0341483784159977,"[174.0, 185.0, 179.0, 156.0, 154.0, 154.0, 156.0, 181.0, 185.0, 174.0]",14.847384452819824,0.0,-18.97186279296875,0.0005550384521484375,-27.862274169921875
1743581375.3736382,0.0,1.0341483784159977,"[174.0, 185.0, 179.0, 156.0, 154.0, 154.0, 156.0, 181.0, 185.0, 174.0]",15.185446739196777,0.0,-19.27557373046875,0.0005550384521484375,-27.8623046875
1743581375.3932607,0.0,1.0341483784159977,"[174.0, 185.0, 179.0, 155.0, 154.0, 155.0, 158.0, 183.0, 185.0, 174.0]",15.174613952636719,0.0,-19.579071044921875,0.0005550384521484375,-27.862525939941406
1743581375.4156222,0.0,1.0341483784159977,"[174.0, 185.0, 179.0, 156.0, 154.0, 154.0, 158.0, 181.0, 185.0, 174.0]",15.189016342163086,0.0,-19.882843017578125,0.0005550384521484375,-27.862045288085938
1743581375.4332707,0.0,1.0341483784159977,"[174.0, 185.0, 179.0, 156.0, 154.0, 154.0, 156.0, 181.0, 185.0, 174.0]",15.580495834350586,0.0,-20.1944580078125,0.0005550384521484375,-27.86182403564453
1743581375.454264,0.0,1.0341483784159977,"[174.0, 185.0, 179.0, 156.0, 154.0, 154.0, 158.0, 183.0, 185.0, 174.0]",15.424057006835938,0.0,-20.5029296875,0.0005550384521484375,-27.861793518066406
1743581375.4739192,0.0,1.0341483784159977,"[174.0, 185.0, 179.0, 156.0, 154.0, 154.0, 156.0, 181.0, 185.0, 174.0]",15.65756893157959,0.0,-20.816070556640625,0.0005550384521484375,-27.861602783203125
