timestamp,steering_input,acceleration_input,raycasts,speed,steering,position_x,position_y,position_z
1743581680.3683643,0.0,-0.0,"[174.0, 185.0, 227.0, 295.0, 259.0, 259.0, 295.0, 227.0, 185.0, 174.0]",0.0,0.0,0.0,0.10000038146972656,-27.93000030517578
1743581680.5804927,0.0,-0.0,"[174.0, 185.0, 178.0, 155.0, 154.0, 154.0, 156.0, 179.0, 185.0, 174.0]",0.1431841105222702,0.0,0.0,0.097137451171875,-27.93000030517578
1743581680.6274576,0.0,-0.0,"[174.0, 185.0, 178.0, 155.0, 154.0, 154.0, 156.0, 179.0, 185.0, 174.0]",0.2360968291759491,0.0,0.0,0.09241485595703125,-27.93000030517578
1743581680.6315162,0.0,-0.0,"[174.0, 185.0, 178.0, 155.0, 154.0, 154.0, 156.0, 179.0, 185.0, 174.0]",0.30777978897094727,0.0,0.0,0.08625984191894531,-27.93000030517578
1743581680.6655636,0.0,-0.0,"[174.0, 185.0, 179.0, 155.0, 154.0, 154.0, 156.0, 179.0, 185.0, 174.0]",0.36006540060043335,0.0,0.0,0.07905769348144531,-27.93000030517578
1743581680.6692584,0.0,-0.0,"[174.0, 185.0, 179.0, 155.0, 154.0, 154.0, 156.0, 179.0, 185.0, 174.0]",0.3949472904205322,0.0,0.0,0.07115936279296875,-27.93000030517578
1743581680.705065,0.0,-0.0,"[174.0, 185.0, 179.0, 155.0, 154.0, 154.0, 156.0, 180.0, 185.0, 174.0]",0.41450235247612,0.0,0.0,0.06286811828613281,-27.93000030517578
1743581680.7083426,0.0,-0.0,"[174.0, 185.0, 179.0, 155.0, 154.0, 154.0, 156.0, 180.0, 185.0, 174.0]",0.42082807421684265,0.0,0.0,0.05445289611816406,-27.93000030517578
1743581680.7385304,0.0,-0.0,"[174.0, 185.0, 179.0, 155.0, 154.0, 154.0, 156.0, 181.0, 185.0, 174.0]",0.41598936915397644,0.0,0.0,0.04613304138183594,-27.93000030517578
1743581680.7424262,0.0,-0.0,"[174.0, 185.0, 179.0, 155.0, 154.0, 154.0, 156.0, 181.0, 185.0, 174.0]",0.4019714593887329,0.0,0.0,0.03809356689453125,-27.93000030517578
1743581680.775015,0.0,-0.0,"[174.0, 185.0, 179.0, 156.0, 154.0, 154.0, 156.0, 181.0, 185.0, 174.0]",0.3806484043598175,0.0,0.0,0.03047943115234375,-27.93000030517578
1743581680.8074453,0.0,-0.0,"[174.0, 185.0, 180.0, 156.0, 154.0, 154.0, 156.0, 181.0, 185.0, 174.0]",0.3537571132183075,0.0,0.0,0.023405075073242188,-27.93000030517578
1743581680.8101928,0.0,-0.0,"[174.0, 185.0, 180.0, 156.0, 154.0, 154.0, 156.0, 181.0, 185.0, 174.0]",0.3228750228881836,0.0,0.0,0.016946792602539062,-27.92999267578125
1743581680.8399496,0.0,-0.0,"[174.0, 185.0, 180.0, 156.0, 154.0, 154.0, 156.0, 181.0, 185.0, 174.0]",0.28941938281059265,0.0,0.0,0.011159896850585938,-27.930038452148438
1743581680.8435698,0.0,-0.0,"[174.0, 185.0, 180.0, 156.0, 154.0, 154.0, 156.0, 181.0, 185.0, 174.0]",0.2562173306941986,0.0,0.0,0.0060672760009765625,-27.929466247558594
1743581680.8776262,0.0,-0.0,"[174.0, 185.0, 181.0, 156.0, 154.0, 154.0, 156.0, 181.0, 185.0, 174.0]",0.34839218854904175,0.0,0.0,0.0016765594482421875,-27.93487548828125
1743581680.8821921,0.0,-0.0,"[174.0, 185.0, 181.0, 156.0, 154.0, 154.0, 156.0, 181.0, 185.0, 174.0]",0.255353718996048,0.0,0.0,-0.0020236968994140625,-27.931358337402344
1743581680.9176087,0.0,-0.0,"[174.0, 185.0, 181.0, 156.0, 154.0, 154.0, 156.0, 181.0, 185.0, 174.0]",0.2815416157245636,0.0,0.0,-0.0050601959228515625,-27.926612854003906
1743581680.9495451,0.0,-0.0,"[174.0, 185.0, 181.0, 156.0, 154.0, 154.0, 156.0, 181.0, 185.0, 174.0]",0.15634490549564362,0.0,0.0,-0.007472991943359375,-27.928604125976562
1743581680.9526646,0.0,-0.0,"[174.0, 185.0, 181.0, 156.0, 154.0, 154.0, 156.0, 181.0, 185.0, 174.0]",0.27455902099609375,0.0,0.0,-0.009307861328125,-27.923431396484375
1743581680.9903305,0.0,-0.0,"[174.0, 185.0, 181.0, 156.0, 154.0, 154.0, 156.0, 181.0, 185.0, 174.0]",0.2245660424232483,0.0,0.0,-0.010616302490234375,-27.92772674560547
1743581680.9938622,0.0,-0.0,"[174.0, 185.0, 181.0, 156.0, 154.0, 154.0, 156.0, 181.0, 185.0, 174.0]",0.08891011029481888,0.0,0.0,-0.011455535888671875,-27.929290771484375
1743581681.0283573,0.0,-0.0,"[174.0, 185.0, 181.0, 156.0, 154.0, 154.0, 156.0, 181.0, 185.0, 174.0]",0.1896505206823349,0.0,0.0,-0.011884689331054688,-27.925521850585938
1743581681.0309546,0.0,-0.0,"[174.0, 185.0, 181.0, 156.0, 154.0, 154.0, 156.0, 181.0, 185.0, 174.0]",0.2066076397895813,0.0,0.0,-0.011960983276367188,-27.92139434814453
1743581681.0621629,0.0,-0.0,"[174.0, 185.0, 181.0, 156.0, 154.0, 154.0, 156.0, 181.0, 185.0, 174.0]",0.12101753056049347,0.0,0.0,-0.011743545532226562,-27.918983459472656
1743581681.06791,0.0,-0.0,"[174.0, 185.0, 181.0, 156.0, 154.0, 154.0, 156.0, 181.0, 185.0, 174.0]",0.19259010255336761,0.0,0.0,-0.011285781860351562,-27.922805786132812
1743581681.103991,0.0,-0.0,"[174.0, 185.0, 181.0, 156.0, 154.0, 154.0, 156.0, 181.0, 185.0, 174.0]",0.17800575494766235,0.0,0.0,-0.010637283325195312,-27.926307678222656
1743581681.1103299,0.0,-0.0,"[174.0, 185.0, 181.0, 156.0, 154.0, 154.0, 156.0, 181.0, 185.0, 174.0]",0.16013549268245697,0.0,0.0,-0.009847640991210938,-27.929412841796875
1743581681.1450827,0.0,-0.0,"[174.0, 185.0, 181.0, 156.0, 154.0, 154.0, 156.0, 181.0, 185.0, 174.0]",0.07219173014163971,0.0,0.0,-0.0089569091796875,-27.9305419921875
1743581681.1499789,0.0,-0.0,"[174.0, 185.0, 181.0, 156.0, 154.0, 154.0, 156.0, 181.0, 185.0, 174.0]",0.1852148175239563,0.0,0.0,-0.008007049560546875,-27.926963806152344
1743581681.188155,0.0,-0.0,"[174.0, 185.0, 181.0, 156.0, 154.0, 154.0, 156.0, 181.0, 185.0, 174.0]",0.15632963180541992,0.0,0.0,-0.00702667236328125,-27.923995971679688
1743581681.195461,0.0,-0.0,"[174.0, 185.0, 181.0, 156.0, 154.0, 154.0, 156.0, 181.0, 185.0, 174.0]",0.051327187567949295,0.0,0.0,-0.0060482025146484375,-27.923690795898438
1743581681.2271988,0.0,-0.0,"[174.0, 185.0, 181.0, 156.0, 154.0, 154.0, 156.0, 181.0, 185.0, 174.0]",0.15988554060459137,0.0,0.0,-0.0050907135009765625,-27.926742553710938
1743581681.231738,0.0,-0.0,"[174.0, 185.0, 181.0, 156.0, 154.0, 154.0, 156.0, 181.0, 185.0, 174.0]",0.05791441351175308,0.0,0.0,-0.004177093505859375,-27.927452087402344
1743581681.2644567,0.0,-0.0,"[174.0, 185.0, 181.0, 156.0, 154.0, 154.0, 156.0, 181.0, 185.0, 174.0]",0.19991730153560638,0.0,0.0,-0.0033206939697265625,-27.923545837402344
1743581681.267628,0.0,-0.0,"[174.0, 185.0, 181.0, 156.0, 154.0, 154.0, 156.0, 181.0, 185.0, 174.0]",0.12208718806505203,0.0,0.0,-0.0025310516357421875,-27.921234130859375
1743581681.2998466,0.0,-0.0,"[174.0, 185.0, 181.0, 156.0, 154.0, 154.0, 156.0, 181.0, 185.0, 174.0]",0.18460233509540558,0.0,0.0,-0.0018177032470703125,-27.92485809326172
1743581681.3040614,0.0,-0.0,"[174.0, 185.0, 181.0, 156.0, 154.0, 154.0, 156.0, 181.0, 185.0, 174.0]",0.13353228569030762,0.0,0.0,-0.0011844635009765625,-27.927452087402344
1743581681.3428426,0.0,-0.0,"[174.0, 185.0, 181.0, 156.0, 154.0, 154.0, 156.0, 181.0, 185.0, 174.0]",0.11446059495210648,0.0,3.0517578125e-05,-0.00063323974609375,-27.92523193359375
1743581681.3468745,0.0,-0.0,"[174.0, 185.0, 181.0, 156.0, 154.0, 154.0, 156.0, 181.0, 185.0, 174.0]",0.18039268255233765,0.0,3.0517578125e-05,-0.0001621246337890625,-27.928802490234375
1743581681.3804398,0.0,-0.0,"[174.0, 185.0, 181.0, 156.0, 154.0, 154.0, 156.0, 181.0, 185.0, 174.0]",0.12967412173748016,0.0,3.0517578125e-05,0.0002288818359375,-27.931365966796875
1743581681.4168258,0.0,-0.0,"[174.0, 185.0, 181.0, 156.0, 154.0, 154.0, 156.0, 181.0, 185.0, 174.0]",0.1237604022026062,0.0,3.0517578125e-05,0.000545501708984375,-27.928909301757812
1743581681.421186,0.0,-0.0,"[174.0, 185.0, 181.0, 156.0, 154.0, 154.0, 156.0, 181.0, 185.0, 174.0]",0.1935333013534546,0.0,3.0517578125e-05,0.0007915496826171875,-27.932777404785156
1743581681.4545786,0.0,-0.0,"[174.0, 185.0, 181.0, 156.0, 154.0, 154.0, 156.0, 181.0, 185.0, 174.0]",0.12180628627538681,0.0,6.103515625e-05,0.000972747802734375,-27.935203552246094
1743581681.4609747,0.0,-0.0,"[174.0, 185.0, 181.0, 156.0, 154.0, 154.0, 156.0, 181.0, 185.0, 174.0]",0.16159525513648987,0.0,6.103515625e-05,0.0010967254638671875,-27.931976318359375
1743581681.4927573,0.0,-0.0,"[174.0, 185.0, 181.0, 156.0, 154.0, 154.0, 156.0, 181.0, 185.0, 174.0]",0.0772232785820961,0.0,6.103515625e-05,0.0011692047119140625,-27.930435180664062
1743581681.4970345,0.0,-0.0,"[174.0, 185.0, 181.0, 156.0, 154.0, 154.0, 156.0, 181.0, 185.0, 174.0]",0.184142604470253,0.0,6.103515625e-05,0.00119781494140625,-27.934112548828125
1743581681.5301993,0.0,-0.0,"[174.0, 185.0, 181.0, 156.0, 154.0, 154.0, 156.0, 181.0, 185.0, 174.0]",0.1367751508951187,0.0,6.103515625e-05,0.0011882781982421875,-27.936851501464844
1743581681.5335958,0.0,-0.0,"[174.0, 185.0, 181.0, 156.0, 154.0, 154.0, 156.0, 181.0, 185.0, 174.0]",0.06419677287340164,0.0,6.103515625e-05,0.001148223876953125,-27.935569763183594
1743581681.5664213,0.0,-0.0,"[174.0, 185.0, 181.0, 156.0, 154.0, 154.0, 156.0, 181.0, 185.0, 174.0]",0.1747168004512787,0.0,6.103515625e-05,0.0010833740234375,-27.939064025878906
1743581681.569701,0.0,-0.0,"[174.0, 185.0, 181.0, 156.0, 154.0, 154.0, 156.0, 181.0, 185.0, 174.0]",0.1311485320329666,0.0,9.1552734375e-05,0.00099945068359375,-27.941680908203125
1743581681.6040092,0.0,-0.0,"[174.0, 185.0, 181.0, 156.0, 154.0, 154.0, 156.0, 181.0, 185.0, 174.0]",0.11074256151914597,0.0,9.1552734375e-05,0.0009002685546875,-27.939468383789062
1743581681.6085382,0.0,-0.0,"[174.0, 185.0, 181.0, 156.0, 154.0, 154.0, 156.0, 181.0, 185.0, 174.0]",0.1801898330450058,0.0,9.1552734375e-05,0.00079345703125,-27.943069458007812
1743581681.6446216,0.0,-0.0,"[174.0, 185.0, 181.0, 156.0, 154.0, 154.0, 156.0, 181.0, 185.0, 174.0]",0.14138393104076385,0.0,9.1552734375e-05,0.00067901611328125,-27.945899963378906
1743581681.649352,0.0,-0.0,"[174.0, 185.0, 181.0, 156.0, 154.0, 154.0, 156.0, 181.0, 185.0, 174.0]",0.0333004854619503,0.0,9.1552734375e-05,0.0005645751953125,-27.94524383544922
1743581681.733396,0.0,-0.0,"[174.0, 185.0, 181.0, 156.0, 154.0, 154.0, 156.0, 181.0, 185.0, 174.0]",0.19635771214962006,0.0,9.1552734375e-05,0.0004520416259765625,-27.94916534423828
1743581681.736622,0.0,-0.0,"[174.0, 185.0, 181.0, 156.0, 154.0, 154.0, 156.0, 181.0, 185.0, 174.0]",0.12271545082330704,0.0,0.0001220703125,0.00034332275390625,-27.951614379882812
1743581681.7403417,0.0,-0.0,"[174.0, 185.0, 181.0, 156.0, 154.0, 154.0, 156.0, 181.0, 185.0, 174.0]",0.15798240900039673,0.0,0.0001220703125,0.0002384185791015625,-27.948455810546875
1743581681.744223,0.0,-0.0,"[174.0, 185.0, 181.0, 156.0, 154.0, 154.0, 156.0, 181.0, 185.0, 174.0]",0.0622306689620018,0.0,0.0001220703125,0.0001430511474609375,-27.947219848632812
1743581681.7780478,0.0,-0.0,"[174.0, 185.0, 181.0, 156.0, 154.0, 154.0, 156.0, 181.0, 185.0, 174.0]",0.17492303252220154,0.0,0.0001220703125,5.53131103515625e-05,-27.950714111328125
1743581681.7813466,0.0,-0.0,"[174.0, 185.0, 181.0, 156.0, 154.0, 154.0, 156.0, 181.0, 185.0, 174.0]",0.13653863966464996,0.0,0.0001220703125,-2.288818359375e-05,-27.953445434570312
1743581681.8146253,0.0,-0.0,"[174.0, 185.0, 181.0, 156.0, 154.0, 154.0, 156.0, 181.0, 185.0, 174.0]",0.0718504786491394,0.0,0.0001220703125,-9.34600830078125e-05,-27.952011108398438
1743581681.818802,0.0,-0.0,"[174.0, 185.0, 181.0, 156.0, 154.0, 154.0, 156.0, 181.0, 185.0, 174.0]",0.17569200694561005,0.0,0.0001220703125,-0.000152587890625,-27.955520629882812
1743581681.8507364,0.0,-0.0,"[174.0, 185.0, 181.0, 156.0, 154.0, 154.0, 156.0, 181.0, 185.0, 174.0]",0.13826613128185272,0.0,0.000152587890625,-0.000202178955078125,-27.958290100097656
1743581681.855811,0.0,-0.0,"[174.0, 185.0, 181.0, 156.0, 154.0, 154.0, 156.0, 181.0, 185.0, 174.0]",0.05745533108711243,0.0,0.000152587890625,-0.000244140625,-27.957138061523438
1743581681.8882108,0.0,-0.0,"[174.0, 185.0, 181.0, 156.0, 154.0, 154.0, 156.0, 181.0, 185.0, 174.0]",0.1775936484336853,0.0,0.000152587890625,-0.000278472900390625,-27.960693359375
1743581681.892813,0.0,-0.0,"[174.0, 185.0, 181.0, 156.0, 154.0, 154.0, 156.0, 181.0, 185.0, 174.0]",0.14114311337471008,0.0,0.000152587890625,-0.0003032684326171875,-27.963516235351562
1743581681.9247375,0.0,-0.0,"[174.0, 185.0, 181.0, 156.0, 154.0, 154.0, 156.0, 181.0, 185.0, 174.0]",0.034520473331213,0.0,0.000152587890625,-0.0003204345703125,-27.96282196044922
1743581681.927652,0.0,-0.0,"[174.0, 185.0, 181.0, 156.0, 154.0, 154.0, 156.0, 181.0, 185.0, 174.0]",0.20195074379444122,0.0,0.00018310546875,-0.000331878662109375,-27.96686553955078
1743581681.9587057,0.0,-0.0,"[174.0, 185.0, 181.0, 156.0, 154.0, 154.0, 156.0, 181.0, 185.0, 174.0]",0.09901262819766998,0.0,0.00018310546875,-0.000339508056640625,-27.968841552734375
1743581681.991812,0.0,-0.0,"[174.0, 185.0, 181.0, 156.0, 154.0, 154.0, 156.0, 181.0, 185.0, 174.0]",0.20315459370613098,0.0,0.00018310546875,-0.000339508056640625,-27.96478271484375
1743581681.9962077,0.0,-0.0,"[174.0, 185.0, 181.0, 156.0, 154.0, 154.0, 156.0, 181.0, 185.0, 174.0]",0.09250973165035248,0.0,0.000152587890625,-0.0003376007080078125,-27.962928771972656
1743581682.0300713,0.0,-0.0,"[174.0, 185.0, 181.0, 156.0, 154.0, 154.0, 156.0, 181.0, 185.0, 174.0]",0.21048150956630707,0.0,0.00018310546875,-0.000331878662109375,-27.967140197753906
1743581682.0332997,0.0,-0.0,"[174.0, 185.0, 181.0, 156.0, 154.0, 154.0, 156.0, 181.0, 185.0, 174.0]",0.054807256907224655,0.0,0.00018310546875,-0.0003223419189453125,-27.968238830566406
1743581682.0633447,0.0,-0.0,"[174.0, 185.0, 181.0, 156.0, 154.0, 154.0, 156.0, 181.0, 185.0, 174.0]",0.18342110514640808,0.0,0.00018310546875,-0.00031280517578125,-27.964569091796875
1743581682.0662336,0.0,-0.0,"[174.0, 185.0, 181.0, 156.0, 154.0, 154.0, 156.0, 181.0, 185.0, 174.0]",0.14437030255794525,0.0,0.000152587890625,-0.0002994537353515625,-27.961685180664062
1743581682.0967937,0.0,-0.0,"[174.0, 185.0, 181.0, 156.0, 154.0, 154.0, 156.0, 181.0, 185.0, 174.0]",0.010325106792151928,0.0,0.000152587890625,-0.0002880096435546875,-27.961883544921875
1743581682.1270828,0.0,-0.0,"[174.0, 185.0, 181.0, 156.0, 154.0, 154.0, 156.0, 181.0, 185.0, 174.0]",0.08798801898956299,0.0,0.000152587890625,-0.000274658203125,-27.960128784179688
1743581682.1297376,0.0,-0.0,"[174.0, 185.0, 181.0, 156.0, 154.0, 154.0, 156.0, 181.0, 185.0, 174.0]",0.2099931389093399,0.0,0.00018310546875,-0.0002613067626953125,-27.964324951171875
1743581682.1599643,0.0,-0.0,"[174.0, 185.0, 181.0, 156.0, 154.0, 154.0, 156.0, 181.0, 185.0, 174.0]",0.05686913803219795,0.0,0.00018310546875,-0.000247955322265625,-27.96546173095703
1743581682.162861,0.0,-0.0,"[174.0, 185.0, 181.0, 156.0, 154.0, 154.0, 156.0, 181.0, 185.0, 174.0]",0.17966091632843018,0.0,0.00018310546875,-0.0002346038818359375,-27.961868286132812
1743581682.197566,0.0,-0.0,"[174.0, 185.0, 181.0, 156.0, 154.0, 154.0, 156.0, 181.0, 185.0, 174.0]",0.14235873520374298,0.0,0.000152587890625,-0.0002231597900390625,-27.959022521972656
1743581682.2291243,0.0,-0.0,"[174.0, 185.0, 181.0, 156.0, 154.0, 154.0, 156.0, 181.0, 185.0, 174.0]",0.024575751274824142,0.0,0.000152587890625,-0.000213623046875,-27.959518432617188
1743581682.232143,0.0,-0.0,"[174.0, 185.0, 181.0, 156.0, 154.0, 154.0, 156.0, 181.0, 185.0, 174.0]",0.1880163848400116,0.0,0.000152587890625,-0.0002040863037109375,-27.95575714111328
1743581682.263264,0.0,-0.0,"[174.0, 185.0, 181.0, 156.0, 154.0, 154.0, 156.0, 181.0, 185.0, 174.0]",0.14146263897418976,0.0,0.000152587890625,-0.000194549560546875,-27.952926635742188
1743581682.266646,0.0,-0.0,"[174.0, 185.0, 181.0, 156.0, 154.0, 154.0, 156.0, 181.0, 185.0, 174.0]",0.031307123601436615,0.0,0.000152587890625,-0.000186920166015625,-27.95355224609375
1743581682.2992342,0.0,-0.0,"[174.0, 185.0, 181.0, 156.0, 154.0, 154.0, 156.0, 181.0, 185.0, 174.0]",0.19213135540485382,0.0,0.000152587890625,-0.0001811981201171875,-27.94970703125
1743581682.3299177,0.0,-0.0,"[174.0, 185.0, 181.0, 156.0, 154.0, 154.0, 156.0, 181.0, 185.0, 174.0]",0.1337447315454483,0.0,0.0001220703125,-0.00017547607421875,-27.947036743164062
1743581682.3337657,0.0,-0.0,"[174.0, 185.0, 181.0, 156.0, 154.0, 154.0, 156.0, 181.0, 185.0, 174.0]",0.09263762831687927,0.0,0.0001220703125,-0.000171661376953125,-27.948883056640625
1743581682.3654878,0.0,-0.0,"[174.0, 185.0, 181.0, 156.0, 154.0, 154.0, 156.0, 181.0, 185.0, 174.0]",0.2106226533651352,0.0,0.0001220703125,-0.0001678466796875,-27.944671630859375
1743581682.369253,0.0,-0.0,"[174.0, 185.0, 181.0, 156.0, 154.0, 154.0, 156.0, 181.0, 185.0, 174.0]",0.053793199360370636,0.0,0.0001220703125,-0.000164031982421875,-27.94359588623047
1743581682.4021285,0.0,-0.0,"[174.0, 185.0, 181.0, 156.0, 154.0, 154.0, 156.0, 181.0, 185.0, 174.0]",0.18583746254444122,0.0,0.0001220703125,-0.0001621246337890625,-27.947311401367188
1743581682.406609,0.0,-0.0,"[174.0, 185.0, 181.0, 156.0, 154.0, 154.0, 156.0, 181.0, 185.0, 174.0]",0.1430375576019287,0.0,0.0001220703125,-0.0001621246337890625,-27.950180053710938
1743581682.4385538,0.0,-0.0,"[174.0, 185.0, 181.0, 156.0, 154.0, 154.0, 156.0, 181.0, 185.0, 174.0]",0.019723525270819664,0.0,0.0001220703125,-0.0001621246337890625,-27.949783325195312
1743581682.442274,0.0,-0.0,"[174.0, 185.0, 181.0, 156.0, 154.0, 154.0, 156.0, 181.0, 185.0, 174.0]",0.18836303055286407,0.0,0.0001220703125,-0.0001621246337890625,-27.95355224609375
1743581682.4726994,0.0,-0.0,"[174.0, 185.0, 181.0, 156.0, 154.0, 154.0, 156.0, 181.0, 185.0, 174.0]",0.14051376283168793,0.0,0.0001220703125,-0.0001621246337890625,-27.95635986328125
1743581682.5024831,0.0,-0.0,"[174.0, 185.0, 181.0, 156.0, 154.0, 154.0, 156.0, 181.0, 185.0, 174.0]",0.038770899176597595,0.0,0.000152587890625,-0.0001621246337890625,-27.955581665039062
1743581682.506241,0.0,-0.0,"[174.0, 185.0, 181.0, 156.0, 154.0, 154.0, 156.0, 181.0, 185.0, 174.0]",0.20928703248500824,0.0,0.000152587890625,-0.000164031982421875,-27.95977020263672
1743581682.5371726,0.0,-0.0,"[174.0, 185.0, 181.0, 156.0, 154.0, 154.0, 156.0, 181.0, 185.0, 174.0]",0.0603407584130764,0.0,0.000152587890625,-0.000164031982421875,-27.960975646972656
1743581682.5671551,0.0,-0.0,"[174.0, 185.0, 181.0, 156.0, 154.0, 154.0, 156.0, 181.0, 185.0, 174.0]",0.176280215382576,0.0,0.000152587890625,-0.0001659393310546875,-27.95745086669922
1743581682.5702658,0.0,-0.0,"[174.0, 185.0, 181.0, 156.0, 154.0, 154.0, 156.0, 181.0, 185.0, 174.0]",0.13787387311458588,0.0,0.000152587890625,-0.0001678466796875,-27.954696655273438
1743581682.6041327,0.0,-0.0,"[174.0, 185.0, 181.0, 156.0, 154.0, 154.0, 156.0, 181.0, 185.0, 174.0]",0.059169523417949677,0.0,0.0001220703125,-0.0001697540283203125,-27.95587158203125
1743581682.6087832,0.0,-0.0,"[174.0, 185.0, 181.0, 156.0, 154.0, 154.0, 156.0, 181.0, 185.0, 174.0]",0.17614339292049408,0.0,0.0001220703125,-0.000171661376953125,-27.952354431152344
1743581682.6401186,0.0,-0.0,"[174.0, 185.0, 181.0, 156.0, 154.0, 154.0, 156.0, 181.0, 185.0, 174.0]",0.13753186166286469,0.0,0.0001220703125,-0.000171661376953125,-27.949600219726562
1743581682.643068,0.0,-0.0,"[174.0, 185.0, 181.0, 156.0, 154.0, 154.0, 156.0, 181.0, 185.0, 174.0]",0.06201857328414917,0.0,0.0001220703125,-0.0001735687255859375,-27.950843811035156
1743581682.6737905,0.0,-0.0,"[174.0, 185.0, 181.0, 156.0, 154.0, 154.0, 156.0, 181.0, 185.0, 174.0]",0.17492681741714478,0.0,0.0001220703125,-0.00017547607421875,-27.947341918945312
1743581682.7055295,0.0,-0.0,"[174.0, 185.0, 181.0, 156.0, 154.0, 154.0, 156.0, 181.0, 185.0, 174.0]",0.13515165448188782,0.0,9.1552734375e-05,-0.00017547607421875,-27.94464111328125
1743581682.7089698,0.0,-0.0,"[174.0, 185.0, 181.0, 156.0, 154.0, 154.0, 156.0, 181.0, 185.0, 174.0]",0.08116552978754044,0.0,9.1552734375e-05,-0.0001773834228515625,-27.946266174316406
1743581682.739454,0.0,-0.0,"[174.0, 185.0, 181.0, 156.0, 154.0, 154.0, 156.0, 181.0, 185.0, 174.0]",0.19521167874336243,0.0,9.1552734375e-05,-0.0001773834228515625,-27.942359924316406
1743581682.7430546,0.0,-0.0,"[174.0, 185.0, 181.0, 156.0, 154.0, 154.0, 156.0, 181.0, 185.0, 174.0]",0.1258745640516281,0.0,9.1552734375e-05,-0.000179290771484375,-27.939842224121094
1743581682.7765474,0.0,-0.0,"[174.0, 185.0, 181.0, 156.0, 154.0, 154.0, 156.0, 181.0, 185.0, 174.0]",0.14341174066066742,0.0,9.1552734375e-05,-0.000179290771484375,-27.942710876464844
1743581682.8088691,0.0,-0.0,"[174.0, 185.0, 181.0, 156.0, 154.0, 154.0, 156.0, 181.0, 185.0, 174.0]",0.007905163802206516,0.0,9.1552734375e-05,-0.0001811981201171875,-27.942550659179688
1743581682.8115911,0.0,-0.0,"[174.0, 185.0, 181.0, 156.0, 154.0, 154.0, 156.0, 181.0, 185.0, 174.0]",0.05470709130167961,0.0,9.1552734375e-05,-0.0001811981201171875,-27.943649291992188
1743581682.8430598,0.0,-0.0,"[174.0, 185.0, 181.0, 156.0, 154.0, 154.0, 156.0, 181.0, 185.0, 174.0]",0.17918594181537628,0.0,9.1552734375e-05,-0.0001811981201171875,-27.9400634765625
1743581682.8464606,0.0,-0.0,"[174.0, 185.0, 181.0, 156.0, 154.0, 154.0, 156.0, 181.0, 185.0, 174.0]",0.14194144308567047,0.0,6.103515625e-05,-0.0001811981201171875,-27.937225341796875
1743581682.8775256,0.0,-0.0,"[174.0, 185.0, 181.0, 156.0, 154.0, 154.0, 156.0, 181.0, 185.0, 174.0]",0.02775217778980732,0.0,6.103515625e-05,-0.0001811981201171875,-27.937782287597656
1743581682.9092214,0.0,-0.0,"[174.0, 185.0, 181.0, 156.0, 154.0, 154.0, 156.0, 181.0, 185.0, 174.0]",0.18445590138435364,0.0,6.103515625e-05,-0.0001811981201171875,-27.93408966064453
1743581682.9120684,0.0,-0.0,"[174.0, 185.0, 181.0, 156.0, 154.0, 154.0, 156.0, 181.0, 185.0, 174.0]",0.14395101368427277,0.0,6.103515625e-05,-0.0001811981201171875,-27.93121337890625
1743581682.943004,0.0,-0.0,"[174.0, 185.0, 181.0, 156.0, 154.0, 154.0, 156.0, 181.0, 185.0, 174.0]",0.013245252892374992,0.0,6.103515625e-05,-0.0001811981201171875,-27.931480407714844
1743581682.9466856,0.0,-0.0,"[174.0, 185.0, 181.0, 156.0, 154.0, 154.0, 156.0, 181.0, 185.0, 174.0]",0.13011495769023895,0.0,6.103515625e-05,-0.0001811981201171875,-27.928878784179688
1743581682.9830775,0.0,-0.0,"[174.0, 185.0, 181.0, 156.0, 154.0, 154.0, 156.0, 181.0, 185.0, 174.0]",0.14088380336761475,0.0,6.103515625e-05,-0.0001811981201171875,-27.93169403076172
1743581683.015467,0.0,-0.0,"[174.0, 185.0, 181.0, 156.0, 154.0, 154.0, 156.0, 181.0, 185.0, 174.0]",0.024702437222003937,0.0,6.103515625e-05,-0.0001811981201171875,-27.931198120117188
1743581683.018268,0.0,-0.0,"[174.0, 185.0, 181.0, 156.0, 154.0, 154.0, 156.0, 181.0, 185.0, 174.0]",0.1831579953432083,0.0,6.103515625e-05,-0.0001811981201171875,-27.934860229492188
1743581683.048482,0.0,-0.0,"[174.0, 185.0, 181.0, 156.0, 154.0, 154.0, 156.0, 181.0, 185.0, 174.0]",0.14374779164791107,0.0,6.103515625e-05,-0.0001811981201171875,-27.93773651123047
1743581683.05175,0.0,-0.0,"[174.0, 185.0, 181.0, 156.0, 154.0, 154.0, 156.0, 181.0, 185.0, 174.0]",0.014733509160578251,0.0,6.103515625e-05,-0.0001811981201171875,-27.93744659423828
1743581683.0822296,0.0,-0.0,"[174.0, 185.0, 181.0, 156.0, 154.0, 154.0, 156.0, 181.0, 185.0, 174.0]",0.15011316537857056,0.0,6.103515625e-05,-0.0001811981201171875,-27.940444946289062
1743581683.0855937,0.0,-0.0,"[174.0, 185.0, 181.0, 156.0, 154.0, 154.0, 156.0, 181.0, 185.0, 174.0]",0.017039312049746513,0.0,6.103515625e-05,-0.0001811981201171875,-27.94078826904297
1743581683.1169431,0.0,-0.0,"[174.0, 185.0, 181.0, 156.0, 154.0, 154.0, 156.0, 181.0, 185.0, 174.0]",0.1960044503211975,0.0,6.103515625e-05,-0.0001811981201171875,-27.936866760253906
1743581683.1470442,0.0,-0.0,"[174.0, 185.0, 181.0, 156.0, 154.0, 154.0, 156.0, 181.0, 185.0, 174.0]",0.1244548112154007,0.0,6.103515625e-05,-0.0001811981201171875,-27.93437957763672
1743581683.1505888,0.0,-0.0,"[174.0, 185.0, 181.0, 156.0, 154.0, 154.0, 156.0, 181.0, 185.0, 174.0]",0.15166708827018738,0.0,6.103515625e-05,-0.000179290771484375,-27.937408447265625
1743581683.184058,0.0,-0.0,"[174.0, 185.0, 181.0, 156.0, 154.0, 154.0, 156.0, 181.0, 185.0, 174.0]",0.024429697543382645,0.0,6.103515625e-05,-0.000179290771484375,-27.937896728515625
1743581683.1879468,0.0,-0.0,"[174.0, 185.0, 181.0, 156.0, 154.0, 154.0, 156.0, 181.0, 185.0, 174.0]",0.18264131247997284,0.0,6.103515625e-05,-0.000179290771484375,-27.934249877929688
1743581683.222044,0.0,-0.0,"[174.0, 185.0, 181.0, 156.0, 154.0, 154.0, 156.0, 181.0, 185.0, 174.0]",0.14400862157344818,0.0,6.103515625e-05,-0.000179290771484375,-27.931365966796875
1743581683.2273664,0.0,-0.0,"[174.0, 185.0, 181.0, 156.0, 154.0, 154.0, 156.0, 181.0, 185.0, 174.0]",0.012792165391147137,0.0,3.0517578125e-05,-0.000179290771484375,-27.931625366210938
1743581683.2587388,0.0,-0.0,"[174.0, 185.0, 181.0, 156.0, 154.0, 154.0, 156.0, 181.0, 185.0, 174.0]",0.12370611727237701,0.0,6.103515625e-05,-0.000179290771484375,-27.929153442382812
1743581683.2889256,0.0,-0.0,"[174.0, 185.0, 181.0, 156.0, 154.0, 154.0, 156.0, 181.0, 185.0, 174.0]",0.20664112269878387,0.0,6.103515625e-05,-0.000179290771484375,-27.93328094482422
1743581683.2920346,0.0,-0.0,"[174.0, 185.0, 181.0, 156.0, 154.0, 154.0, 156.0, 181.0, 185.0, 174.0]",0.07386399805545807,0.0,6.103515625e-05,-0.000179290771484375,-27.93476104736328
1743581683.3215775,0.0,-0.0,"[174.0, 185.0, 181.0, 156.0, 154.0, 154.0, 156.0, 181.0, 185.0, 174.0]",0.17904315888881683,0.0,6.103515625e-05,-0.000179290771484375,-27.931182861328125
1743581683.3252182,0.0,-0.0,"[174.0, 185.0, 181.0, 156.0, 154.0, 154.0, 156.0, 181.0, 185.0, 174.0]",0.1415465772151947,0.0,6.103515625e-05,-0.000179290771484375,-27.92835235595703
1743581683.356008,0.0,-0.0,"[174.0, 185.0, 181.0, 156.0, 154.0, 154.0, 156.0, 181.0, 185.0, 174.0]",0.030746741220355034,0.0,3.0517578125e-05,-0.000179290771484375,-27.92896270751953
1743581683.3887908,0.0,-0.0,"[174.0, 185.0, 181.0, 156.0, 154.0, 154.0, 156.0, 181.0, 185.0, 174.0]",0.19082938134670258,0.0,3.0517578125e-05,-0.000179290771484375,-27.925148010253906
1743581683.39353,0.0,-0.0,"[174.0, 185.0, 181.0, 156.0, 154.0, 154.0, 156.0, 181.0, 185.0, 174.0]",0.13662977516651154,0.0,3.0517578125e-05,-0.000179290771484375,-27.92241668701172
1743581683.425871,0.0,-0.0,"[174.0, 185.0, 181.0, 156.0, 154.0, 154.0, 156.0, 181.0, 185.0, 174.0]",0.06969776004552841,0.0,3.0517578125e-05,-0.000179290771484375,-27.923812866210938
1743581683.4286313,0.0,-0.0,"[174.0, 185.0, 181.0, 156.0, 154.0, 154.0, 156.0, 181.0, 185.0, 174.0]",0.17465703189373016,0.0,3.0517578125e-05,-0.000179290771484375,-27.920318603515625
1743581683.4597383,0.0,-0.0,"[174.0, 185.0, 180.0, 156.0, 154.0, 154.0, 156.0, 181.0, 185.0, 174.0]",0.13456955552101135,0.0,3.0517578125e-05,-0.000179290771484375,-27.917625427246094
1743581683.4629526,0.0,-0.0,"[174.0, 185.0, 180.0, 156.0, 154.0, 154.0, 156.0, 181.0, 185.0, 174.0]",0.08586595952510834,0.0,0.0,-0.000179290771484375,-27.919342041015625
1743581683.4931018,0.0,-0.0,"[174.0, 185.0, 180.0, 156.0, 154.0, 154.0, 156.0, 181.0, 185.0, 174.0]",0.20599845051765442,0.0,0.0,-0.000179290771484375,-27.91522216796875
1743581683.5232642,0.0,-0.0,"[174.0, 185.0, 180.0, 156.0, 154.0, 154.0, 156.0, 181.0, 185.0, 174.0]",0.07721193134784698,0.0,0.0,-0.000179290771484375,-27.913681030273438
1743581683.5259883,0.0,-0.0,"[174.0, 185.0, 180.0, 156.0, 154.0, 154.0, 156.0, 181.0, 185.0, 174.0]",0.18560084700584412,0.0,0.0,-0.000179290771484375,-27.917388916015625
1743581683.5674834,0.0,-0.0,"[174.0, 185.0, 227.0, 295.0, 259.0, 160.0, 295.0, 190.0, 185.0, 174.0]",0.0,0.0,0.0,0.10000038146972656,-27.93000030517578
1743581683.5716004,0.0,-0.0,"[174.0, 185.0, 227.0, 295.0, 259.0, 160.0, 295.0, 190.0, 185.0, 174.0]",0.897616446018219,0.0,0.0,0.08204841613769531,-27.92999267578125
1743581683.606343,0.0,-0.0,"[174.0, 185.0, 179.0, 155.0, 154.0, 154.0, 156.0, 180.0, 185.0, 174.0]",0.8461042046546936,0.0,0.0,0.06512641906738281,-27.930152893066406
1743581683.6100001,0.0,-0.0,"[174.0, 185.0, 179.0, 155.0, 154.0, 154.0, 156.0, 180.0, 185.0, 174.0]",0.8383985161781311,0.0,0.0,0.04947090148925781,-27.924148559570312
1743581683.6417015,0.0,-0.0,"[174.0, 185.0, 179.0, 156.0, 154.0, 154.0, 156.0, 181.0, 185.0, 174.0]",0.7699765563011169,0.0,0.0,0.03524208068847656,-27.93004608154297
1743581683.644982,0.0,-0.0,"[174.0, 185.0, 179.0, 156.0, 154.0, 154.0, 156.0, 181.0, 185.0, 174.0]",0.7147423624992371,0.0,0.0,0.022546768188476562,-27.923477172851562
1743581683.6758373,0.0,-0.0,"[174.0, 185.0, 180.0, 156.0, 154.0, 154.0, 156.0, 181.0, 185.0, 174.0]",0.6583911776542664,0.0,0.0,0.011430740356445312,-27.93053436279297
1743581683.7073555,0.0,-0.0,"[174.0, 185.0, 181.0, 156.0, 154.0, 154.0, 156.0, 181.0, 185.0, 174.0]",0.5108327269554138,0.0,0.0,0.001895904541015625,-27.926864624023438
1743581683.7109103,0.0,-0.0,"[174.0, 185.0, 181.0, 156.0, 154.0, 154.0, 156.0, 181.0, 185.0, 174.0]",0.44818776845932007,0.0,0.0,-0.006092071533203125,-27.92279052734375
1743581683.7421408,0.0,-0.0,"[174.0, 185.0, 181.0, 156.0, 154.0, 155.0, 158.0, 183.0, 185.0, 174.0]",0.4057943820953369,0.0,3.0517578125e-05,-0.012601852416992188,-27.917945861816406
1743581683.7453296,0.0,-0.0,"[174.0, 185.0, 181.0, 156.0, 154.0, 155.0, 158.0, 183.0, 185.0, 174.0]",0.3110968768596649,0.0,0.0,-0.01772308349609375,-27.921478271484375
1743581683.7787373,0.0,-0.0,"[174.0, 185.0, 181.0, 156.0, 154.0, 154.0, 158.0, 183.0, 185.0, 174.0]",0.31614184379577637,0.0,0.0,-0.021566390991210938,-27.926498413085938
1743581683.8101065,0.0,-0.0,"[174.0, 185.0, 181.0, 156.0, 154.0, 154.0, 158.0, 183.0, 185.0, 174.0]",0.28637412190437317,0.0,0.0,-0.02425384521484375,-27.92144012451172
1743581683.8129544,0.0,-0.0,"[174.0, 185.0, 181.0, 156.0, 154.0, 154.0, 158.0, 183.0, 185.0, 174.0]",0.26993227005004883,0.0,0.0,-0.025915145874023438,-27.92657470703125
1743581683.843607,0.0,-0.0,"[174.0, 185.0, 181.0, 156.0, 154.0, 154.0, 158.0, 183.0, 185.0, 174.0]",0.23131321370601654,0.0,0.0,-0.02667999267578125,-27.922012329101562
1743581683.8471684,0.0,-0.0,"[174.0, 185.0, 181.0, 156.0, 154.0, 154.0, 158.0, 183.0, 185.0, 174.0]",0.002026855945587158,0.0,0.0,-0.026681900024414062,-27.92205810546875
1743581683.8782163,0.0,-0.0,"[174.0, 185.0, 181.0, 156.0, 154.0, 154.0, 158.0, 183.0, 185.0, 174.0]",0.044591233134269714,0.0,0.0,-0.0260467529296875,-27.921432495117188
1743581683.881872,0.0,-0.0,"[174.0, 185.0, 181.0, 156.0, 154.0, 154.0, 158.0, 183.0, 185.0, 174.0]",0.25738003849983215,0.0,0.0,-0.024898529052734375,-27.92644500732422
1743581683.914376,0.0,-0.0,"[174.0, 185.0, 181.0, 156.0, 154.0, 154.0, 156.0, 181.0, 185.0, 174.0]",0.21815195679664612,0.0,0.0,-0.023349761962890625,-27.92236328125
1743581683.9450297,0.0,-0.0,"[174.0, 185.0, 181.0, 156.0, 154.0, 154.0, 156.0, 181.0, 185.0, 174.0]",0.1613616645336151,0.0,0.0,-0.021505355834960938,-27.919723510742188
1743581683.9487333,0.0,-0.0,"[174.0, 185.0, 181.0, 156.0, 154.0, 154.0, 156.0, 181.0, 185.0, 174.0]",0.1609557420015335,0.0,-3.0517578125e-05,-0.019458770751953125,-27.922203063964844
1743581683.9827116,0.0,-0.0,"[174.0, 185.0, 181.0, 156.0, 154.0, 154.0, 156.0, 181.0, 185.0, 174.0]",0.22692714631557465,0.0,-3.0517578125e-05,-0.017292022705078125,-27.918212890625
1743581683.9858916,0.0,-0.0,"[174.0, 185.0, 181.0, 156.0, 154.0, 154.0, 156.0, 181.0, 185.0, 174.0]",0.16403011977672577,0.0,-3.0517578125e-05,-0.015077590942382812,-27.915794372558594
1743581684.0173092,0.0,-0.0,"[174.0, 185.0, 181.0, 156.0, 154.0, 154.0, 156.0, 181.0, 185.0, 174.0]",0.1970161497592926,0.0,-3.0517578125e-05,-0.012876510620117188,-27.9190673828125
1743581684.0477467,0.0,-0.0,"[174.0, 185.0, 181.0, 156.0, 154.0, 154.0, 156.0, 181.0, 185.0, 174.0]",0.13717901706695557,0.0,-3.0517578125e-05,-0.010740280151367188,-27.92078399658203
1743581684.051306,0.0,-0.0,"[174.0, 185.0, 181.0, 156.0, 154.0, 154.0, 156.0, 181.0, 185.0, 174.0]",0.22138755023479462,0.0,-3.0517578125e-05,-0.008707046508789062,-27.916854858398438
1743581684.0821166,0.0,-0.0,"[174.0, 185.0, 180.0, 156.0, 154.0, 154.0, 156.0, 181.0, 185.0, 174.0]",0.13818718492984772,0.0,-3.0517578125e-05,-0.0068111419677734375,-27.914840698242188
1743581684.085534,0.0,-0.0,"[174.0, 185.0, 180.0, 156.0, 154.0, 154.0, 156.0, 181.0, 185.0, 174.0]",0.20665548741817474,0.0,-3.0517578125e-05,-0.00507354736328125,-27.918594360351562
1743581684.1170907,0.0,-0.0,"[174.0, 185.0, 180.0, 156.0, 154.0, 154.0, 156.0, 181.0, 185.0, 174.0]",0.1377669870853424,0.0,-3.0517578125e-05,-0.0035076141357421875,-27.920860290527344
1743581684.1476724,0.0,-0.0,"[174.0, 185.0, 180.0, 156.0, 154.0, 154.0, 156.0, 181.0, 185.0, 174.0]",0.1899031549692154,0.0,-3.0517578125e-05,-0.002124786376953125,-27.917320251464844
1743581684.1507213,0.0,-0.0,"[174.0, 185.0, 180.0, 156.0, 154.0, 154.0, 156.0, 181.0, 185.0, 174.0]",0.12469464540481567,0.0,-3.0517578125e-05,-0.000926971435546875,-27.915130615234375
1743581684.1579266,0.0,-0.0,"[174.0, 185.0, 180.0, 156.0, 154.0, 154.0, 156.0, 181.0, 185.0, 174.0]",0.18968884646892548,0.0,-3.0517578125e-05,8.7738037109375e-05,-27.918785095214844
1743581684.1623275,0.0,-0.0,"[174.0, 185.0, 180.0, 156.0, 154.0, 154.0, 156.0, 181.0, 185.0, 174.0]",0.12199873477220535,0.0,-3.0517578125e-05,0.000926971435546875,-27.92108154296875
1743581684.1738248,0.0,-0.0,"[174.0, 185.0, 180.0, 156.0, 154.0, 154.0, 156.0, 181.0, 185.0, 174.0]",0.1802424043416977,0.0,-3.0517578125e-05,0.0016002655029296875,-27.91753387451172
1743581684.1950443,0.0,-0.0,"[174.0, 185.0, 180.0, 156.0, 154.0, 154.0, 156.0, 181.0, 185.0, 174.0]",0.11670202761888504,0.0,-3.0517578125e-05,0.002117156982421875,-27.915260314941406
1743581684.213893,0.0,-0.0,"[174.0, 185.0, 180.0, 156.0, 154.0, 154.0, 156.0, 181.0, 185.0, 174.0]",0.18225069344043732,0.0,-3.0517578125e-05,0.0024929046630859375,-27.91888427734375
1743581684.2333705,0.0,-0.0,"[174.0, 185.0, 180.0, 156.0, 154.0, 154.0, 156.0, 181.0, 185.0, 174.0]",0.12209586799144745,0.0,-3.0517578125e-05,0.002742767333984375,-27.92131805419922
1743581684.2530427,0.0,-0.0,"[174.0, 185.0, 180.0, 156.0, 154.0, 154.0, 156.0, 181.0, 185.0, 174.0]",0.157337486743927,0.0,-3.0517578125e-05,0.002880096435546875,-27.918174743652344
1743581684.2729523,0.0,-0.0,"[174.0, 185.0, 180.0, 156.0, 154.0, 154.0, 156.0, 181.0, 185.0, 174.0]",0.050204798579216,0.0,-3.0517578125e-05,0.00292205810546875,-27.91716766357422
1743581684.293073,0.0,-0.0,"[174.0, 185.0, 180.0, 156.0, 154.0, 154.0, 156.0, 181.0, 185.0, 174.0]",0.19360773265361786,0.0,-3.0517578125e-05,0.0028820037841796875,-27.921043395996094
1743581684.3128262,0.0,-0.0,"[174.0, 185.0, 180.0, 156.0, 154.0, 154.0, 156.0, 181.0, 185.0, 174.0]",0.11904916912317276,0.0,-3.0517578125e-05,0.002777099609375,-27.923416137695312
1743581684.3350697,0.0,-0.0,"[174.0, 185.0, 180.0, 156.0, 154.0, 154.0, 156.0, 181.0, 185.0, 174.0]",0.17225991189479828,0.0,-3.0517578125e-05,0.00261688232421875,-27.91998291015625
1743581684.352515,0.0,-0.0,"[174.0, 185.0, 180.0, 156.0, 154.0, 154.0, 156.0, 181.0, 185.0, 174.0]",0.12211284041404724,0.0,-3.0517578125e-05,0.00241851806640625,-27.91754150390625
1743581684.3725615,0.0,-0.0,"[174.0, 185.0, 180.0, 156.0, 154.0, 154.0, 156.0, 181.0, 185.0, 174.0]",0.1646144688129425,0.0,-3.0517578125e-05,0.00218963623046875,-27.92082977294922
1743581684.394173,0.0,-0.0,"[174.0, 185.0, 180.0, 156.0, 154.0, 154.0, 156.0, 181.0, 185.0, 174.0]",0.0959370881319046,0.0,-3.0517578125e-05,0.0019435882568359375,-27.9227294921875
1743581684.4137151,0.0,-0.0,"[174.0, 185.0, 180.0, 156.0, 154.0, 154.0, 156.0, 181.0, 185.0, 174.0]",0.20886684954166412,0.0,-3.0517578125e-05,0.0016880035400390625,-27.918563842773438
1743581684.4329765,0.0,-0.0,"[174.0, 185.0, 180.0, 156.0, 154.0, 154.0, 156.0, 181.0, 185.0, 174.0]",0.06592721492052078,0.0,-3.0517578125e-05,0.001430511474609375,-27.917266845703125
1743581684.4526656,0.0,-0.0,"[174.0, 185.0, 181.0, 156.0, 154.0, 154.0, 156.0, 181.0, 185.0, 174.0]",0.17512467503547668,0.0,-3.0517578125e-05,0.0011768341064453125,-27.920761108398438
1743581684.472623,0.0,-0.0,"[174.0, 185.0, 181.0, 156.0, 154.0, 154.0, 156.0, 181.0, 185.0, 174.0]",0.13632601499557495,0.0,-3.0517578125e-05,0.000934600830078125,-27.923477172851562
1743581684.4946015,0.0,-0.0,"[174.0, 185.0, 181.0, 156.0, 154.0, 154.0, 156.0, 181.0, 185.0, 174.0]",0.07888022810220718,0.0,0.0,0.000705718994140625,-27.921920776367188
1743581684.5166924,0.0,-0.0,"[174.0, 185.0, 181.0, 156.0, 154.0, 154.0, 156.0, 181.0, 185.0, 174.0]",0.1871488094329834,0.0,0.0,0.0004940032958984375,-27.9256591796875
1743581684.5391219,0.0,-0.0,"[174.0, 185.0, 181.0, 156.0, 154.0, 154.0, 156.0, 181.0, 185.0, 174.0]",0.14581942558288574,0.0,0.0,0.000301361083984375,-27.928565979003906
1743581684.5550086,0.0,-0.0,"[174.0, 185.0, 181.0, 156.0, 154.0, 154.0, 156.0, 181.0, 185.0, 174.0]",0.009194107726216316,0.0,0.0,0.00012969970703125,-27.928504943847656
1743581684.573442,0.0,-0.0,"[174.0, 185.0, 181.0, 156.0, 154.0, 154.0, 156.0, 181.0, 185.0, 174.0]",0.01954282633960247,0.0,0.0,-2.09808349609375e-05,-27.928863525390625
1743581684.5945737,0.0,-0.0,"[174.0, 185.0, 181.0, 156.0, 154.0, 154.0, 156.0, 181.0, 185.0, 174.0]",0.20480327308177948,0.0,0.0,-0.0001506805419921875,-27.924774169921875
1743581684.6142688,0.0,-0.0,"[174.0, 185.0, 181.0, 156.0, 154.0, 154.0, 156.0, 181.0, 185.0, 174.0]",0.08682799339294434,0.0,0.0,-0.0002593994140625,-27.92303466796875
1743581684.6325862,0.0,-0.0,"[174.0, 185.0, 181.0, 156.0, 154.0, 154.0, 156.0, 181.0, 185.0, 174.0]",0.20638327300548553,0.0,0.0,-0.000347137451171875,-27.927162170410156
1743581684.6525052,0.0,-0.0,"[174.0, 185.0, 181.0, 156.0, 154.0, 154.0, 156.0, 181.0, 185.0, 174.0]",0.07780926674604416,0.0,0.0,-0.000415802001953125,-27.92871856689453
1743581684.6731982,0.0,-0.0,"[174.0, 185.0, 181.0, 156.0, 154.0, 154.0, 156.0, 181.0, 185.0, 174.0]",0.18686114251613617,0.0,0.0,-0.000469207763671875,-27.92498016357422
1743581684.693214,0.0,-0.0,"[174.0, 185.0, 181.0, 156.0, 154.0, 154.0, 156.0, 181.0, 185.0, 174.0]",0.14555466175079346,0.0,0.0,-0.0005054473876953125,-27.922073364257812
1743581684.71383,0.0,-0.0,"[174.0, 185.0, 181.0, 156.0, 154.0, 154.0, 156.0, 181.0, 185.0, 174.0]",0.0030570963863283396,0.0,-3.0517578125e-05,-0.0005283355712890625,-27.92212677001953
1743581684.7342658,0.0,-0.0,"[174.0, 185.0, 181.0, 156.0, 154.0, 154.0, 156.0, 181.0, 185.0, 174.0]",0.014898519031703472,0.0,0.0,-0.0005397796630859375,-27.921829223632812
1743581684.7534797,0.0,-0.0,"[174.0, 185.0, 181.0, 156.0, 154.0, 154.0, 156.0, 181.0, 185.0, 174.0]",0.1691027581691742,0.0,-3.0517578125e-05,-0.0005397796630859375,-27.925216674804688
1743581684.773533,0.0,-0.0,"[174.0, 185.0, 181.0, 156.0, 154.0, 154.0, 156.0, 181.0, 185.0, 174.0]",0.12086456269025803,0.0,0.0,-0.000530242919921875,-27.927627563476562
1743581684.7947345,0.0,-0.0,"[174.0, 185.0, 181.0, 156.0, 154.0, 154.0, 156.0, 181.0, 185.0, 174.0]",0.17231036722660065,0.0,0.0,-0.000514984130859375,-27.924179077148438
1743581684.8127997,0.0,-0.0,"[174.0, 185.0, 181.0, 156.0, 154.0, 154.0, 156.0, 181.0, 185.0, 174.0]",0.13061553239822388,0.0,-3.0517578125e-05,-0.00049591064453125,-27.92156982421875
1743581684.832762,0.0,-0.0,"[174.0, 185.0, 181.0, 156.0, 154.0, 154.0, 156.0, 181.0, 185.0, 174.0]",0.11748462915420532,0.0,-3.0517578125e-05,-0.0004711151123046875,-27.923919677734375
1743581684.8529618,0.0,-0.0,"[174.0, 185.0, 180.0, 156.0, 154.0, 154.0, 156.0, 181.0, 185.0, 174.0]",0.19402311742305756,0.0,-3.0517578125e-05,-0.0004425048828125,-27.9200439453125
1743581684.8728118,0.0,-0.0,"[174.0, 185.0, 180.0, 156.0, 154.0, 154.0, 156.0, 181.0, 185.0, 174.0]",0.12945277988910675,0.0,-3.0517578125e-05,-0.0004138946533203125,-27.917449951171875
1743581684.8931196,0.0,-0.0,"[174.0, 185.0, 180.0, 156.0, 154.0, 154.0, 156.0, 181.0, 185.0, 174.0]",0.12377294898033142,0.0,-3.0517578125e-05,-0.0003833770751953125,-27.91992950439453
1743581684.9138231,0.0,-0.0,"[174.0, 185.0, 180.0, 156.0, 154.0, 154.0, 156.0, 181.0, 185.0, 174.0]",0.19709011912345886,0.0,-6.103515625e-05,-0.000354766845703125,-27.915985107421875
1743581684.93739,0.0,-0.0,"[174.0, 185.0, 180.0, 156.0, 154.0, 154.0, 156.0, 181.0, 185.0, 174.0]",0.12088162451982498,0.0,-6.103515625e-05,-0.0003261566162109375,-27.91356658935547
1743581684.952906,0.0,-0.0,"[174.0, 185.0, 180.0, 156.0, 154.0, 154.0, 156.0, 181.0, 185.0, 174.0]",0.16796918213367462,0.0,-6.103515625e-05,-0.00029754638671875,-27.91693115234375
1743581684.973545,0.0,-0.0,"[174.0, 185.0, 180.0, 156.0, 154.0, 154.0, 156.0, 181.0, 185.0, 174.0]",0.11465363204479218,0.0,-6.103515625e-05,-0.0002727508544921875,-27.919219970703125
1743581684.9950745,0.0,-0.0,"[174.0, 185.0, 180.0, 156.0, 154.0, 154.0, 156.0, 181.0, 185.0, 174.0]",0.18930315971374512,0.0,-6.103515625e-05,-0.000247955322265625,-27.915435791015625
1743581685.0129793,0.0,-0.0,"[174.0, 185.0, 180.0, 156.0, 154.0, 154.0, 156.0, 181.0, 185.0, 174.0]",0.13975468277931213,0.0,-6.103515625e-05,-0.0002269744873046875,-27.912643432617188
1743581685.0330143,0.0,-0.0,"[174.0, 185.0, 180.0, 156.0, 154.0, 154.0, 156.0, 181.0, 185.0, 174.0]",0.04424400255084038,0.0,-6.103515625e-05,-0.0002079010009765625,-27.913528442382812
1743581685.053445,0.0,-0.0,"[174.0, 185.0, 180.0, 156.0, 154.0, 154.0, 156.0, 181.0, 185.0, 174.0]",0.20805008709430695,0.0,-6.103515625e-05,-0.0001926422119140625,-27.90936279296875
1743581685.073461,0.0,-0.0,"[174.0, 185.0, 180.0, 156.0, 154.0, 154.0, 156.0, 181.0, 185.0, 174.0]",0.06629764288663864,0.0,-6.103515625e-05,-0.0001773834228515625,-27.908035278320312
1743581685.0937624,0.0,-0.0,"[174.0, 185.0, 180.0, 156.0, 154.0, 154.0, 156.0, 181.0, 185.0, 174.0]",0.17418350279331207,0.0,-6.103515625e-05,-0.0001659393310546875,-27.911521911621094
1743581685.1131427,0.0,-0.0,"[174.0, 185.0, 180.0, 156.0, 154.0, 154.0, 156.0, 181.0, 185.0, 174.0]",0.13316309452056885,0.0,-6.103515625e-05,-0.000156402587890625,-27.9141845703125
1743581685.1372266,0.0,-0.0,"[174.0, 185.0, 180.0, 156.0, 154.0, 154.0, 156.0, 181.0, 185.0, 174.0]",0.09676841646432877,0.0,-6.103515625e-05,-0.0001506805419921875,-27.912246704101562
1743581685.1534636,0.0,-0.0,"[174.0, 185.0, 180.0, 156.0, 154.0, 154.0, 156.0, 181.0, 185.0, 174.0]",0.20886796712875366,0.0,-6.103515625e-05,-0.00014495849609375,-27.916427612304688
1743581685.1727955,0.0,-0.0,"[174.0, 185.0, 180.0, 156.0, 154.0, 154.0, 156.0, 181.0, 185.0, 174.0]",0.062261808663606644,0.0,-6.103515625e-05,-0.000141143798828125,-27.91767120361328
1743581685.192922,0.0,-0.0,"[174.0, 185.0, 180.0, 156.0, 154.0, 154.0, 156.0, 181.0, 185.0, 174.0]",0.17532525956630707,0.0,-6.103515625e-05,-0.0001392364501953125,-27.914161682128906
1743581685.2149937,0.0,-0.0,"[174.0, 185.0, 180.0, 156.0, 154.0, 154.0, 156.0, 181.0, 185.0, 174.0]",0.13575933873653412,0.0,-6.103515625e-05,-0.0001373291015625,-27.91144561767578
1743581685.2348056,0.0,-0.0,"[174.0, 185.0, 180.0, 156.0, 154.0, 154.0, 156.0, 181.0, 185.0, 174.0]",0.07607167214155197,0.0,-6.103515625e-05,-0.0001392364501953125,-27.91297149658203
1743581685.2551248,0.0,-0.0,"[174.0, 185.0, 180.0, 156.0, 154.0, 154.0, 156.0, 181.0, 185.0, 174.0]",0.18172159790992737,0.0,-6.103515625e-05,-0.0001392364501953125,-27.909332275390625
1743581685.2759125,0.0,-0.0,"[174.0, 185.0, 180.0, 156.0, 154.0, 154.0, 156.0, 181.0, 185.0, 174.0]",0.14356103539466858,0.0,-6.103515625e-05,-0.000141143798828125,-27.906463623046875
1743581685.2951283,0.0,0.18192363012109683,"[174.0, 185.0, 180.0, 156.0, 154.0, 154.0, 156.0, 181.0, 185.0, 174.0]",0.015911336988210678,0.0,-9.1552734375e-05,-0.00014495849609375,-27.906784057617188
1743581685.3140526,0.0,0.3645432190414327,"[174.0, 185.0, 180.0, 156.0, 154.0, 154.0, 156.0, 181.0, 185.0, 174.0]",0.149693563580513,0.0,-0.00042724609375,-0.0001468658447265625,-27.90380859375
1743581685.3381205,0.0,0.9740175381617409,"[174.0, 185.0, 180.0, 156.0, 154.0, 154.0, 156.0, 181.0, 185.0, 174.0]",0.18015947937965393,0.0,-0.00140380859375,-0.0001506805419921875,-27.90727996826172
1743581685.3550613,0.0,1.033406022363476,"[174.0, 185.0, 181.0, 156.0, 154.0, 154.0, 156.0, 181.0, 185.0, 174.0]",0.19924579560756683,0.0,-0.0050048828125,-0.0001544952392578125,-27.905563354492188
1743581685.3760257,0.0,1.033406022363476,"[174.0, 185.0, 180.0, 156.0, 154.0, 154.0, 156.0, 181.0, 185.0, 174.0]",0.3078933358192444,0.0,-0.01116943359375,-0.000156402587890625,-27.905426025390625
1743581685.396518,0.0,1.033406022363476,"[174.0, 185.0, 180.0, 156.0, 154.0, 154.0, 156.0, 181.0, 185.0, 174.0]",0.467483252286911,0.0,-0.0205078125,-0.00016021728515625,-27.905364990234375
1743581685.4151292,0.0,1.0348907344685194,"[174.0, 185.0, 180.0, 156.0, 154.0, 154.0, 156.0, 181.0, 185.0, 174.0]",0.5961925387382507,0.0,-0.032440185546875,-0.000164031982421875,-27.905410766601562
1743581685.4351141,0.0,1.0371178026260846,"[174.0, 185.0, 180.0, 156.0, 154.0, 154.0, 156.0, 181.0, 185.0, 174.0]",0.7441970109939575,0.0,-0.04730224609375,-0.0001678466796875,-27.905410766601562
1743581685.454492,0.0,1.0389736927573887,"[174.0, 185.0, 180.0, 156.0, 154.0, 154.0, 156.0, 181.0, 185.0, 174.0]",0.8145899176597595,0.0,-0.0635986328125,-0.0001697540283203125,-27.905410766601562
1743581685.4743805,0.0,1.0389736927573887,"[174.0, 185.0, 180.0, 156.0, 154.0, 154.0, 156.0, 181.0, 185.0, 174.0]",0.9918321371078491,0.0,-0.08343505859375,-0.0001735687255859375,-27.905418395996094
1743581685.4955068,0.0,1.0389736927573887,"[174.0, 185.0, 180.0, 156.0, 154.0, 154.0, 156.0, 181.0, 185.0, 174.0]",1.1218782663345337,0.0,-0.105865478515625,-0.00017547607421875,-27.905433654785156
1743581685.5148456,0.0,1.0389736927573887,"[174.0, 185.0, 180.0, 156.0, 154.0, 154.0, 156.0, 181.0, 185.0, 174.0]",1.246869683265686,0.0,-0.130828857421875,-0.0001773834228515625,-27.905433654785156
1743581685.5370357,0.0,1.0389736927573887,"[174.0, 185.0, 180.0, 156.0, 154.0, 154.0, 156.0, 181.0, 185.0, 174.0]",1.3777621984481812,0.0,-0.15838623046875,-0.000179290771484375,-27.905441284179688
1743581685.5554786,0.0,1.0409223773952583,"[174.0, 185.0, 180.0, 156.0, 154.0, 154.0, 156.0, 181.0, 185.0, 174.0]",1.5312325954437256,0.0,-0.188995361328125,-0.0001811981201171875,-27.905433654785156
1743581685.5739503,0.0,1.0409223773952583,"[174.0, 185.0, 180.0, 156.0, 154.0, 154.0, 156.0, 181.0, 185.0, 174.0]",1.67600417137146,0.0,-0.222503662109375,-0.0001811981201171875,-27.905426025390625
1743581685.5957103,0.0,1.0409223773952583,"[174.0, 185.0, 180.0, 156.0, 154.0, 154.0, 156.0, 181.0, 185.0, 174.0]",1.800386905670166,0.0,-0.258514404296875,-0.00018310546875,-27.905410766601562
1743581685.6153424,0.0,1.0409223773952583,"[174.0, 185.0, 180.0, 156.0, 154.0, 154.0, 156.0, 181.0, 185.0, 174.0]",1.9467155933380127,0.0,-0.297454833984375,-0.00018310546875,-27.905410766601562
1743581685.6350148,0.0,1.0409223773952583,"[174.0, 185.0, 180.0, 156.0, 154.0, 154.0, 156.0, 181.0, 185.0, 174.0]",2.0577378273010254,0.0,-0.338623046875,-0.0001850128173828125,-27.90540313720703
1743581685.6539905,0.0,1.0409223773952583,"[174.0, 185.0, 180.0, 156.0, 154.0, 154.0, 156.0, 181.0, 185.0, 174.0]",2.1899054050445557,0.0,-0.382415771484375,-0.0001850128173828125,-27.9053955078125
1743581685.6746154,0.0,1.042592678513432,"[174.0, 185.0, 180.0, 156.0, 154.0, 154.0, 156.0, 181.0, 185.0, 174.0]",2.3281309604644775,0.0,-0.428985595703125,-0.0001850128173828125,-27.905372619628906
1743581685.6958776,0.0,1.042592678513432,"[174.0, 185.0, 180.0, 156.0, 154.0, 154.0, 156.0, 181.0, 185.0, 174.0]",2.4637742042541504,0.0,-0.478240966796875,-0.0001850128173828125,-27.905349731445312
1743581685.7150784,0.0,1.042592678513432,"[174.0, 185.0, 180.0, 156.0, 154.0, 154.0, 156.0, 181.0, 185.0, 174.0]",2.583224296569824,0.0,-0.5299072265625,-0.0001850128173828125,-27.90533447265625
1743581685.736929,0.0,1.042592678513432,"[174.0, 185.0, 180.0, 156.0, 154.0, 154.0, 156.0, 181.0, 185.0, 174.0]",2.7561159133911133,0.0,-0.58502197265625,-0.0001850128173828125,-27.905319213867188
1743581685.7548199,0.0,1.042592678513432,"[174.0, 185.0, 180.0, 156.0, 154.0, 154.0, 156.0, 181.0, 185.0, 174.0]",2.913102149963379,0.0,-0.643310546875,-0.0001850128173828125,-27.905303955078125
1743581685.7753153,0.0,1.042592678513432,"[174.0, 185.0, 180.0, 156.0, 154.0, 154.0, 156.0, 181.0, 185.0, 174.0]",3.047304153442383,0.0,-0.704254150390625,-0.0001850128173828125,-27.9052734375
1743581685.7944632,0.0,1.042592678513432,"[174.0, 185.0, 180.0, 156.0, 154.0, 154.0, 156.0, 181.0, 185.0, 174.0]",3.1245431900024414,0.0,-0.7667236328125,-0.0001850128173828125,-27.905242919921875
1743581685.8140898,0.0,1.042592678513432,"[174.0, 185.0, 180.0, 156.0, 154.0, 154.0, 156.0, 181.0, 185.0, 174.0]",3.23925518989563,0.0,-0.831512451171875,-0.0001850128173828125,-27.90522003173828
1743581685.8351755,0.0,1.042592678513432,"[174.0, 185.0, 180.0, 156.0, 154.0, 154.0, 156.0, 181.0, 185.0, 174.0]",3.4073374271392822,0.0,-0.899658203125,-0.0001850128173828125,-27.90520477294922
1743581685.8540413,0.0,1.042592678513432,"[174.0, 185.0, 180.0, 156.0, 154.0, 154.0, 156.0, 181.0, 185.0, 174.0]",3.5428895950317383,0.0,-0.97052001953125,-0.00018310546875,-27.905189514160156
1743581685.8748884,0.0,1.042592678513432,"[174.0, 185.0, 180.0, 156.0, 154.0, 154.0, 156.0, 181.0, 185.0, 174.0]",3.6844534873962402,0.0,-1.044219970703125,-0.00018310546875,-27.905174255371094
1743581685.8941844,0.0,1.042592678513432,"[174.0, 185.0, 180.0, 156.0, 154.0, 154.0, 156.0, 181.0, 185.0, 174.0]",3.797781467437744,0.0,-1.12017822265625,-0.00018310546875,-27.90515899658203
1743581685.9155152,0.0,1.042592678513432,"[174.0, 185.0, 180.0, 156.0, 154.0, 154.0, 156.0, 181.0, 185.0, 174.0]",3.9358410835266113,0.0,-1.198883056640625,-0.00018310546875,-27.905136108398438
1743581685.9375591,0.0,1.042592678513432,"[174.0, 185.0, 180.0, 156.0, 154.0, 154.0, 156.0, 181.0, 185.0, 174.0]",4.069351673126221,0.0,-1.2802734375,-0.00018310546875,-27.905113220214844
1743581685.9558864,0.0,1.042592678513432,"[174.0, 185.0, 180.0, 156.0, 154.0, 154.0, 156.0, 181.0, 185.0, 174.0]",4.19833517074585,0.0,-1.364227294921875,-0.0001811981201171875,-27.90509033203125
1743581685.9753225,0.0,1.042592678513432,"[174.0, 185.0, 180.0, 156.0, 154.0, 154.0, 156.0, 181.0, 185.0, 174.0]",4.3367767333984375,0.0,-1.45098876953125,-0.0001811981201171875,-27.905075073242188
1743581685.9943392,0.0,1.042592678513432,"[174.0, 185.0, 180.0, 156.0, 154.0, 154.0, 156.0, 181.0, 185.0, 174.0]",4.460348606109619,0.0,-1.540191650390625,-0.0001811981201171875,-27.905052185058594
1743581686.0154362,0.0,1.042592678513432,"[174.0, 185.0, 180.0, 156.0, 154.0, 154.0, 156.0, 181.0, 185.0, 174.0]",4.588929176330566,0.0,-1.6319580078125,-0.0001811981201171875,-27.905029296875
1743581686.035112,0.0,1.042592678513432,"[174.0, 185.0, 180.0, 156.0, 154.0, 154.0, 156.0, 181.0, 185.0, 174.0]",4.732120037078857,0.0,-1.726593017578125,-0.0001811981201171875,-27.904998779296875
1743581686.0546904,0.0,1.042592678513432,"[174.0, 185.0, 180.0, 156.0, 154.0, 154.0, 156.0, 181.0, 185.0, 174.0]",4.861362457275391,0.0,-1.823822021484375,-0.0001811981201171875,-27.90496826171875
1743581686.0745234,0.0,1.042592678513432,"[174.0, 185.0, 180.0, 156.0, 154.0, 154.0, 156.0, 181.0, 185.0, 174.0]",4.990514278411865,0.0,-1.92364501953125,-0.0001811981201171875,-27.904945373535156
1743581686.095591,0.0,1.042592678513432,"[174.0, 185.0, 180.0, 156.0, 154.0, 154.0, 156.0, 181.0, 185.0, 174.0]",5.116974830627441,0.0,-2.025970458984375,-0.0001811981201171875,-27.90491485595703
1743581686.1146605,0.0,1.042592678513432,"[174.0, 185.0, 180.0, 156.0, 154.0, 154.0, 156.0, 181.0, 185.0, 174.0]",5.347991466522217,0.0,-2.1329345703125,0.000156402587890625,-27.904876708984375
1743581686.1381516,0.0,1.042592678513432,"[174.0, 185.0, 180.0, 156.0, 154.0, 154.0, 156.0, 181.0, 185.0, 174.0]",5.185422420501709,0.0,-2.23663330078125,0.0004425048828125,-27.9049072265625
1743581686.155413,0.0,1.041061569155106,"[174.0, 185.0, 180.0, 156.0, 154.0, 154.0, 156.0, 181.0, 185.0, 174.0]",5.479663848876953,0.0,-2.34625244140625,0.0006809234619140625,-27.904693603515625
1743581686.174372,0.0,1.041061569155106,"[174.0, 185.0, 180.0, 156.0, 154.0, 154.0, 156.0, 181.0, 185.0, 174.0]",5.698136329650879,0.0,-2.460205078125,0.0008716583251953125,-27.90483856201172
1743581686.1951773,0.0,1.041061569155106,"[174.0, 185.0, 180.0, 156.0, 154.0, 154.0, 156.0, 181.0, 185.0, 174.0]",5.539053440093994,0.0,-2.57098388671875,0.0010204315185546875,-27.904808044433594
1743581686.2149959,0.0,1.041061569155106,"[174.0, 185.0, 180.0, 156.0, 154.0, 154.0, 156.0, 181.0, 185.0, 174.0]",5.664381504058838,0.0,-2.68426513671875,0.0011272430419921875,-27.904541015625
1743581686.2345304,0.0,1.041061569155106,"[174.0, 185.0, 179.0, 155.0, 154.0, 155.0, 158.0, 181.0, 185.0, 174.0]",5.717813014984131,0.0,-2.798614501953125,0.0011997222900390625,-27.905250549316406
1743581686.256082,0.0,1.041061569155106,"[174.0, 185.0, 181.0, 156.0, 154.0, 154.0, 156.0, 181.0, 185.0, 174.0]",5.980374813079834,0.0,-2.918212890625,0.0012416839599609375,-27.903579711914062
1743581686.2753723,0.0,1.041061569155106,"[174.0, 185.0, 179.0, 155.0, 154.0, 155.0, 158.0, 181.0, 185.0, 174.0]",6.101578235626221,0.0,-3.04022216796875,0.001255035400390625,-27.905960083007812
1743581686.2945547,0.0,1.041061569155106,"[174.0, 185.0, 181.0, 156.0, 154.0, 154.0, 156.0, 181.0, 185.0, 174.0]",6.110042572021484,0.0,-3.162384033203125,0.001247406005859375,-27.902557373046875
1743581686.31507,0.0,1.041061569155106,"[174.0, 185.0, 179.0, 155.0, 154.0, 155.0, 158.0, 181.0, 185.0, 174.0]",6.39401912689209,0.0,-3.290191650390625,0.0012226104736328125,-27.90721893310547
1743581686.3381197,0.0,1.041061569155106,"[174.0, 185.0, 181.0, 156.0, 154.0, 154.0, 156.0, 181.0, 185.0, 174.0]",6.545660495758057,0.0,-3.421051025390625,0.00118255615234375,-27.9044189453125
1743581686.3551376,0.0,1.041061569155106,"[174.0, 185.0, 179.0, 155.0, 154.0, 155.0, 158.0, 183.0, 185.0, 174.0]",6.713912487030029,0.0,-3.5552978515625,0.001132965087890625,-27.90734100341797
1743581686.373977,0.0,1.041061569155106,"[174.0, 185.0, 181.0, 156.0, 154.0, 154.0, 156.0, 181.0, 185.0, 174.0]",6.874388217926025,0.0,-3.6927490234375,0.00107574462890625,-27.903518676757812
1743581686.394149,0.0,1.041061569155106,"[174.0, 185.0, 179.0, 155.0, 154.0, 155.0, 158.0, 183.0, 185.0, 174.0]",6.92858362197876,0.0,-3.831268310546875,0.00101470947265625,-27.907508850097656
1743581686.4159434,0.0,1.041061569155106,"[174.0, 185.0, 180.0, 156.0, 154.0, 154.0, 156.0, 181.0, 185.0, 174.0]",7.163057327270508,0.0,-3.9744873046875,0.0009517669677734375,-27.904632568359375
1743581686.435174,0.0,1.041061569155106,"[174.0, 185.0, 180.0, 156.0, 154.0, 154.0, 156.0, 181.0, 185.0, 174.0]",7.2397966384887695,0.0,-4.1192626953125,0.000888824462890625,-27.907066345214844
1743581686.4546678,0.0,1.041061569155106,"[174.0, 185.0, 180.0, 156.0, 154.0, 154.0, 156.0, 181.0, 185.0, 174.0]",7.270612716674805,0.0,-4.2646484375,0.000827789306640625,-27.904808044433594
1743581686.4749324,0.0,1.041061569155106,"[174.0, 185.0, 180.0, 156.0, 154.0, 154.0, 156.0, 181.0, 185.0, 174.0]",7.402411460876465,0.0,-4.4127197265625,0.00077056884765625,-27.905433654785156
1743581686.494465,0.0,1.041061569155106,"[174.0, 185.0, 180.0, 156.0, 154.0, 154.0, 156.0, 181.0, 185.0, 174.0]",7.593655586242676,0.0,-4.5645751953125,0.0007190704345703125,-27.904922485351562
1743581686.514982,0.0,1.041061569155106,"[174.0, 185.0, 180.0, 156.0, 154.0, 155.0, 158.0, 181.0, 185.0, 174.0]",7.656076431274414,0.0,-4.71771240234375,0.0006694793701171875,-27.905166625976562
1743581686.5401607,0.0,1.041061569155106,"[174.0, 185.0, 180.0, 156.0, 154.0, 154.0, 156.0, 181.0, 185.0, 174.0]",7.842215538024902,0.0,-4.874542236328125,0.0006275177001953125,-27.904434204101562
1743581686.5551841,0.0,1.041061569155106,"[174.0, 185.0, 180.0, 156.0, 154.0, 155.0, 158.0, 181.0, 185.0, 174.0]",8.062512397766113,0.0,-5.035797119140625,0.000591278076171875,-27.904945373535156
1743581686.5746055,0.0,1.041061569155106,"[174.0, 185.0, 180.0, 156.0, 154.0, 154.0, 156.0, 181.0, 185.0, 174.0]",8.029549598693848,0.0,-5.196380615234375,0.000560760498046875,-27.904129028320312
1743581686.5948012,0.0,1.041061569155106,"[174.0, 185.0, 180.0, 156.0, 154.0, 154.0, 156.0, 181.0, 185.0, 174.0]",8.141660690307617,0.0,-5.359222412109375,0.0005340576171875,-27.904518127441406
1743581686.614159,0.0,1.041061569155106,"[174.0, 185.0, 180.0, 156.0, 154.0, 154.0, 156.0, 181.0, 185.0, 174.0]",8.079712867736816,0.0,-5.52081298828125,0.000514984130859375,-27.90386962890625
1743581686.635331,0.0,1.041061569155106,"[174.0, 185.0, 180.0, 156.0, 154.0, 154.0, 156.0, 181.0, 185.0, 174.0]",8.367003440856934,0.0,-5.688140869140625,0.0004978179931640625,-27.903961181640625
1743581686.6545427,0.0,1.041061569155106,"[174.0, 185.0, 180.0, 156.0, 154.0, 154.0, 156.0, 181.0, 185.0, 174.0]",8.52576732635498,0.0,-5.858673095703125,0.00048828125,-27.90362548828125
1743581686.6740446,0.0,1.041061569155106,"[174.0, 185.0, 180.0, 156.0, 154.0, 154.0, 156.0, 181.0, 185.0, 174.0]",8.569684982299805,0.0,-6.030059814453125,0.00048065185546875,-27.903900146484375
1743581686.6937146,0.0,1.041061569155106,"[174.0, 185.0, 180.0, 156.0, 154.0, 154.0, 156.0, 181.0, 185.0, 174.0]",8.937112808227539,0.0,-6.20880126953125,0.000476837158203125,-27.903335571289062
1743581686.7145567,0.0,1.041061569155106,"[174.0, 185.0, 180.0, 156.0, 154.0, 154.0, 156.0, 181.0, 185.0, 174.0]",8.837695121765137,0.0,-6.38555908203125,0.0004749298095703125,-27.903335571289062
1743581686.7382617,0.0,1.041061569155106,"[174.0, 185.0, 180.0, 156.0, 154.0, 154.0, 156.0, 181.0, 185.0, 174.0]",9.138616561889648,0.0,-6.568328857421875,0.000476837158203125,-27.90283203125
1743581686.7561646,0.0,1.0384169257179976,"[174.0, 185.0, 180.0, 156.0, 154.0, 154.0, 156.0, 181.0, 185.0, 174.0]",9.219965934753418,0.0,-6.752716064453125,0.00048065185546875,-27.902572631835938
1743581686.774275,0.15973148586427988,1.0299726256205632,"[174.0, 185.0, 180.0, 156.0, 154.0, 154.0, 156.0, 181.0, 185.0, 174.0]",9.250509262084961,0.0,-6.937744140625,0.000484466552734375,-27.90283966064453
1743581686.7946322,0.21309006411635611,1.0121560803600427,"[174.0, 185.0, 179.0, 155.0, 154.0, 155.0, 158.0, 183.0, 185.0, 174.0]",9.662731170654297,0.07986574620008469,-7.130859375,0.0004901885986328125,-27.895904541015625
1743581686.8146775,0.2150694952450622,1.0102537929754558,"[174.0, 185.0, 179.0, 155.0, 154.0, 155.0, 158.0, 183.0, 185.0, 174.0]",9.421740531921387,0.10654503107070923,-7.319122314453125,0.0004978179931640625,-27.887962341308594
1743581686.835342,0.2150694952450622,1.0102537929754558,"[174.0, 185.0, 179.0, 155.0, 153.0, 155.0, 158.0, 183.0, 185.0, 174.0]",9.80300235748291,0.1075347512960434,-7.514984130859375,0.0005035400390625,-27.878890991210938
1743581686.854842,0.2150694952450622,1.0102537929754558,"[174.0, 185.0, 179.0, 155.0, 153.0, 155.0, 158.0, 183.0, 185.0, 174.0]",9.677359580993652,0.1075347512960434,-7.708282470703125,0.00051116943359375,-27.868919372558594
1743581686.8750932,0.2150694952450622,1.0102537929754558,"[174.0, 185.0, 178.0, 154.0, 153.0, 156.0, 159.0, 184.0, 185.0, 174.0]",9.853630065917969,0.1075347512960434,-7.905059814453125,0.000518798828125,-27.858436584472656
1743581686.8938582,0.21670467748181935,1.0086298891105647,"[174.0, 185.0, 178.0, 154.0, 153.0, 156.0, 159.0, 184.0, 185.0, 174.0]",10.029169082641602,0.1075347512960434,-8.105255126953125,0.0005245208740234375,-27.84619140625
1743581686.9158862,0.21670467748181935,1.0086298891105647,"[174.0, 185.0, 178.0, 154.0, 152.0, 156.0, 159.0, 184.0, 185.0, 174.0]",9.879591941833496,0.10835234075784683,-8.302490234375,0.0005321502685546875,-27.8341064453125
1743581686.937513,0.21670467748181935,1.0086298891105647,"[174.0, 185.0, 176.0, 153.0, 152.0, 157.0, 159.0, 184.0, 185.0, 174.0]",10.1882905960083,0.10835234075784683,-8.50579833984375,0.000537872314453125,-27.82036590576172
1743581686.957568,0.21670467748181935,1.0086298891105647,"[174.0, 185.0, 176.0, 153.0, 152.0, 157.0, 160.0, 186.0, 185.0, 174.0]",10.383445739746094,0.10835234075784683,-8.712921142578125,0.00054168701171875,-27.80547332763672
1743581686.9752395,0.21670467748181935,1.0086298891105647,"[174.0, 185.0, 176.0, 153.0, 152.0, 157.0, 160.0, 186.0, 185.0, 174.0]",10.585192680358887,0.10835234075784683,-8.923980712890625,0.0005474090576171875,-27.788909912109375
