timestamp,steering_input,acceleration_input,raycasts,speed,steering,position_x,position_y,position_z
1743582054.9854329,0.0,-0.0,"[174.0, 185.0, 227.0, 295.0, 259.0, 259.0, 295.0, 227.0, 185.0, 174.0]",0.0,0.0,0.0,0.10000038146972656,-27.93000030517578
1743582055.2100902,0.0,-0.0,"[174.0, 185.0, 178.0, 155.0, 154.0, 154.0, 156.0, 179.0, 185.0, 174.0]",0.1431841105222702,0.0,0.0,0.097137451171875,-27.93000030517578
1743582055.274043,0.0,-0.0,"[174.0, 185.0, 178.0, 155.0, 154.0, 154.0, 156.0, 179.0, 185.0, 174.0]",0.2360968291759491,0.0,0.0,0.09241485595703125,-27.93000030517578
1743582055.279541,0.0,-0.0,"[174.0, 185.0, 178.0, 155.0, 154.0, 154.0, 156.0, 179.0, 185.0, 174.0]",0.30777978897094727,0.0,0.0,0.08625984191894531,-27.93000030517578
1743582055.283867,0.0,-0.0,"[174.0, 185.0, 178.0, 155.0, 154.0, 154.0, 156.0, 179.0, 185.0, 174.0]",0.36006540060043335,0.0,0.0,0.07905769348144531,-27.93000030517578
1743582055.3177571,0.0,-0.0,"[174.0, 185.0, 179.0, 155.0, 154.0, 154.0, 156.0, 179.0, 185.0, 174.0]",0.3949472904205322,0.0,0.0,0.07115936279296875,-27.93000030517578
1743582055.322246,0.0,-0.0,"[174.0, 185.0, 179.0, 155.0, 154.0, 154.0, 156.0, 179.0, 185.0, 174.0]",0.41450235247612,0.0,0.0,0.06286811828613281,-27.93000030517578
1743582055.3532443,0.0,-0.0,"[174.0, 185.0, 179.0, 155.0, 154.0, 154.0, 156.0, 180.0, 185.0, 174.0]",0.42082807421684265,0.0,0.0,0.05445289611816406,-27.93000030517578
1743582055.3566532,0.0,-0.0,"[174.0, 185.0, 179.0, 155.0, 154.0, 154.0, 156.0, 180.0, 185.0, 174.0]",0.41598936915397644,0.0,0.0,0.04613304138183594,-27.93000030517578
1743582055.3872352,0.0,-0.0,"[174.0, 185.0, 179.0, 155.0, 154.0, 154.0, 156.0, 181.0, 185.0, 174.0]",0.4019714593887329,0.0,0.0,0.03809356689453125,-27.93000030517578
1743582055.3903284,0.0,-0.0,"[174.0, 185.0, 179.0, 155.0, 154.0, 154.0, 156.0, 181.0, 185.0, 174.0]",0.3806484043598175,0.0,0.0,0.03047943115234375,-27.93000030517578
1743582055.4243395,0.0,-0.0,"[174.0, 185.0, 180.0, 156.0, 154.0, 154.0, 156.0, 181.0, 185.0, 174.0]",0.3537571132183075,0.0,0.0,0.023405075073242188,-27.93000030517578
1743582055.4315624,0.0,-0.0,"[174.0, 185.0, 180.0, 156.0, 154.0, 154.0, 156.0, 181.0, 185.0, 174.0]",0.3228750228881836,0.0,0.0,0.016946792602539062,-27.92999267578125
1743582055.4617853,0.0,-0.0,"[174.0, 185.0, 180.0, 156.0, 154.0, 154.0, 156.0, 181.0, 185.0, 174.0]",0.28941938281059265,0.0,0.0,0.011159896850585938,-27.930038452148438
1743582055.4664485,0.0,-0.0,"[174.0, 185.0, 180.0, 156.0, 154.0, 154.0, 156.0, 181.0, 185.0, 174.0]",0.2562173306941986,0.0,0.0,0.0060672760009765625,-27.929466247558594
1743582055.4967635,0.0,-0.0,"[174.0, 185.0, 181.0, 156.0, 154.0, 154.0, 156.0, 181.0, 185.0, 174.0]",0.34839218854904175,0.0,0.0,0.0016765594482421875,-27.93487548828125
1743582055.527236,0.0,-0.0,"[174.0, 185.0, 181.0, 156.0, 154.0, 154.0, 156.0, 181.0, 185.0, 174.0]",0.255353718996048,0.0,0.0,-0.0020236968994140625,-27.931358337402344
1743582055.5301378,0.0,-0.0,"[174.0, 185.0, 181.0, 156.0, 154.0, 154.0, 156.0, 181.0, 185.0, 174.0]",0.2815416157245636,0.0,0.0,-0.0050601959228515625,-27.926612854003906
1743582055.5606596,0.0,-0.0,"[174.0, 185.0, 181.0, 156.0, 154.0, 154.0, 156.0, 181.0, 185.0, 174.0]",0.15634490549564362,0.0,0.0,-0.007472991943359375,-27.928604125976562
1743582055.5638125,0.0,-0.0,"[174.0, 185.0, 181.0, 156.0, 154.0, 154.0, 156.0, 181.0, 185.0, 174.0]",0.27455902099609375,0.0,0.0,-0.009307861328125,-27.923431396484375
1743582055.5974262,0.0,-0.0,"[174.0, 185.0, 181.0, 156.0, 154.0, 154.0, 156.0, 181.0, 185.0, 174.0]",0.2245660424232483,0.0,0.0,-0.010616302490234375,-27.92772674560547
1743582055.6335726,0.0,-0.0,"[174.0, 185.0, 181.0, 156.0, 154.0, 154.0, 156.0, 181.0, 185.0, 174.0]",0.08891011029481888,0.0,0.0,-0.011455535888671875,-27.929290771484375
1743582055.6368809,0.0,-0.0,"[174.0, 185.0, 181.0, 156.0, 154.0, 154.0, 156.0, 181.0, 185.0, 174.0]",0.1896505206823349,0.0,0.0,-0.011884689331054688,-27.925521850585938
1743582055.6742203,0.0,-0.0,"[174.0, 185.0, 181.0, 156.0, 154.0, 154.0, 156.0, 181.0, 185.0, 174.0]",0.2066076397895813,0.0,0.0,-0.011960983276367188,-27.92139434814453
1743582055.6791942,0.0,-0.0,"[174.0, 185.0, 181.0, 156.0, 154.0, 154.0, 156.0, 181.0, 185.0, 174.0]",0.12101753056049347,0.0,0.0,-0.011743545532226562,-27.918983459472656
1743582055.7188523,0.0,-0.0,"[174.0, 185.0, 181.0, 156.0, 154.0, 154.0, 156.0, 181.0, 185.0, 174.0]",0.19259010255336761,0.0,0.0,-0.011285781860351562,-27.922805786132812
1743582055.7241747,0.0,-0.0,"[174.0, 185.0, 181.0, 156.0, 154.0, 154.0, 156.0, 181.0, 185.0, 174.0]",0.17800575494766235,0.0,0.0,-0.010637283325195312,-27.926307678222656
1743582055.764997,0.0,-0.0,"[174.0, 185.0, 181.0, 156.0, 154.0, 154.0, 156.0, 181.0, 185.0, 174.0]",0.16013549268245697,0.0,0.0,-0.009847640991210938,-27.929412841796875
1743582055.770277,0.0,-0.0,"[174.0, 185.0, 181.0, 156.0, 154.0, 154.0, 156.0, 181.0, 185.0, 174.0]",0.07219173014163971,0.0,0.0,-0.0089569091796875,-27.9305419921875
1743582055.7732265,0.0,-0.0,"[174.0, 185.0, 181.0, 156.0, 154.0, 154.0, 156.0, 181.0, 185.0, 174.0]",0.1852148175239563,0.0,0.0,-0.008007049560546875,-27.926963806152344
1743582055.8060236,0.0,-0.0,"[174.0, 185.0, 181.0, 156.0, 154.0, 154.0, 156.0, 181.0, 185.0, 174.0]",0.15632963180541992,0.0,0.0,-0.00702667236328125,-27.923995971679688
1743582055.8120034,0.0,-0.0,"[174.0, 185.0, 181.0, 156.0, 154.0, 154.0, 156.0, 181.0, 185.0, 174.0]",0.051327187567949295,0.0,0.0,-0.0060482025146484375,-27.923690795898438
1743582055.8459024,0.0,-0.0,"[174.0, 185.0, 181.0, 156.0, 154.0, 154.0, 156.0, 181.0, 185.0, 174.0]",0.15988554060459137,0.0,0.0,-0.0050907135009765625,-27.926742553710938
1743582055.8529851,0.0,-0.0,"[174.0, 185.0, 181.0, 156.0, 154.0, 154.0, 156.0, 181.0, 185.0, 174.0]",0.05791441351175308,0.0,0.0,-0.004177093505859375,-27.927452087402344
1743582055.8858626,0.0,-0.0,"[174.0, 185.0, 181.0, 156.0, 154.0, 154.0, 156.0, 181.0, 185.0, 174.0]",0.19991730153560638,0.0,0.0,-0.0033206939697265625,-27.923545837402344
1743582055.8896976,0.0,-0.0,"[174.0, 185.0, 181.0, 156.0, 154.0, 154.0, 156.0, 181.0, 185.0, 174.0]",0.12208718806505203,0.0,0.0,-0.0025310516357421875,-27.921234130859375
1743582055.9253917,0.0,-0.0,"[174.0, 185.0, 181.0, 156.0, 154.0, 154.0, 156.0, 181.0, 185.0, 174.0]",0.18460233509540558,0.0,0.0,-0.0018177032470703125,-27.92485809326172
1743582055.93149,0.0,-0.0,"[174.0, 185.0, 181.0, 156.0, 154.0, 154.0, 156.0, 181.0, 185.0, 174.0]",0.13353228569030762,0.0,0.0,-0.0011844635009765625,-27.927452087402344
1743582055.9642665,0.0,-0.0,"[174.0, 185.0, 181.0, 156.0, 154.0, 154.0, 156.0, 181.0, 185.0, 174.0]",0.11446059495210648,0.0,3.0517578125e-05,-0.00063323974609375,-27.92523193359375
1743582055.968633,0.0,-0.0,"[174.0, 185.0, 181.0, 156.0, 154.0, 154.0, 156.0, 181.0, 185.0, 174.0]",0.18039268255233765,0.0,3.0517578125e-05,-0.0001621246337890625,-27.928802490234375
1743582056.0532434,0.0,-0.0,"[174.0, 185.0, 181.0, 156.0, 154.0, 154.0, 156.0, 181.0, 185.0, 174.0]",0.12967412173748016,0.0,3.0517578125e-05,0.0002288818359375,-27.931365966796875
1743582056.0567672,0.0,-0.0,"[174.0, 185.0, 181.0, 156.0, 154.0, 154.0, 156.0, 181.0, 185.0, 174.0]",0.1237604022026062,0.0,3.0517578125e-05,0.000545501708984375,-27.928909301757812
1743582056.0594425,0.0,-0.0,"[174.0, 185.0, 181.0, 156.0, 154.0, 154.0, 156.0, 181.0, 185.0, 174.0]",0.1935333013534546,0.0,3.0517578125e-05,0.0007915496826171875,-27.932777404785156
1743582056.0620298,0.0,-0.0,"[174.0, 185.0, 181.0, 156.0, 154.0, 154.0, 156.0, 181.0, 185.0, 174.0]",0.12180628627538681,0.0,6.103515625e-05,0.000972747802734375,-27.935203552246094
1743582056.0983045,0.0,-0.0,"[174.0, 185.0, 181.0, 156.0, 154.0, 154.0, 156.0, 181.0, 185.0, 174.0]",0.16159525513648987,0.0,6.103515625e-05,0.0010967254638671875,-27.931976318359375
1743582056.1032407,0.0,-0.0,"[174.0, 185.0, 181.0, 156.0, 154.0, 154.0, 156.0, 181.0, 185.0, 174.0]",0.0772232785820961,0.0,6.103515625e-05,0.0011692047119140625,-27.930435180664062
1743582056.1348035,0.0,-0.0,"[174.0, 185.0, 181.0, 156.0, 154.0, 154.0, 156.0, 181.0, 185.0, 174.0]",0.184142604470253,0.0,6.103515625e-05,0.00119781494140625,-27.934112548828125
1743582056.1396754,0.0,-0.0,"[174.0, 185.0, 181.0, 156.0, 154.0, 154.0, 156.0, 181.0, 185.0, 174.0]",0.1367751508951187,0.0,6.103515625e-05,0.0011882781982421875,-27.936851501464844
1743582056.1724353,0.0,-0.0,"[174.0, 185.0, 181.0, 156.0, 154.0, 154.0, 156.0, 181.0, 185.0, 174.0]",0.06419677287340164,0.0,6.103515625e-05,0.001148223876953125,-27.935569763183594
1743582056.1766264,0.0,-0.0,"[174.0, 185.0, 181.0, 156.0, 154.0, 154.0, 156.0, 181.0, 185.0, 174.0]",0.1747168004512787,0.0,6.103515625e-05,0.0010833740234375,-27.939064025878906
1743582056.2134228,0.0,-0.0,"[174.0, 185.0, 181.0, 156.0, 154.0, 154.0, 156.0, 181.0, 185.0, 174.0]",0.1311485320329666,0.0,9.1552734375e-05,0.00099945068359375,-27.941680908203125
1743582056.2204976,0.0,-0.0,"[174.0, 185.0, 181.0, 156.0, 154.0, 154.0, 156.0, 181.0, 185.0, 174.0]",0.11074256151914597,0.0,9.1552734375e-05,0.0009002685546875,-27.939468383789062
1743582056.2521935,0.0,-0.0,"[174.0, 185.0, 181.0, 156.0, 154.0, 154.0, 156.0, 181.0, 185.0, 174.0]",0.1801898330450058,0.0,9.1552734375e-05,0.00079345703125,-27.943069458007812
1743582056.2571785,0.0,-0.0,"[174.0, 185.0, 181.0, 156.0, 154.0, 154.0, 156.0, 181.0, 185.0, 174.0]",0.14138393104076385,0.0,9.1552734375e-05,0.00067901611328125,-27.945899963378906
1743582056.289623,0.0,-0.0,"[174.0, 185.0, 181.0, 156.0, 154.0, 154.0, 156.0, 181.0, 185.0, 174.0]",0.0333004854619503,0.0,9.1552734375e-05,0.0005645751953125,-27.94524383544922
1743582056.2931504,0.0,-0.0,"[174.0, 185.0, 181.0, 156.0, 154.0, 154.0, 156.0, 181.0, 185.0, 174.0]",0.19635771214962006,0.0,9.1552734375e-05,0.0004520416259765625,-27.94916534423828
1743582056.3248773,0.0,-0.0,"[174.0, 185.0, 181.0, 156.0, 154.0, 154.0, 156.0, 181.0, 185.0, 174.0]",0.12271545082330704,0.0,0.0001220703125,0.00034332275390625,-27.951614379882812
1743582056.3286896,0.0,-0.0,"[174.0, 185.0, 181.0, 156.0, 154.0, 154.0, 156.0, 181.0, 185.0, 174.0]",0.15798240900039673,0.0,0.0001220703125,0.0002384185791015625,-27.948455810546875
1743582056.3628054,0.0,-0.0,"[174.0, 185.0, 181.0, 156.0, 154.0, 154.0, 156.0, 181.0, 185.0, 174.0]",0.0622306689620018,0.0,0.0001220703125,0.0001430511474609375,-27.947219848632812
1743582056.3681233,0.0,-0.0,"[174.0, 185.0, 181.0, 156.0, 154.0, 154.0, 156.0, 181.0, 185.0, 174.0]",0.17492303252220154,0.0,0.0001220703125,5.53131103515625e-05,-27.950714111328125
1743582056.4015746,0.0,-0.0,"[174.0, 185.0, 181.0, 156.0, 154.0, 154.0, 156.0, 181.0, 185.0, 174.0]",0.13653863966464996,0.0,0.0001220703125,-2.288818359375e-05,-27.953445434570312
1743582056.4079459,0.0,-0.0,"[174.0, 185.0, 181.0, 156.0, 154.0, 154.0, 156.0, 181.0, 185.0, 174.0]",0.0718504786491394,0.0,0.0001220703125,-9.34600830078125e-05,-27.952011108398438
1743582056.4414864,0.0,-0.0,"[174.0, 185.0, 181.0, 156.0, 154.0, 154.0, 156.0, 181.0, 185.0, 174.0]",0.17569200694561005,0.0,0.0001220703125,-0.000152587890625,-27.955520629882812
1743582056.4453225,0.0,-0.0,"[174.0, 185.0, 181.0, 156.0, 154.0, 154.0, 156.0, 181.0, 185.0, 174.0]",0.13826613128185272,0.0,0.000152587890625,-0.000202178955078125,-27.958290100097656
1743582056.4785087,0.0,-0.0,"[174.0, 185.0, 181.0, 156.0, 154.0, 154.0, 156.0, 181.0, 185.0, 174.0]",0.05745533108711243,0.0,0.000152587890625,-0.000244140625,-27.957138061523438
1743582056.509373,0.0,-0.0,"[174.0, 185.0, 181.0, 156.0, 154.0, 154.0, 156.0, 181.0, 185.0, 174.0]",0.1775936484336853,0.0,0.000152587890625,-0.000278472900390625,-27.960693359375
1743582056.5132115,0.0,-0.0,"[174.0, 185.0, 181.0, 156.0, 154.0, 154.0, 156.0, 181.0, 185.0, 174.0]",0.14114311337471008,0.0,0.000152587890625,-0.0003032684326171875,-27.963516235351562
1743582056.5457826,0.0,-0.0,"[174.0, 185.0, 181.0, 156.0, 154.0, 154.0, 156.0, 181.0, 185.0, 174.0]",0.034520473331213,0.0,0.000152587890625,-0.0003204345703125,-27.96282196044922
1743582056.5501192,0.0,-0.0,"[174.0, 185.0, 181.0, 156.0, 154.0, 154.0, 156.0, 181.0, 185.0, 174.0]",0.20195074379444122,0.0,0.00018310546875,-0.000331878662109375,-27.96686553955078
1743582056.5846193,0.0,-0.0,"[174.0, 185.0, 181.0, 156.0, 154.0, 154.0, 156.0, 181.0, 185.0, 174.0]",0.09901262819766998,0.0,0.00018310546875,-0.000339508056640625,-27.968841552734375
1743582056.5879836,0.0,-0.0,"[174.0, 185.0, 181.0, 156.0, 154.0, 154.0, 156.0, 181.0, 185.0, 174.0]",0.20315459370613098,0.0,0.00018310546875,-0.000339508056640625,-27.96478271484375
1743582056.621092,0.0,-0.0,"[174.0, 185.0, 181.0, 156.0, 154.0, 154.0, 156.0, 181.0, 185.0, 174.0]",0.09250973165035248,0.0,0.000152587890625,-0.0003376007080078125,-27.962928771972656
1743582056.6249225,0.0,-0.0,"[174.0, 185.0, 181.0, 156.0, 154.0, 154.0, 156.0, 181.0, 185.0, 174.0]",0.21048150956630707,0.0,0.00018310546875,-0.000331878662109375,-27.967140197753906
1743582056.6561923,0.0,-0.0,"[174.0, 185.0, 181.0, 156.0, 154.0, 154.0, 156.0, 181.0, 185.0, 174.0]",0.054807256907224655,0.0,0.00018310546875,-0.0003223419189453125,-27.968238830566406
1743582056.700428,0.0,-0.0,"[174.0, 185.0, 227.0, 295.0, 259.0, 160.0, 295.0, 190.0, 185.0, 174.0]",0.0,0.0,0.0,0.10000038146972656,-27.93000030517578
1743582056.7037823,0.0,-0.0,"[174.0, 185.0, 227.0, 295.0, 259.0, 160.0, 295.0, 190.0, 185.0, 174.0]",0.898647129535675,0.0,0.0,0.08202743530273438,-27.930007934570312
1743582056.7067049,0.0,-0.0,"[174.0, 185.0, 227.0, 295.0, 259.0, 160.0, 295.0, 190.0, 185.0, 174.0]",0.8469994068145752,0.0,0.0,0.06509017944335938,-27.92974853515625
1743582056.7385948,0.0,-0.0,"[174.0, 185.0, 179.0, 155.0, 154.0, 154.0, 156.0, 181.0, 185.0, 174.0]",0.7980732917785645,0.0,0.0,0.049419403076171875,-27.93279266357422
1743582056.770449,0.0,-0.0,"[174.0, 185.0, 179.0, 156.0, 154.0, 154.0, 156.0, 181.0, 185.0, 174.0]",0.7225422263145447,0.0,0.0,0.035182952880859375,-27.935264587402344
1743582056.773893,0.0,-0.0,"[174.0, 185.0, 179.0, 156.0, 154.0, 154.0, 156.0, 181.0, 185.0, 174.0]",0.6805169582366943,0.0,0.0,0.022480010986328125,-27.930381774902344
1743582056.8072095,0.0,-0.0,"[174.0, 185.0, 181.0, 156.0, 154.0, 154.0, 156.0, 181.0, 185.0, 174.0]",0.5882869958877563,0.0,0.0,0.01136016845703125,-27.934219360351562
1743582056.8106322,0.0,-0.0,"[174.0, 185.0, 181.0, 156.0, 154.0, 154.0, 156.0, 181.0, 185.0, 174.0]",0.527190625667572,0.0,-3.0517578125e-05,0.00182342529296875,-27.938720703125
1743582056.8429675,0.0,-0.0,"[174.0, 185.0, 181.0, 156.0, 154.0, 154.0, 156.0, 181.0, 185.0, 174.0]",0.4202222526073456,0.0,0.0,-0.00616455078125,-27.94133758544922
1743582056.846136,0.0,-0.0,"[174.0, 185.0, 181.0, 156.0, 154.0, 154.0, 156.0, 181.0, 185.0, 174.0]",0.3479686677455902,0.0,3.0517578125e-05,-0.012670516967773438,-27.938865661621094
1743582056.8785756,0.0,-0.0,"[174.0, 185.0, 181.0, 156.0, 154.0, 154.0, 156.0, 181.0, 185.0, 174.0]",0.34693318605422974,0.0,3.0517578125e-05,-0.017789840698242188,-27.94355010986328
1743582056.8823833,0.0,-0.0,"[174.0, 185.0, 181.0, 156.0, 154.0, 154.0, 156.0, 181.0, 185.0, 174.0]",0.1975906789302826,0.0,3.0517578125e-05,-0.02162933349609375,-27.942611694335938
1743582056.913397,0.0,-0.0,"[174.0, 185.0, 181.0, 156.0, 154.0, 154.0, 158.0, 181.0, 185.0, 174.0]",0.1979132890701294,0.0,3.0517578125e-05,-0.024311065673828125,-27.945526123046875
1743582056.9436226,0.0,-0.0,"[174.0, 185.0, 181.0, 156.0, 154.0, 154.0, 156.0, 181.0, 185.0, 174.0]",0.08420968800783157,0.0,6.103515625e-05,-0.025966644287109375,-27.945213317871094
1743582056.9464962,0.0,-0.0,"[174.0, 185.0, 181.0, 156.0, 154.0, 154.0, 156.0, 181.0, 185.0, 174.0]",0.17825829982757568,0.0,6.103515625e-05,-0.02672576904296875,-27.948692321777344
1743582056.9763756,0.0,-0.0,"[174.0, 185.0, 181.0, 156.0, 154.0, 154.0, 156.0, 181.0, 185.0, 174.0]",0.24778035283088684,0.0,6.103515625e-05,-0.026720046997070312,-27.953651428222656
1743582057.0109692,0.0,-0.0,"[174.0, 185.0, 181.0, 156.0, 154.0, 154.0, 156.0, 181.0, 185.0, 174.0]",0.20866148173809052,0.0,6.103515625e-05,-0.026081085205078125,-27.94952392578125
1743582057.0156739,0.0,-0.0,"[174.0, 185.0, 181.0, 156.0, 154.0, 154.0, 156.0, 181.0, 185.0, 174.0]",0.15978598594665527,0.0,3.0517578125e-05,-0.024927139282226562,-27.946548461914062
1743582057.0465062,0.0,-0.0,"[174.0, 185.0, 181.0, 156.0, 154.0, 154.0, 156.0, 181.0, 185.0, 174.0]",0.08055956661701202,0.0,3.0517578125e-05,-0.023372650146484375,-27.946121215820312
1743582057.0510173,0.0,-0.0,"[174.0, 185.0, 181.0, 156.0, 154.0, 154.0, 156.0, 181.0, 185.0, 174.0]",0.23567776381969452,0.0,3.0517578125e-05,-0.02152252197265625,-27.950454711914062
1743582057.0816503,0.0,-0.0,"[174.0, 185.0, 181.0, 156.0, 154.0, 154.0, 156.0, 181.0, 185.0, 174.0]",0.11007759720087051,0.0,3.0517578125e-05,-0.01947021484375,-27.951255798339844
1743582057.0846612,0.0,-0.0,"[174.0, 185.0, 181.0, 156.0, 154.0, 154.0, 156.0, 181.0, 185.0, 174.0]",0.2449263036251068,0.0,3.0517578125e-05,-0.017299652099609375,-27.946861267089844
1743582057.1147249,0.0,-0.0,"[174.0, 185.0, 181.0, 156.0, 154.0, 154.0, 156.0, 181.0, 185.0, 174.0]",0.11232668161392212,0.0,3.0517578125e-05,-0.015081405639648438,-27.946502685546875
1743582057.1450408,0.0,-0.0,"[174.0, 185.0, 181.0, 156.0, 154.0, 154.0, 156.0, 181.0, 185.0, 174.0]",0.22285465896129608,0.0,3.0517578125e-05,-0.01287841796875,-27.95037841796875
1743582057.148626,0.0,-0.0,"[174.0, 185.0, 181.0, 156.0, 154.0, 154.0, 156.0, 181.0, 185.0, 174.0]",0.16241048276424408,0.0,3.0517578125e-05,-0.010738372802734375,-27.95281982421875
1743582057.1786985,0.0,-0.0,"[174.0, 185.0, 181.0, 156.0, 154.0, 154.0, 156.0, 181.0, 185.0, 174.0]",0.18381068110466003,0.0,3.0517578125e-05,-0.008703231811523438,-27.94976043701172
1743582057.1824365,0.0,-0.0,"[174.0, 185.0, 181.0, 156.0, 154.0, 154.0, 156.0, 181.0, 185.0, 174.0]",0.09885533899068832,0.0,3.0517578125e-05,-0.006805419921875,-27.94921112060547
1743582057.2159746,0.0,-0.0,"[174.0, 185.0, 181.0, 156.0, 154.0, 154.0, 156.0, 181.0, 185.0, 174.0]",0.19887569546699524,0.0,3.0517578125e-05,-0.00506591796875,-27.952789306640625
1743582057.2477975,0.0,-0.0,"[174.0, 185.0, 181.0, 156.0, 154.0, 154.0, 156.0, 181.0, 185.0, 174.0]",0.13802340626716614,0.0,6.103515625e-05,-0.0034999847412109375,-27.955062866210938
1743582057.2509482,0.0,-0.0,"[174.0, 185.0, 181.0, 156.0, 154.0, 154.0, 156.0, 181.0, 185.0, 174.0]",0.18949922919273376,0.0,6.103515625e-05,-0.002117156982421875,-27.95153045654297
1743582057.2810736,0.0,-0.0,"[174.0, 185.0, 181.0, 156.0, 154.0, 154.0, 156.0, 181.0, 185.0, 174.0]",0.12418082356452942,0.0,3.0517578125e-05,-0.000919342041015625,-27.949356079101562
1743582057.284949,0.0,-0.0,"[174.0, 185.0, 181.0, 156.0, 154.0, 154.0, 156.0, 181.0, 185.0, 174.0]",0.19000165164470673,0.0,3.0517578125e-05,9.5367431640625e-05,-27.953018188476562
1743582057.3160949,0.0,-0.0,"[174.0, 185.0, 181.0, 156.0, 154.0, 154.0, 156.0, 181.0, 185.0, 174.0]",0.12194961309432983,0.0,6.103515625e-05,0.000934600830078125,-27.955307006835938
1743582057.3470252,0.0,-0.0,"[174.0, 185.0, 181.0, 156.0, 154.0, 154.0, 156.0, 181.0, 185.0, 174.0]",0.18033255636692047,0.0,6.103515625e-05,0.0016078948974609375,-27.951766967773438
1743582057.3498204,0.0,-0.0,"[174.0, 185.0, 181.0, 156.0, 154.0, 154.0, 156.0, 181.0, 185.0, 174.0]",0.11679776757955551,0.0,3.0517578125e-05,0.002124786376953125,-27.949485778808594
1743582057.3800159,0.0,-0.0,"[174.0, 185.0, 181.0, 156.0, 154.0, 154.0, 156.0, 181.0, 185.0, 174.0]",0.18205296993255615,0.0,3.0517578125e-05,0.0025005340576171875,-27.953109741210938
1743582057.3830113,0.0,-0.0,"[174.0, 185.0, 181.0, 156.0, 154.0, 154.0, 156.0, 181.0, 185.0, 174.0]",0.12200833857059479,0.0,6.103515625e-05,0.0027484893798828125,-27.955535888671875
1743582057.4163504,0.0,-0.0,"[174.0, 185.0, 181.0, 156.0, 154.0, 154.0, 156.0, 181.0, 185.0, 174.0]",0.15771649777889252,0.0,6.103515625e-05,0.0028858184814453125,-27.95238494873047
1743582057.4492674,0.0,-0.0,"[174.0, 185.0, 181.0, 156.0, 154.0, 154.0, 156.0, 181.0, 185.0, 174.0]",0.05223219841718674,0.0,6.103515625e-05,0.002925872802734375,-27.951339721679688
1743582057.4519877,0.0,-0.0,"[174.0, 185.0, 181.0, 156.0, 154.0, 154.0, 156.0, 181.0, 185.0, 174.0]",0.18904338777065277,0.0,6.103515625e-05,0.0028858184814453125,-27.955123901367188
1743582057.4824786,0.0,-0.0,"[174.0, 185.0, 181.0, 156.0, 154.0, 154.0, 156.0, 181.0, 185.0, 174.0]",0.12782728672027588,0.0,6.103515625e-05,0.0027790069580078125,-27.957672119140625
1743582057.4856648,0.0,-0.0,"[174.0, 185.0, 181.0, 156.0, 154.0, 154.0, 156.0, 181.0, 185.0, 174.0]",0.12828820943832397,0.0,6.103515625e-05,0.002620697021484375,-27.955116271972656
1743582057.5158312,0.0,-0.0,"[174.0, 185.0, 181.0, 156.0, 154.0, 154.0, 156.0, 181.0, 185.0, 174.0]",0.15549224615097046,0.0,6.103515625e-05,0.0024204254150390625,-27.958221435546875
1743582057.5466113,0.0,-0.0,"[174.0, 185.0, 181.0, 156.0, 154.0, 154.0, 156.0, 181.0, 185.0, 174.0]",0.05003013461828232,0.0,9.1552734375e-05,0.0021915435791015625,-27.959190368652344
1743582057.5493984,0.0,-0.0,"[174.0, 185.0, 181.0, 156.0, 154.0, 154.0, 156.0, 181.0, 185.0, 174.0]",0.19783595204353333,0.0,9.1552734375e-05,0.00194549560546875,-27.955245971679688
1743582057.5560818,0.0,-0.0,"[174.0, 185.0, 181.0, 156.0, 154.0, 154.0, 156.0, 181.0, 185.0, 174.0]",0.11668769270181656,0.0,6.103515625e-05,0.0016880035400390625,-27.952926635742188
1743582057.5590444,0.0,-0.0,"[174.0, 185.0, 181.0, 156.0, 154.0, 154.0, 156.0, 181.0, 185.0, 174.0]",0.18714922666549683,0.0,6.103515625e-05,0.001430511474609375,-27.95665740966797
1743582057.5751367,0.0,-0.0,"[174.0, 185.0, 181.0, 156.0, 154.0, 154.0, 156.0, 181.0, 185.0, 174.0]",0.14332245290279388,0.0,9.1552734375e-05,0.0011768341064453125,-27.959518432617188
1743582057.5937057,0.0,-0.0,"[174.0, 185.0, 181.0, 156.0, 154.0, 154.0, 156.0, 181.0, 185.0, 174.0]",0.025629518553614616,0.0,9.1552734375e-05,0.000934600830078125,-27.959060668945312
1743582057.6129537,0.0,-0.0,"[174.0, 185.0, 181.0, 156.0, 154.0, 154.0, 156.0, 181.0, 185.0, 174.0]",0.19171051681041718,0.0,9.1552734375e-05,0.0007038116455078125,-27.962890625
1743582057.6329482,0.0,-0.0,"[174.0, 185.0, 181.0, 156.0, 154.0, 154.0, 156.0, 181.0, 185.0, 174.0]",0.13981667160987854,0.0,9.1552734375e-05,0.000492095947265625,-27.965682983398438
1743582057.6533406,0.0,-0.0,"[174.0, 185.0, 181.0, 156.0, 154.0, 154.0, 156.0, 181.0, 185.0, 174.0]",0.05024855583906174,0.0,0.0001220703125,0.0002994537353515625,-27.964691162109375
1743582057.6727426,0.0,-0.0,"[174.0, 185.0, 181.0, 156.0, 154.0, 154.0, 156.0, 181.0, 185.0, 174.0]",0.19713330268859863,0.0,0.0001220703125,0.0001277923583984375,-27.96863555908203
1743582057.6924083,0.0,-0.0,"[174.0, 185.0, 181.0, 156.0, 154.0, 154.0, 156.0, 181.0, 185.0, 174.0]",0.12488656491041183,0.0,0.0001220703125,-2.288818359375e-05,-27.97113037109375
1743582057.712182,0.0,-0.0,"[174.0, 185.0, 181.0, 156.0, 154.0, 154.0, 156.0, 181.0, 185.0, 174.0]",0.15216371417045593,0.0,0.0001220703125,-0.0001506805419921875,-27.96808624267578
1743582057.7325637,0.0,-0.0,"[174.0, 185.0, 181.0, 156.0, 154.0, 154.0, 156.0, 181.0, 185.0, 174.0]",0.02743934653699398,0.0,0.0001220703125,-0.0002593994140625,-27.967544555664062
1743582057.7558348,0.0,-0.0,"[174.0, 185.0, 181.0, 156.0, 154.0, 154.0, 156.0, 181.0, 185.0, 174.0]",0.17642423510551453,0.0,0.0001220703125,-0.000347137451171875,-27.97107696533203
1743582057.7730832,0.0,-0.0,"[174.0, 185.0, 181.0, 156.0, 154.0, 154.0, 156.0, 181.0, 185.0, 174.0]",0.14124096930027008,0.0,0.0001220703125,-0.0004177093505859375,-27.973899841308594
1743582057.7922504,0.0,-0.0,"[174.0, 185.0, 181.0, 156.0, 154.0, 154.0, 156.0, 181.0, 185.0, 174.0]",0.034912820905447006,0.0,0.000152587890625,-0.000469207763671875,-27.97320556640625
1743582057.8129268,0.0,-0.0,"[174.0, 185.0, 181.0, 156.0, 154.0, 154.0, 156.0, 181.0, 185.0, 174.0]",0.20393048226833344,0.0,0.000152587890625,-0.0005054473876953125,-27.977279663085938
1743582057.832813,0.0,-0.0,"[174.0, 185.0, 181.0, 156.0, 154.0, 154.0, 156.0, 181.0, 185.0, 174.0]",0.0899006649851799,0.0,0.000152587890625,-0.0005283355712890625,-27.979080200195312
1743582057.8523562,0.0,-0.0,"[174.0, 185.0, 181.0, 156.0, 154.0, 154.0, 156.0, 181.0, 185.0, 174.0]",0.21023708581924438,0.0,0.000152587890625,-0.0005397796630859375,-27.974876403808594
1743582057.8730834,0.0,-0.0,"[174.0, 185.0, 181.0, 156.0, 154.0, 154.0, 156.0, 181.0, 185.0, 174.0]",0.0566597618162632,0.0,0.000152587890625,-0.0005397796630859375,-27.973739624023438
1743582057.8931012,0.0,-0.0,"[174.0, 185.0, 181.0, 156.0, 154.0, 154.0, 156.0, 181.0, 185.0, 174.0]",0.17973260581493378,0.0,0.000152587890625,-0.0005321502685546875,-27.977340698242188
1743582057.913675,0.0,-0.0,"[174.0, 185.0, 181.0, 156.0, 154.0, 154.0, 156.0, 181.0, 185.0, 174.0]",0.14392033219337463,0.0,0.000152587890625,-0.0005168914794921875,-27.98021697998047
1743582057.9329162,0.0,-0.0,"[174.0, 185.0, 181.0, 156.0, 154.0, 154.0, 156.0, 181.0, 185.0, 174.0]",0.013720475137233734,0.0,0.000152587890625,-0.00049591064453125,-27.979942321777344
1743582057.9549973,0.0,-0.0,"[174.0, 185.0, 181.0, 156.0, 154.0, 154.0, 156.0, 181.0, 185.0, 174.0]",0.13712620735168457,0.0,0.000152587890625,-0.0004711151123046875,-27.982688903808594
1743582057.9730792,0.0,-0.0,"[174.0, 185.0, 181.0, 156.0, 154.0, 154.0, 156.0, 181.0, 185.0, 174.0]",0.05054411664605141,0.0,0.000152587890625,-0.0004425048828125,-27.981674194335938
1743582057.9929705,0.0,-0.0,"[174.0, 185.0, 181.0, 156.0, 154.0, 154.0, 156.0, 181.0, 185.0, 174.0]",0.19188940525054932,0.0,0.000152587890625,-0.0004138946533203125,-27.985511779785156
1743582058.012444,0.0,-0.0,"[174.0, 185.0, 181.0, 156.0, 154.0, 154.0, 156.0, 181.0, 185.0, 174.0]",0.13537026941776276,0.0,0.000152587890625,-0.0003833770751953125,-27.98822021484375
1743582058.0334046,0.0,-0.0,"[174.0, 185.0, 181.0, 156.0, 154.0, 154.0, 156.0, 181.0, 185.0, 174.0]",0.07972543686628342,0.0,0.00018310546875,-0.000354766845703125,-27.98662567138672
1743582058.0530381,0.0,-0.0,"[174.0, 185.0, 181.0, 156.0, 154.0, 154.0, 156.0, 181.0, 185.0, 174.0]",0.1912010759115219,0.0,0.00018310546875,-0.0003261566162109375,-27.990447998046875
1743582058.0725198,0.0,-0.0,"[174.0, 185.0, 181.0, 156.0, 154.0, 154.0, 156.0, 181.0, 185.0, 174.0]",0.136080801486969,0.0,0.00018310546875,-0.00029754638671875,-27.99317169189453
1743582058.0922244,0.0,-0.0,"[174.0, 185.0, 181.0, 156.0, 154.0, 154.0, 156.0, 181.0, 185.0, 174.0]",0.07384870946407318,0.0,0.00018310546875,-0.0002727508544921875,-27.99169921875
1743582058.1122158,0.0,-0.0,"[174.0, 185.0, 181.0, 156.0, 154.0, 154.0, 156.0, 181.0, 185.0, 174.0]",0.17790928483009338,0.0,0.00018310546875,-0.000247955322265625,-27.995254516601562
1743582058.1330233,0.0,-0.0,"[174.0, 185.0, 181.0, 156.0, 154.0, 154.0, 156.0, 181.0, 185.0, 174.0]",0.14006833732128143,0.0,0.000213623046875,-0.0002269744873046875,-27.99805450439453
1743582058.1551292,0.0,-0.0,"[174.0, 185.0, 181.0, 156.0, 154.0, 154.0, 156.0, 181.0, 185.0, 174.0]",0.041726768016815186,0.0,0.000213623046875,-0.0002079010009765625,-27.997222900390625
1743582058.172939,0.0,-0.0,"[174.0, 185.0, 181.0, 156.0, 154.0, 154.0, 156.0, 181.0, 185.0, 174.0]",0.21028085052967072,0.0,0.000213623046875,-0.0001926422119140625,-28.001426696777344
1743582058.1933014,0.0,-0.0,"[174.0, 185.0, 181.0, 156.0, 154.0, 154.0, 156.0, 181.0, 185.0, 174.0]",0.05530886724591255,0.0,0.000213623046875,-0.0001773834228515625,-28.002532958984375
1743582058.212095,0.0,-0.0,"[174.0, 185.0, 181.0, 156.0, 154.0, 154.0, 156.0, 181.0, 185.0, 174.0]",0.18243826925754547,0.0,0.000213623046875,-0.0001659393310546875,-27.998886108398438
1743582058.2332733,0.0,-0.0,"[174.0, 185.0, 181.0, 156.0, 154.0, 154.0, 156.0, 181.0, 185.0, 174.0]",0.14354366064071655,0.0,0.000213623046875,-0.000156402587890625,-27.996017456054688
1743582058.2521522,0.0,-0.0,"[174.0, 185.0, 181.0, 156.0, 154.0, 154.0, 156.0, 181.0, 185.0, 174.0]",0.015975726768374443,0.0,0.000213623046875,-0.000148773193359375,-27.99633026123047
1743582058.2732754,0.0,-0.0,"[174.0, 185.0, 181.0, 156.0, 154.0, 154.0, 156.0, 181.0, 185.0, 174.0]",0.16444621980190277,0.0,0.000213623046875,-0.00014495849609375,-27.9930419921875
1743582058.2922697,0.0,-0.0,"[174.0, 185.0, 181.0, 156.0, 154.0, 154.0, 156.0, 181.0, 185.0, 174.0]",0.09854668378829956,0.0,0.00018310546875,-0.000141143798828125,-27.991073608398438
1743582058.312754,0.0,-0.0,"[174.0, 185.0, 181.0, 156.0, 154.0, 154.0, 156.0, 181.0, 185.0, 174.0]",0.20587411522865295,0.0,0.000213623046875,-0.0001392364501953125,-27.995193481445312
1743582058.3335931,0.0,-0.0,"[174.0, 185.0, 181.0, 156.0, 154.0, 154.0, 156.0, 181.0, 185.0, 174.0]",0.07771500945091248,0.0,0.000213623046875,-0.0001373291015625,-27.996749877929688
1743582058.3548608,0.0,-0.0,"[174.0, 185.0, 181.0, 156.0, 154.0, 154.0, 156.0, 181.0, 185.0, 174.0]",0.18670836091041565,0.0,0.000213623046875,-0.0001392364501953125,-27.993011474609375
1743582058.3732538,0.0,-0.0,"[174.0, 185.0, 181.0, 156.0, 154.0, 154.0, 156.0, 181.0, 185.0, 174.0]",0.1425768882036209,0.0,0.00018310546875,-0.0001392364501953125,-27.990158081054688
1743582058.3943973,0.0,-0.0,"[174.0, 185.0, 181.0, 156.0, 154.0, 154.0, 156.0, 181.0, 185.0, 174.0]",0.023115765303373337,0.0,0.00018310546875,-0.000141143798828125,-27.990623474121094
1743582058.4165144,0.0,-0.0,"[174.0, 185.0, 181.0, 156.0, 154.0, 154.0, 156.0, 181.0, 185.0, 174.0]",0.1901315599679947,0.0,0.00018310546875,-0.00014495849609375,-27.98681640625
1743582058.4344854,0.0,-0.0,"[174.0, 185.0, 181.0, 156.0, 154.0, 154.0, 156.0, 181.0, 185.0, 174.0]",0.13878454267978668,0.0,0.00018310546875,-0.0001468658447265625,-27.984039306640625
1743582058.4538548,0.0,-0.0,"[174.0, 185.0, 181.0, 156.0, 154.0, 154.0, 156.0, 181.0, 185.0, 174.0]",0.052041780203580856,0.0,0.00018310546875,-0.0001506805419921875,-27.985084533691406
1743582058.4737163,0.0,-0.0,"[174.0, 185.0, 181.0, 156.0, 154.0, 154.0, 156.0, 181.0, 185.0, 174.0]",0.1889236867427826,0.0,0.000152587890625,-0.0001544952392578125,-27.981307983398438
1743582058.4949439,0.0,-0.1276936246231717,"[174.0, 185.0, 181.0, 156.0, 154.0, 154.0, 156.0, 181.0, 185.0, 174.0]",0.14052923023700714,0.0,0.000152587890625,-0.000156402587890625,-27.978492736816406
1743582058.5144484,0.0,-0.1276936246231717,"[174.0, 185.0, 181.0, 156.0, 154.0, 154.0, 156.0, 181.0, 185.0, 174.0]",0.03855716064572334,0.0,0.000152587890625,-0.00016021728515625,-27.979263305664062
1743582058.5337765,0.0,-0.0,"[174.0, 185.0, 181.0, 156.0, 154.0, 154.0, 156.0, 181.0, 185.0, 174.0]",0.20914888381958008,0.0,0.000152587890625,-0.000164031982421875,-27.975082397460938
1743582058.5593932,0.0,-0.0,"[174.0, 185.0, 181.0, 156.0, 154.0, 154.0, 156.0, 181.0, 185.0, 174.0]",0.06107418239116669,0.0,0.000152587890625,-0.0001678466796875,-27.973861694335938
1743582058.5752504,0.0,-0.0,"[174.0, 185.0, 181.0, 156.0, 154.0, 154.0, 156.0, 181.0, 185.0, 174.0]",0.17586052417755127,0.0,0.000152587890625,-0.0001697540283203125,-27.977378845214844
1743582058.5948887,0.0,0.5189532779659444,"[174.0, 185.0, 181.0, 156.0, 154.0, 154.0, 156.0, 181.0, 185.0, 174.0]",0.13712847232818604,0.0,0.000152587890625,-0.000171661376953125,-27.980117797851562
1743582058.6148024,0.0,0.9064631373822669,"[174.0, 185.0, 181.0, 156.0, 154.0, 154.0, 156.0, 181.0, 185.0, 174.0]",0.0652378723025322,0.0,0.000152587890625,-0.00017547607421875,-27.97882080078125
1743582058.635405,0.0,1.040829582888693,"[174.0, 185.0, 181.0, 156.0, 154.0, 154.0, 156.0, 181.0, 185.0, 174.0]",0.17429779469966888,0.0,0.000152587890625,-0.0001773834228515625,-27.9822998046875
1743582058.6547377,0.0,1.040829582888693,"[174.0, 185.0, 181.0, 156.0, 154.0, 154.0, 156.0, 181.0, 185.0, 174.0]",0.13388797640800476,0.0,0.00018310546875,-0.000179290771484375,-27.9849853515625
1743582058.674753,0.0,1.040829582888693,"[174.0, 185.0, 181.0, 156.0, 154.0, 154.0, 156.0, 181.0, 185.0, 174.0]",0.09136921167373657,0.0,0.00018310546875,-0.0001811981201171875,-27.983154296875
1743582058.6946974,0.0,1.040829582888693,"[174.0, 185.0, 181.0, 156.0, 154.0, 154.0, 156.0, 181.0, 185.0, 174.0]",0.21066094934940338,0.0,0.00018310546875,-0.0001811981201171875,-27.98736572265625
1743582058.7150395,0.0,1.040829582888693,"[174.0, 185.0, 181.0, 156.0, 154.0, 154.0, 156.0, 181.0, 185.0, 174.0]",0.09109751135110855,0.0,-0.001434326171875,-0.00018310546875,-27.988182067871094
1743582058.7343938,0.0,1.040829582888693,"[174.0, 185.0, 181.0, 156.0, 154.0, 154.0, 156.0, 181.0, 185.0, 174.0]",0.24683481454849243,0.0,-0.006378173828125,-0.00018310546875,-27.98834991455078
1743582058.7571106,0.0,1.040829582888693,"[174.0, 185.0, 181.0, 156.0, 154.0, 154.0, 156.0, 181.0, 185.0, 174.0]",0.3864346742630005,0.0,-0.01409912109375,-0.00018310546875,-27.9884033203125
1743582058.7757962,0.0,1.040829582888693,"[174.0, 185.0, 181.0, 156.0, 154.0, 154.0, 156.0, 181.0, 185.0, 174.0]",0.5309318900108337,0.0,-0.02471923828125,-0.0001850128173828125,-27.9884033203125
1743582058.7939262,0.0,1.040829582888693,"[174.0, 185.0, 181.0, 156.0, 154.0, 154.0, 156.0, 181.0, 185.0, 174.0]",0.6585264801979065,0.0,-0.03790283203125,-0.0001850128173828125,-27.98841094970703
1743582058.8160284,0.0,1.040829582888693,"[174.0, 185.0, 181.0, 156.0, 154.0, 154.0, 156.0, 181.0, 185.0, 174.0]",0.7956581711769104,0.0,-0.053802490234375,-0.0001850128173828125,-27.9884033203125
1743582058.834417,0.0,1.040829582888693,"[174.0, 185.0, 181.0, 156.0, 154.0, 154.0, 156.0, 181.0, 185.0, 174.0]",0.9281141757965088,0.0,-0.0723876953125,-0.0001850128173828125,-27.98841094970703
1743582058.8535755,0.0,1.040829582888693,"[174.0, 185.0, 181.0, 156.0, 154.0, 154.0, 156.0, 181.0, 185.0, 174.0]",1.0384156703948975,0.0,-0.0931396484375,-0.0001850128173828125,-27.98841094970703
1743582058.874389,0.0,1.040829582888693,"[174.0, 185.0, 181.0, 156.0, 154.0, 154.0, 156.0, 181.0, 185.0, 174.0]",1.223314881324768,0.0,-0.11761474609375,-0.0001850128173828125,-27.9884033203125
1743582058.8946168,0.0,1.040829582888693,"[174.0, 185.0, 181.0, 156.0, 154.0, 154.0, 156.0, 181.0, 185.0, 174.0]",1.351271152496338,0.0,-0.144622802734375,-0.0001850128173828125,-27.9884033203125
1743582058.9158514,0.0,1.040829582888693,"[174.0, 185.0, 181.0, 156.0, 154.0, 154.0, 156.0, 181.0, 185.0, 174.0]",1.449709177017212,0.0,-0.173614501953125,-0.00018310546875,-27.9884033203125
1743582058.9348757,0.0,1.040829582888693,"[174.0, 185.0, 181.0, 156.0, 154.0, 154.0, 156.0, 181.0, 185.0, 174.0]",1.6110763549804688,0.0,-0.205841064453125,-0.00018310546875,-27.988418579101562
1743582058.9576359,0.0,1.040829582888693,"[174.0, 185.0, 181.0, 156.0, 154.0, 154.0, 156.0, 181.0, 185.0, 174.0]",1.7673758268356323,0.0,-0.2412109375,-0.00018310546875,-27.988418579101562
1743582058.9759736,0.0,1.040829582888693,"[174.0, 185.0, 181.0, 156.0, 154.0, 154.0, 156.0, 181.0, 185.0, 174.0]",1.8525121212005615,0.0,-0.27825927734375,-0.00018310546875,-27.988418579101562
1743582058.9955006,0.0,1.040829582888693,"[174.0, 185.0, 181.0, 156.0, 154.0, 154.0, 156.0, 181.0, 185.0, 174.0]",2.0127711296081543,0.0,-0.318511962890625,-0.00018310546875,-27.9884033203125
1743582059.0149472,0.0,1.0348907344685194,"[174.0, 185.0, 181.0, 156.0, 154.0, 154.0, 156.0, 181.0, 185.0, 174.0]",2.1678526401519775,0.0,-0.361846923828125,-0.00018310546875,-27.988372802734375
1743582059.0341024,0.0,1.0252401057857374,"[174.0, 185.0, 181.0, 156.0, 154.0, 154.0, 156.0, 181.0, 185.0, 174.0]",2.307133436203003,0.0,-0.407989501953125,-0.00018310546875,-27.98834991455078
1743582059.0548043,0.0,1.0224562705887812,"[174.0, 185.0, 181.0, 156.0, 154.0, 154.0, 156.0, 181.0, 185.0, 174.0]",2.4233739376068115,0.0,-0.45648193359375,-0.0001811981201171875,-27.988327026367188
1743582059.0736845,0.0,1.0207395722173247,"[174.0, 185.0, 181.0, 156.0, 154.0, 154.0, 156.0, 181.0, 185.0, 174.0]",2.5378317832946777,0.0,-0.507232666015625,-0.0001811981201171875,-27.988311767578125
1743582059.0956807,0.0,1.0207395722173247,"[174.0, 185.0, 181.0, 156.0, 154.0, 154.0, 156.0, 181.0, 185.0, 174.0]",2.653970241546631,0.0,-0.560302734375,-0.0001811981201171875,-27.988296508789062
1743582059.1149995,0.0,1.0207395722173247,"[174.0, 185.0, 181.0, 156.0, 154.0, 154.0, 156.0, 181.0, 185.0, 174.0]",2.8156306743621826,0.0,-0.616607666015625,-0.0001811981201171875,-27.98828125
1743582059.1339023,0.0,1.0207395722173247,"[174.0, 185.0, 181.0, 156.0, 154.0, 154.0, 156.0, 181.0, 185.0, 174.0]",2.94045090675354,0.0,-0.6754150390625,-0.0001811981201171875,-27.988250732421875
1743582059.1567569,0.0,1.018930079339303,"[174.0, 185.0, 181.0, 156.0, 154.0, 154.0, 156.0, 181.0, 185.0, 174.0]",3.052926778793335,0.0,-0.736480712890625,-0.0001811981201171875,-27.98822021484375
1743582059.176238,0.0,1.018930079339303,"[174.0, 185.0, 181.0, 156.0, 154.0, 154.0, 156.0, 181.0, 185.0, 174.0]",3.2051620483398438,0.0,-0.80059814453125,-0.0001811981201171875,-27.988182067871094
1743582059.195146,0.0,1.018930079339303,"[174.0, 185.0, 181.0, 156.0, 154.0, 154.0, 156.0, 181.0, 185.0, 174.0]",3.3276636600494385,0.0,-0.86712646484375,-0.0001811981201171875,-27.988143920898438
1743582059.2144837,0.0,1.018930079339303,"[174.0, 185.0, 181.0, 156.0, 154.0, 154.0, 156.0, 181.0, 185.0, 174.0]",3.4558260440826416,0.0,-0.936248779296875,-0.0001811981201171875,-27.98809814453125
1743582059.2344348,0.0,1.0173525727276944,"[174.0, 185.0, 181.0, 156.0, 154.0, 154.0, 156.0, 181.0, 185.0, 174.0]",3.610138177871704,0.0,-1.008453369140625,-0.0001811981201171875,-27.988052368164062
1743582059.254695,0.0,1.0142903540110426,"[174.0, 185.0, 181.0, 156.0, 154.0, 154.0, 156.0, 181.0, 185.0, 174.0]",3.7462527751922607,0.0,-1.0833740234375,-0.0001811981201171875,-27.987998962402344
1743582059.276404,0.0,1.0142903540110426,"[174.0, 185.0, 181.0, 156.0, 154.0, 154.0, 156.0, 181.0, 185.0, 174.0]",3.819955825805664,0.0,-1.1597900390625,-0.0001811981201171875,-27.987945556640625
1743582059.2946815,0.0,1.0142903540110426,"[174.0, 185.0, 181.0, 156.0, 154.0, 154.0, 156.0, 181.0, 185.0, 174.0]",3.9832706451416016,0.0,-1.23944091796875,-0.0001811981201171875,-27.987884521484375
1743582059.315989,0.0,1.0142903540110426,"[174.0, 185.0, 181.0, 156.0, 154.0, 154.0, 156.0, 181.0, 185.0, 174.0]",4.090497970581055,0.0,-1.321258544921875,-0.0001811981201171875,-27.987831115722656
1743582059.3354304,0.0,1.0142903540110426,"[174.0, 185.0, 181.0, 156.0, 154.0, 154.0, 156.0, 181.0, 185.0, 174.0]",4.240790843963623,0.0,-1.40606689453125,-0.0001811981201171875,-27.98778533935547
1743582059.3566992,0.0,1.0142903540110426,"[174.0, 185.0, 181.0, 156.0, 154.0, 154.0, 156.0, 181.0, 185.0, 174.0]",4.357961177825928,0.0,-1.49322509765625,-0.0001811981201171875,-27.98772430419922
1743582059.376836,0.0,1.0142903540110426,"[174.0, 185.0, 181.0, 156.0, 154.0, 154.0, 156.0, 181.0, 185.0, 174.0]",4.476457118988037,0.0,-1.582763671875,-0.0001811981201171875,-27.9876708984375
1743582059.3956583,0.0,1.0142903540110426,"[174.0, 185.0, 181.0, 156.0, 154.0, 154.0, 156.0, 181.0, 185.0, 174.0]",4.621114253997803,0.0,-1.675201416015625,-0.0001811981201171875,-27.98760986328125
1743582059.4163792,0.0,1.0142903540110426,"[174.0, 185.0, 181.0, 156.0, 154.0, 154.0, 156.0, 181.0, 185.0, 174.0]",4.749345302581787,0.0,-1.770172119140625,-0.0001811981201171875,-27.987548828125
1743582059.4356651,0.0,1.0142903540110426,"[174.0, 185.0, 181.0, 156.0, 154.0, 154.0, 156.0, 181.0, 185.0, 174.0]",4.8645405769348145,0.0,-1.867462158203125,-0.0001811981201171875,-27.987472534179688
1743582059.4546218,0.0,1.0142903540110426,"[174.0, 185.0, 181.0, 156.0, 154.0, 154.0, 156.0, 181.0, 185.0, 174.0]",4.998071670532227,0.0,-1.967437744140625,-0.0001811981201171875,-27.987396240234375
1743582059.4754677,0.0,1.0142903540110426,"[174.0, 185.0, 181.0, 156.0, 154.0, 154.0, 156.0, 181.0, 185.0, 174.0]",5.127243518829346,0.0,-2.069976806640625,-0.0001811981201171875,-27.987335205078125
1743582059.4951186,0.0,1.0142903540110426,"[174.0, 185.0, 181.0, 156.0, 154.0, 154.0, 156.0, 181.0, 185.0, 174.0]",5.251797199249268,0.0,-2.175018310546875,0.000156402587890625,-27.98725128173828
1743582059.515166,0.0,1.0142903540110426,"[174.0, 185.0, 181.0, 156.0, 154.0, 154.0, 156.0, 181.0, 185.0, 174.0]",5.508660316467285,0.0,-2.285186767578125,0.0004425048828125,-27.987319946289062
1743582059.5350332,0.0,1.0142903540110426,"[174.0, 185.0, 181.0, 156.0, 154.0, 154.0, 156.0, 181.0, 185.0, 174.0]",5.42283821105957,0.0,-2.393646240234375,0.0006809234619140625,-27.986778259277344
1743582059.5597913,0.0,1.0142903540110426,"[174.0, 185.0, 181.0, 156.0, 154.0, 155.0, 156.0, 181.0, 185.0, 174.0]",5.600583076477051,0.0,-2.505645751953125,0.0008716583251953125,-27.987777709960938
1743582059.5777385,0.0,1.0142903540110426,"[174.0, 185.0, 181.0, 156.0, 154.0, 154.0, 156.0, 181.0, 185.0, 174.0]",5.505765438079834,0.0,-2.61572265625,0.001018524169921875,-27.98509979248047
1743582059.5967424,0.0,1.0142903540110426,"[174.0, 185.0, 180.0, 156.0, 154.0, 155.0, 158.0, 181.0, 185.0, 174.0]",5.791046619415283,0.0,-2.731475830078125,0.0011272430419921875,-27.989059448242188
1743582059.61459,0.0,1.0142903540110426,"[174.0, 185.0, 181.0, 156.0, 155.0, 154.0, 156.0, 181.0, 185.0, 174.0]",5.829319477081299,0.0,-2.848052978515625,0.0011997222900390625,-27.98686981201172
1743582059.6357007,0.0,1.0142903540110426,"[174.0, 185.0, 180.0, 156.0, 154.0, 155.0, 158.0, 181.0, 185.0, 174.0]",6.003933429718018,0.0,-2.968109130859375,0.001239776611328125,-27.987747192382812
1743582059.6546535,0.0,1.0142903540110426,"[174.0, 185.0, 181.0, 156.0, 154.0, 154.0, 156.0, 181.0, 185.0, 174.0]",6.299388408660889,0.0,-3.0941162109375,0.001255035400390625,-27.9876708984375
1743582059.6742196,0.0,1.0142903540110426,"[174.0, 185.0, 180.0, 156.0, 154.0, 155.0, 156.0, 181.0, 185.0, 174.0]",6.224499702453613,0.0,-3.218597412109375,0.001247406005859375,-27.98876190185547
1743582059.6949086,0.0,1.0142903540110426,"[174.0, 185.0, 181.0, 156.0, 154.0, 154.0, 156.0, 181.0, 185.0, 174.0]",6.378006458282471,0.0,-3.34613037109375,0.0012226104736328125,-27.985992431640625
1743582059.715244,0.0,1.0142903540110426,"[174.0, 185.0, 180.0, 156.0, 154.0, 155.0, 156.0, 181.0, 185.0, 174.0]",6.73884916305542,0.0,-3.48089599609375,0.00118255615234375,-27.987625122070312
1743582059.7346478,0.0,1.0142903540110426,"[174.0, 185.0, 181.0, 156.0, 154.0, 154.0, 156.0, 181.0, 185.0, 174.0]",6.491057395935059,0.0,-3.610687255859375,0.001132965087890625,-27.985565185546875
1743582059.7567465,0.0,1.0142903540110426,"[174.0, 185.0, 180.0, 156.0, 154.0, 155.0, 158.0, 181.0, 185.0, 174.0]",6.793489933013916,0.0,-3.746551513671875,0.00107574462890625,-27.987701416015625
1743582059.7784364,0.0,1.0142903540110426,"[174.0, 185.0, 181.0, 156.0, 154.0, 154.0, 156.0, 181.0, 185.0, 174.0]",6.745945930480957,0.0,-3.88140869140625,0.00101470947265625,-27.983779907226562
1743582059.795696,0.0,1.0142903540110426,"[174.0, 185.0, 180.0, 156.0, 154.0, 155.0, 158.0, 181.0, 185.0, 174.0]",6.869647026062012,0.0,-4.018768310546875,0.0009517669677734375,-27.987274169921875
1743582059.814695,0.0,1.0142903540110426,"[174.0, 185.0, 181.0, 156.0, 154.0, 154.0, 156.0, 181.0, 185.0, 174.0]",7.149448394775391,0.0,-4.1617431640625,0.000888824462890625,-27.98609161376953
1743582059.834181,0.0,1.0142903540110426,"[174.0, 185.0, 180.0, 156.0, 154.0, 155.0, 158.0, 181.0, 185.0, 174.0]",7.342362403869629,0.0,-4.30859375,0.000827789306640625,-27.986915588378906
1743582059.8551028,0.0,1.0142903540110426,"[174.0, 185.0, 181.0, 156.0, 154.0, 154.0, 156.0, 181.0, 185.0, 174.0]",7.3968682289123535,0.0,-4.456512451171875,0.00077056884765625,-27.98432159423828
1743582059.8746495,0.0,1.0142903540110426,"[174.0, 185.0, 180.0, 156.0, 154.0, 155.0, 156.0, 181.0, 185.0, 174.0]",7.521520614624023,0.0,-4.60693359375,0.0007190704345703125,-27.986053466796875
1743582059.8955138,0.0,1.0205075859509116,"[174.0, 185.0, 181.0, 156.0, 154.0, 154.0, 156.0, 181.0, 185.0, 174.0]",7.6883625984191895,0.0,-4.760650634765625,0.0006694793701171875,-27.983306884765625
1743582059.916032,0.0,1.0224562705887812,"[174.0, 185.0, 180.0, 156.0, 154.0, 155.0, 158.0, 181.0, 185.0, 174.0]",7.716867923736572,0.0,-4.91497802734375,0.0006275177001953125,-27.98499298095703
1743582059.9347718,0.0,1.0224562705887812,"[174.0, 185.0, 181.0, 156.0, 154.0, 154.0, 156.0, 181.0, 185.0, 174.0]",7.971179008483887,0.0,-5.07440185546875,0.000591278076171875,-27.982131958007812
1743582059.958614,0.0,1.0224562705887812,"[174.0, 185.0, 181.0, 156.0, 154.0, 155.0, 156.0, 181.0, 185.0, 174.0]",8.045292854309082,0.0,-5.23529052734375,0.000560760498046875,-27.983383178710938
1743582059.976784,0.0,1.0224562705887812,"[174.0, 185.0, 181.0, 156.0, 154.0, 154.0, 156.0, 181.0, 185.0, 174.0]",8.103090286254883,0.0,-5.3973388671875,0.0005340576171875,-27.981590270996094
1743582059.995601,0.0,1.0240801744536723,"[174.0, 185.0, 181.0, 156.0, 154.0, 154.0, 156.0, 181.0, 185.0, 174.0]",8.182960510253906,0.0,-5.561004638671875,0.000514984130859375,-27.98162078857422
1743582060.0173128,0.0,1.0257040783185636,"[174.0, 185.0, 181.0, 156.0, 154.0, 155.0, 156.0, 181.0, 185.0, 174.0]",8.355806350708008,0.0,-5.728118896484375,0.0004978179931640625,-27.980941772460938
1743582060.0377715,0.0,1.0257040783185636,"[174.0, 185.0, 181.0, 156.0, 154.0, 155.0, 156.0, 181.0, 185.0, 174.0]",8.358743667602539,0.0,-5.895294189453125,0.00048828125,-27.980194091796875
1743582060.055037,0.0,1.0257040783185636,"[174.0, 185.0, 181.0, 156.0, 154.0, 154.0, 156.0, 181.0, 185.0, 174.0]",8.501524925231934,0.0,-6.0653076171875,0.00048065185546875,-27.979476928710938
1743582060.0758276,0.0,1.0278383519695633,"[174.0, 185.0, 181.0, 156.0, 154.0, 154.0, 156.0, 181.0, 185.0, 174.0]",8.882225036621094,0.0,-6.242950439453125,0.000476837158203125,-27.97893524169922
1743582060.095368,0.0,1.0278383519695633,"[174.0, 185.0, 181.0, 156.0, 154.0, 155.0, 156.0, 181.0, 185.0, 174.0]",8.714910507202148,0.0,-6.417266845703125,0.0004749298095703125,-27.978294372558594
1743582060.115179,0.0,1.0278383519695633,"[174.0, 185.0, 181.0, 156.0, 154.0, 154.0, 156.0, 181.0, 185.0, 174.0]",8.824427604675293,0.0,-6.59375,0.000476837158203125,-27.97747802734375
1743582060.1341927,0.0,1.0278383519695633,"[174.0, 185.0, 181.0, 156.0, 154.0, 155.0, 156.0, 181.0, 185.0, 174.0]",9.113698959350586,0.0,-6.776031494140625,0.00048065185546875,-27.977073669433594
1743582060.1571276,0.0,1.0278383519695633,"[174.0, 185.0, 181.0, 156.0, 154.0, 154.0, 156.0, 181.0, 185.0, 174.0]",9.128947257995605,0.0,-6.958587646484375,0.000484466552734375,-27.976356506347656
1743582060.1760128,0.0,1.0278383519695633,"[174.0, 185.0, 180.0, 156.0, 154.0, 155.0, 156.0, 181.0, 185.0, 174.0]",9.319377899169922,0.0,-7.144989013671875,0.0004901885986328125,-27.975738525390625
1743582060.1968,0.0,1.0278383519695633,"[174.0, 185.0, 181.0, 156.0, 154.0, 154.0, 156.0, 181.0, 185.0, 174.0]",9.351975440979004,0.0,-7.33203125,0.0004978179931640625,-27.974761962890625
1743582060.2159276,0.0,1.0278383519695633,"[174.0, 185.0, 181.0, 156.0, 154.0, 155.0, 156.0, 181.0, 185.0, 174.0]",9.526924133300781,0.0,-7.522552490234375,0.0005035400390625,-27.97454833984375
1743582060.2341413,0.0,1.029415858581172,"[174.0, 185.0, 180.0, 156.0, 154.0, 155.0, 156.0, 181.0, 185.0, 174.0]",9.720561981201172,0.0,-7.71697998046875,0.00051116943359375,-27.973709106445312
1743582060.2554195,0.0,1.029415858581172,"[174.0, 185.0, 181.0, 156.0, 154.0, 154.0, 156.0, 181.0, 185.0, 174.0]",9.968017578125,0.0,-7.91632080078125,0.000518798828125,-27.972793579101562
1743582060.274376,0.0,1.029415858581172,"[174.0, 185.0, 180.0, 156.0, 154.0, 155.0, 156.0, 181.0, 185.0, 174.0]",9.827874183654785,0.0,-8.112884521484375,0.0005245208740234375,-27.972213745117188
1743582060.2954214,0.0,1.029415858581172,"[174.0, 185.0, 181.0, 156.0, 154.0, 155.0, 156.0, 181.0, 185.0, 174.0]",10.00955867767334,0.0,-8.313079833984375,0.0005321502685546875,-27.971115112304688
1743582060.3154314,0.0,1.029415858581172,"[174.0, 185.0, 180.0, 156.0, 154.0, 155.0, 156.0, 181.0, 185.0, 174.0]",10.170175552368164,0.0,-8.5164794921875,0.000537872314453125,-27.970443725585938
1743582060.3350365,0.0,1.029415858581172,"[174.0, 185.0, 181.0, 156.0, 154.0, 154.0, 156.0, 181.0, 185.0, 174.0]",10.140066146850586,0.0,-8.719268798828125,0.00054168701171875,-27.969284057617188
1743582060.3585489,0.0,1.029415858581172,"[174.0, 185.0, 181.0, 156.0, 154.0, 155.0, 156.0, 181.0, 185.0, 174.0]",10.32720947265625,0.0,-8.925811767578125,0.0005474090576171875,-27.968948364257812
1743582060.3755796,0.0,1.029415858581172,"[174.0, 185.0, 180.0, 156.0, 154.0, 155.0, 156.0, 181.0, 185.0, 174.0]",10.516115188598633,0.0,-9.136138916015625,0.0005512237548828125,-27.968101501464844
1743582060.3971379,0.0,1.029415858581172,"[174.0, 185.0, 181.0, 156.0, 154.0, 155.0, 156.0, 181.0, 185.0, 174.0]",10.714064598083496,0.0,-9.35040283203125,0.0005550384521484375,-27.967079162597656
1743582060.417773,0.0,1.029415858581172,"[174.0, 185.0, 180.0, 156.0, 154.0, 155.0, 156.0, 181.0, 185.0, 174.0]",10.730690002441406,0.0,-9.565032958984375,0.00055694580078125,-27.96625518798828
1743582060.4344432,0.0,1.029415858581172,"[174.0, 185.0, 180.0, 156.0, 154.0, 155.0, 156.0, 181.0, 185.0, 174.0]",10.667607307434082,0.0,-9.77838134765625,0.0005588531494140625,-27.965415954589844
1743582060.4549594,0.0,1.029415858581172,"[174.0, 185.0, 180.0, 156.0, 154.0, 155.0, 156.0, 181.0, 185.0, 174.0]",11.014357566833496,0.0,-9.9986572265625,0.000560760498046875,-27.96454620361328
1743582060.4747922,0.0,1.029415858581172,"[174.0, 185.0, 180.0, 156.0, 154.0, 155.0, 156.0, 181.0, 185.0, 174.0]",11.019564628601074,0.0,-10.21905517578125,0.0005626678466796875,-27.963668823242188
1743582060.494356,0.0,1.029415858581172,"[174.0, 185.0, 180.0, 156.0, 154.0, 155.0, 156.0, 181.0, 185.0, 174.0]",11.406301498413086,0.0,-10.447174072265625,0.0005626678466796875,-27.962783813476562
1743582060.5143003,0.0,1.029415858581172,"[174.0, 185.0, 180.0, 156.0, 154.0, 155.0, 156.0, 181.0, 185.0, 174.0]",11.321354866027832,0.0,-10.673614501953125,0.0005626678466796875,-27.961929321289062
1743582060.5339587,0.0,1.029415858581172,"[174.0, 185.0, 181.0, 156.0, 154.0, 154.0, 156.0, 181.0, 185.0, 174.0]",11.525402069091797,0.0,-10.90411376953125,0.0005645751953125,-27.960845947265625
1743582060.5586796,0.0,1.029415858581172,"[174.0, 185.0, 180.0, 156.0, 154.0, 155.0, 156.0, 181.0, 185.0, 174.0]",11.362762451171875,0.0,-11.13134765625,0.0005626678466796875,-27.960121154785156
1743582060.5753412,0.0,1.029415858581172,"[174.0, 185.0, 180.0, 156.0, 154.0, 155.0, 156.0, 181.0, 185.0, 174.0]",11.712159156799316,0.0,-11.3656005859375,0.0005626678466796875,-27.959197998046875
1743582060.5973346,0.0,1.029415858581172,"[174.0, 185.0, 180.0, 156.0, 154.0, 155.0, 156.0, 181.0, 185.0, 174.0]",11.721593856811523,0.0,-11.60003662109375,0.0005626678466796875,-27.958267211914062
1743582060.617555,0.0,1.029415858581172,"[174.0, 185.0, 180.0, 156.0, 154.0, 155.0, 156.0, 181.0, 185.0, 174.0]",12.135066986083984,0.0,-11.842742919921875,0.0005626678466796875,-27.957290649414062
1743582060.6344252,0.0,1.029415858581172,"[174.0, 185.0, 180.0, 156.0, 154.0, 154.0, 156.0, 181.0, 185.0, 174.0]",11.850893020629883,0.0,-12.079742431640625,0.000560760498046875,-27.956314086914062
1743582060.655591,0.0,1.029415858581172,"[174.0, 185.0, 181.0, 156.0, 154.0, 154.0, 156.0, 181.0, 185.0, 174.0]",12.202505111694336,0.0,-12.32379150390625,0.000560760498046875,-27.955535888671875
1743582060.6760614,0.0,1.029415858581172,"[174.0, 185.0, 180.0, 156.0, 154.0, 155.0, 156.0, 181.0, 185.0, 174.0]",12.322589874267578,0.0,-12.57025146484375,0.0005588531494140625,-27.954833984375
1743582060.69555,0.0,1.029415858581172,"[174.0, 185.0, 180.0, 156.0, 154.0, 154.0, 156.0, 181.0, 185.0, 174.0]",12.4926176071167,0.0,-12.820098876953125,0.0005588531494140625,-27.95378875732422
1743582060.7141194,0.0,1.029415858581172,"[174.0, 185.0, 180.0, 156.0, 154.0, 155.0, 156.0, 181.0, 185.0, 174.0]",12.32628059387207,0.0,-13.066619873046875,0.0005588531494140625,-27.9530029296875
1743582060.734934,0.0,1.029415858581172,"[174.0, 185.0, 180.0, 156.0, 154.0, 155.0, 156.0, 181.0, 185.0, 174.0]",12.696261405944824,0.0,-13.320526123046875,0.00055694580078125,-27.951934814453125
1743582060.7583356,0.0,1.029415858581172,"[174.0, 185.0, 180.0, 156.0, 154.0, 154.0, 156.0, 181.0, 185.0, 174.0]",12.733732223510742,0.0,-13.575225830078125,0.00055694580078125,-27.950782775878906
1743582060.7763548,0.0,1.029415858581172,"[174.0, 185.0, 180.0, 156.0, 154.0, 155.0, 158.0, 181.0, 185.0, 174.0]",12.733611106872559,0.0,-13.82989501953125,0.00055694580078125,-27.95006561279297
1743582060.7962003,0.0,1.029415858581172,"[174.0, 185.0, 180.0, 156.0, 154.0, 155.0, 156.0, 181.0, 185.0, 174.0]",12.887411117553711,0.0,-14.087615966796875,0.0005550384521484375,-27.9488525390625
1743582060.8154194,0.0,1.029415858581172,"[174.0, 185.0, 180.0, 156.0, 154.0, 155.0, 158.0, 181.0, 185.0, 174.0]",13.053823471069336,0.0,-14.34869384765625,0.0005550384521484375,-27.947891235351562
1743582060.8344347,0.0,1.029415858581172,"[174.0, 185.0, 180.0, 156.0, 154.0, 155.0, 156.0, 181.0, 185.0, 174.0]",13.214081764221191,0.0,-14.61297607421875,0.0005550384521484375,-27.94671630859375
1743582060.8543952,0.0,1.029415858581172,"[174.0, 185.0, 180.0, 156.0, 154.0, 155.0, 156.0, 181.0, 185.0, 174.0]",13.240269660949707,0.0,-14.877777099609375,0.0005550384521484375,-27.94580841064453
1743582060.8751712,0.0,1.029415858581172,"[174.0, 185.0, 180.0, 156.0, 154.0, 155.0, 158.0, 181.0, 185.0, 174.0]",13.436735153198242,0.0,-15.146514892578125,0.0005550384521484375,-27.944900512695312
1743582060.8941517,0.0,1.029415858581172,"[174.0, 185.0, 180.0, 156.0, 154.0, 154.0, 156.0, 181.0, 185.0, 174.0]",13.553581237792969,0.0,-15.4176025390625,0.000553131103515625,-27.94361114501953
1743582060.9157257,0.0,1.029415858581172,"[174.0, 185.0, 180.0, 156.0, 154.0, 155.0, 158.0, 181.0, 185.0, 174.0]",13.530029296875,0.0,-15.688201904296875,0.000553131103515625,-27.9427490234375
1743582060.9361298,0.0,1.029415858581172,"[174.0, 185.0, 180.0, 156.0, 154.0, 155.0, 158.0, 181.0, 185.0, 174.0]",13.856538772583008,0.0,-15.965301513671875,0.000553131103515625,-27.941566467285156
1743582060.957748,0.0,1.029415858581172,"[174.0, 185.0, 180.0, 156.0, 154.0, 155.0, 156.0, 181.0, 185.0, 174.0]",13.894547462463379,0.0,-16.243194580078125,0.000553131103515625,-27.94036865234375
1743582060.9737263,0.0,1.029415858581172,"[174.0, 185.0, 180.0, 156.0, 154.0, 155.0, 158.0, 181.0, 185.0, 174.0]",14.066256523132324,0.0,-16.5245361328125,0.000553131103515625,-27.939453125
1743582060.9967117,0.0,1.029415858581172,"[174.0, 185.0, 180.0, 156.0, 154.0, 155.0, 158.0, 181.0, 185.0, 174.0]",13.924287796020508,0.0,-16.803009033203125,0.000553131103515625,-27.938247680664062
1743582061.015523,0.0,1.0309933651927805,"[174.0, 185.0, 180.0, 156.0, 154.0, 155.0, 158.0, 181.0, 185.0, 174.0]",14.27219009399414,0.0,-17.08843994140625,0.000553131103515625,-27.936996459960938
1743582061.0337918,0.0,1.0309933651927805,"[174.0, 185.0, 180.0, 156.0, 154.0, 155.0, 158.0, 181.0, 185.0, 174.0]",14.27001667022705,0.0,-17.37384033203125,0.000553131103515625,-27.935760498046875
1743582061.0548224,0.0,1.0309933651927805,"[174.0, 185.0, 180.0, 156.0, 154.0, 155.0, 156.0, 181.0, 185.0, 174.0]",14.308416366577148,0.0,-17.660003662109375,0.000553131103515625,-27.934547424316406
1743582061.0742106,0.0,1.0309933651927805,"[174.0, 185.0, 180.0, 156.0, 154.0, 155.0, 156.0, 181.0, 185.0, 174.0]",14.703051567077637,0.0,-17.954071044921875,0.000553131103515625,-27.933486938476562
1743582061.093793,0.0,1.0309933651927805,"[174.0, 185.0, 180.0, 156.0, 154.0, 155.0, 158.0, 181.0, 185.0, 174.0]",14.506709098815918,0.0,-18.24420166015625,0.0005550384521484375,-27.932540893554688
1743582061.1148183,0.0,1.0221778870690854,"[174.0, 185.0, 180.0, 156.0, 154.0, 155.0, 158.0, 181.0, 185.0, 174.0]",14.756146430969238,0.0,-18.539337158203125,0.0005550384521484375,-27.931304931640625
1743582061.1338685,0.17969792159731485,1.0133160116921078,"[174.0, 185.0, 180.0, 156.0, 154.0, 155.0, 158.0, 181.0, 185.0, 174.0]",15.13181209564209,0.0,-18.841949462890625,0.0005550384521484375,-27.93011474609375
1743582061.1569755,0.18589440165239468,1.0118776968403471,"[174.0, 185.0, 179.0, 155.0, 154.0, 155.0, 158.0, 183.0, 185.0, 174.0]",14.691352844238281,0.08984895795583725,-19.13568115234375,0.0005550384521484375,-27.921791076660156
1743582061.1746757,0.18795989500408797,1.0118776968403471,"[174.0, 185.0, 179.0, 155.0, 153.0, 155.0, 158.0, 183.0, 185.0, 174.0]",15.021327018737793,0.09294719994068146,-19.435882568359375,0.0005550384521484375,-27.91053009033203
1743582061.1970568,0.18933689057188346,1.0100218067090427,"[174.0, 185.0, 179.0, 155.0, 153.0, 156.0, 158.0, 183.0, 185.0, 174.0]",15.411518096923828,0.09397994726896286,-19.743804931640625,0.0005550384521484375,-27.896942138671875
1743582061.2155762,0.18933689057188346,1.0100218067090427,"[174.0, 185.0, 178.0, 154.0, 153.0, 156.0, 159.0, 184.0, 185.0, 174.0]",14.976909637451172,0.094668447971344,-20.04296875,0.0005550384521484375,-27.881996154785156
1743582061.2348633,0.190713886139679,1.0100218067090427,"[174.0, 185.0, 178.0, 154.0, 152.0, 156.0, 159.0, 184.0, 185.0, 174.0]",15.294316291809082,0.094668447971344,-20.348388671875,0.0005550384521484375,-27.864974975585938
1743582061.2545319,0.190713886139679,1.0082587110843038,"[174.0, 185.0, 176.0, 153.0, 152.0, 157.0, 160.0, 184.0, 185.0, 174.0]",15.694900512695312,0.09535694122314453,-20.661712646484375,0.0005550384521484375,-27.845680236816406
1743582061.2737772,0.190713886139679,1.0082587110843038,"[174.0, 185.0, 176.0, 153.0, 152.0, 157.0, 160.0, 186.0, 185.0, 174.0]",15.43925666809082,0.09535694122314453,-20.96978759765625,0.0005550384521484375,-27.82494354248047
1743582061.294174,0.190713886139679,1.0082587110843038,"[174.0, 185.0, 176.0, 153.0, 151.0, 159.0, 160.0, 186.0, 185.0, 174.0]",15.829036712646484,0.09535694122314453,-21.2855224609375,0.0005550384521484375,-27.801681518554688
1743582061.315216,0.190713886139679,1.016471024915325,"[174.0, 185.0, 175.0, 152.0, 151.0, 159.0, 161.0, 187.0, 185.0, 174.0]",15.800774574279785,0.09535694122314453,-21.60052490234375,0.0005550384521484375,-27.776405334472656
1743582061.334788,0.190713886139679,1.0186980930728902,"[174.0, 185.0, 175.0, 152.0, 150.0, 159.0, 161.0, 187.0, 185.0, 174.0]",15.979514122009277,0.09535694122314453,-21.918914794921875,0.0005550384521484375,-27.74901580810547
1743582061.357104,0.190713886139679,1.0186980930728902,"[174.0, 185.0, 173.0, 151.0, 150.0, 159.0, 161.0, 187.0, 185.0, 174.0]",15.984941482543945,0.09535694122314453,-22.23724365234375,0.0005550384521484375,-27.7193603515625
1743582061.3749337,0.190713886139679,1.0186980930728902,"[174.0, 185.0, 173.0, 151.0, 149.0, 259.0, 162.0, 189.0, 185.0, 174.0]",16.09642219543457,0.09535694122314453,-22.5576171875,0.0005550384521484375,-27.687843322753906
1743582061.3965442,0.190713886139679,1.0186980930728902,"[174.0, 185.0, 172.0, 149.0, 149.0, 158.0, 162.0, 189.0, 185.0, 174.0]",16.29975128173828,0.09535694122314453,-22.881866455078125,0.0005550384521484375,-27.654014587402344
1743582061.4156759,0.190713886139679,1.0186980930728902,"[174.0, 185.0, 172.0, 149.0, 149.0, 158.0, 163.0, 190.0, 185.0, 174.0]",16.295391082763672,0.09535694122314453,-23.20574951171875,0.0005550384521484375,-27.61772918701172
1743582061.4358387,0.190713886139679,1.0186980930728902,"[174.0, 185.0, 170.0, 149.0, 148.0, 158.0, 163.0, 190.0, 185.0, 174.0]",16.409990310668945,0.09535694122314453,-23.531707763671875,0.0005550384521484375,-27.579437255859375
1743582061.454893,0.190713886139679,1.0186980930728902,"[174.0, 185.0, 170.0, 148.0, 147.0, 158.0, 164.0, 192.0, 185.0, 174.0]",16.607036590576172,0.09535694122314453,-23.861358642578125,0.0005550384521484375,-27.53876495361328
